[{"lat": 33.9497, "lon": 131.2545, "name": "2.0", "type": "police_station", "is_24h": true}, {"lat": 33.9567, "lon": 131.9496, "name": "2.0", "type": "police_station", "is_24h": true}, {"lat": 33.9683, "lon": 131.2317, "name": "4.0", "type": "police_station", "is_24h": true}, {"lat": 33.9786, "lon": 131.2605, "name": "4.0", "type": "police_station", "is_24h": true}, {"lat": 33.9435, "lon": 131.2565, "name": "4.0", "type": "police_station", "is_24h": true}, {"lat": 33.9677, "lon": 131.2668, "name": "4.0", "type": "police_station", "is_24h": true}, {"lat": 33.9538, "lon": 131.2743, "name": "4.0", "type": "police_station", "is_24h": true}, {"lat": 33.9587, "lon": 131.242, "name": "4.0", "type": "police_station", "is_24h": true}, {"lat": 33.9609, "lon": 131.3171, "name": "4.0", "type": "police_station", "is_24h": true}, {"lat": 33.9819, "lon": 131.3403, "name": "4.0", "type": "police_station", "is_24h": true}, {"lat": 33.9773, "lon": 131.2005, "name": "4.0", "type": "police_station", "is_24h": true}, {"lat": 33.9734, "lon": 131.9109, "name": "4.0", "type": "police_station", "is_24h": true}, {"lat": 33.9312, "lon": 131.9719, "name": "4.0", "type": "police_station", "is_24h": true}, {"lat": 33.976, "lon": 131.1772, "name": "4.0", "type": "police_station", "is_24h": true}, {"lat": 33.9511, "lon": 131.8496, "name": "5.0", "type": "police_station", "is_24h": true}, {"lat": 33.9905, "lon": 131.9613, "name": "5.0", "type": "police_station", "is_24h": true}, {"lat": 33.9818, "lon": 131.9956, "name": "5.0", "type": "police_station", "is_24h": true}, {"lat": 33.9877, "lon": 131.7909, "name": "5.0", "type": "police_station", "is_24h": true}, {"lat": 33.9628, "lon": 131.1742, "name": "5.0", "type": "police_station", "is_24h": true}, {"lat": 33.9471, "lon": 131.1678, "name": "5.0", "type": "police_station", "is_24h": true}, {"lat": 33.7872, "lon": 131.9898, "name": "5.0", "type": "police_station", "is_24h": true}, {"lat": 33.8361, "lon": 131.0342, "name": "police_station", "type": "police_station", "is_24h": true}, {"lat": 33.792, "lon": 131.0098, "name": "police_station", "type": "police_station", "is_24h": true}, {"lat": 33.5795, "lon": 131.0677, "name": "police_station", "type": "police_station", "is_24h": true}, {"lat": 33.8278, "lon": 131.0086, "name": "police_station", "type": "police_station", "is_24h": true}, {"lat": 33.8119, "lon": 131.0154, "name": "police_station", "type": "police_station", "is_24h": true}, {"lat": 33.7795, "lon": 131.0009, "name": "police_station", "type": "police_station", "is_24h": true}, {"lat": 33.7284, "lon": 131.0275, "name": "police_station", "type": "police_station", "is_24h": true}, {"lat": 33.906, "lon": 131.006, "name": "police_station", "type": "police_station", "is_24h": true}, {"lat": 33.6952, "lon": 131.0379, "name": "police_station", "type": "police_station", "is_24h": true}, {"lat": 33.6948, "lon": 131.0381, "name": "police_station", "type": "police_station", "is_24h": true}, {"lat": 33.1229, "lon": 131.0615, "name": "2.0", "type": "police_station", "is_24h": true}, {"lat": 33.0786, "lon": 131.1398, "name": "5.0", "type": "police_station", "is_24h": true}, {"lat": 33.0924, "lon": 131.0668, "name": "5.0", "type": "police_station", "is_24h": true}, {"lat": 33.1816, "lon": 131.0357, "name": "5.0", "type": "police_station", "is_24h": true}, {"lat": 33.1412, "lon": 131.0999, "name": "5.0", "type": "police_station", "is_24h": true}, {"lat": 33.238, "lon": 131.6126, "name": "1.0", "type": "police_station", "is_24h": true}, {"lat": 33.2412, "lon": 131.6076, "name": "2.0", "type": "police_station", "is_24h": true}, {"lat": 33.2538, "lon": 131.683, "name": "2.0", "type": "police_station", "is_24h": true}, {"lat": 33.1896, "lon": 131.536, "name": "2.0", "type": "police_station", "is_24h": true}, {"lat": 33.2943, "lon": 131.5027, "name": "2.0", "type": "police_station", "is_24h": true}, {"lat": 33.5944, "lon": 131.1928, "name": "2.0", "type": "police_station", "is_24h": true}, {"lat": 33.1232, "lon": 131.8052, "name": "2.0", "type": "police_station", "is_24h": true}, {"lat": 33.5563, "lon": 131.446, "name": "2.0", "type": "police_station", "is_24h": true}, {"lat": 33.4176, "lon": 131.6291, "name": "4.0", "type": "police_station", "is_24h": true}, {"lat": 33.5326, "lon": 131.3485, "name": "2.0", "type": "police_station", "is_24h": true}, {"lat": 33.5633, "lon": 131.733, "name": "2.0", "type": "police_station", "is_24h": true}, {"lat": 33.3802, "lon": 131.5416, "name": "2.0", "type": "police_station", "is_24h": true}, {"lat": 33.2747, "lon": 131.1541, "name": "2.0", "type": "police_station", "is_24h": true}, {"lat": 33.2449, "lon": 131.6545, "name": "4.0", "type": "police_station", "is_24h": true}, {"lat": 33.2451, "lon": 131.586, "name": "4.0", "type": "police_station", "is_24h": true}, {"lat": 33.2336, "lon": 131.6074, "name": "4.0", "type": "police_station", "is_24h": true}, {"lat": 33.227, "lon": 131.6356, "name": "4.0", "type": "police_station", "is_24h": true}, {"lat": 33.238, "lon": 131.6023, "name": "4.0", "type": "police_station", "is_24h": true}, {"lat": 33.2491, "lon": 131.6331, "name": "4.0", "type": "police_station", "is_24h": true}, {"lat": 33.2138, "lon": 131.5953, "name": "4.0", "type": "police_station", "is_24h": true}, {"lat": 33.2236, "lon": 131.6517, "name": "4.0", "type": "police_station", "is_24h": true}, {"lat": 33.2486, "lon": 131.8694, "name": "4.0", "type": "police_station", "is_24h": true}, {"lat": 33.2483, "lon": 131.7153, "name": "4.0", "type": "police_station", "is_24h": true}, {"lat": 33.2424, "lon": 131.6879, "name": "4.0", "type": "police_station", "is_24h": true}, {"lat": 33.2196, "lon": 131.6647, "name": "4.0", "type": "police_station", "is_24h": true}, {"lat": 33.1535, "lon": 131.6562, "name": "4.0", "type": "police_station", "is_24h": true}, {"lat": 33.1925, "lon": 131.6118, "name": "4.0", "type": "police_station", "is_24h": true}, {"lat": 33.1844, "lon": 131.5686, "name": "4.0", "type": "police_station", "is_24h": true}, {"lat": 33.3305, "lon": 131.4934, "name": "4.0", "type": "police_station", "is_24h": true}, {"lat": 33.2879, "lon": 131.4816, "name": "4.0", "type": "police_station", "is_24h": true}, {"lat": 33.3142, "lon": 131.4735, "name": "4.0", "type": "police_station", "is_24h": true}, {"lat": 33.275, "lon": 131.5068, "name": "4.0", "type": "police_station", "is_24h": true}, {"lat": 33.2782, "lon": 131.4998, "name": "4.0", "type": "police_station", "is_24h": true}, {"lat": 33.5991, "lon": 131.192, "name": "4.0", "type": "police_station", "is_24h": true}, {"lat": 33.5771, "lon": 131.2393, "name": "4.0", "type": "police_station", "is_24h": true}, {"lat": 33.5874, "lon": 131.1867, "name": "4.0", "type": "police_station", "is_24h": true}, {"lat": 33.5317, "lon": 131.3275, "name": "4.0", "type": "police_station", "is_24h": true}, {"lat": 33.555, "lon": 131.3056, "name": "5.0", "type": "police_station", "is_24h": true}, {"lat": 33.5683, "lon": 131.3771, "name": "4.0", "type": "police_station", "is_24h": true}, {"lat": 33.5446, "lon": 131.2838, "name": "5.0", "type": "police_station", "is_24h": true}, {"lat": 33.5638, "lon": 131.2916, "name": "5.0", "type": "police_station", "is_24h": true}, {"lat": 33.2657, "lon": 131.3558, "name": "4.0", "type": "police_station", "is_24h": true}, {"lat": 33.2391, "lon": 131.7748, "name": "5.0", "type": "police_station", "is_24h": true}, {"lat": 33.2324, "lon": 131.7493, "name": "5.0", "type": "police_station", "is_24h": true}, {"lat": 33.1853, "lon": 131.6681, "name": "5.0", "type": "police_station", "is_24h": true}, {"lat": 33.2403, "lon": 131.7967, "name": "5.0", "type": "police_station", "is_24h": true}, {"lat": 33.1966, "lon": 131.6963, "name": "5.0", "type": "police_station", "is_24h": true}, {"lat": 33.2172, "lon": 131.7248, "name": "5.0", "type": "police_station", "is_24h": true}, {"lat": 33.2275, "lon": 131.7436, "name": "5.0", "type": "police_station", "is_24h": true}, {"lat": 33.1123, "lon": 131.6935, "name": "5.0", "type": "police_station", "is_24h": true}, {"lat": 33.1057, "lon": 131.4507, "name": "5.0", "type": "police_station", "is_24h": true}, {"lat": 33.1119, "lon": 131.6524, "name": "5.0", "type": "police_station", "is_24h": true}, {"lat": 33.1615, "lon": 131.5266, "name": "5.0", "type": "police_station", "is_24h": true}, {"lat": 33.4013, "lon": 131.0465, "name": "5.0", "type": "police_station", "is_24h": true}, {"lat": 33.4283, "lon": 131.0987, "name": "5.0", "type": "police_station", "is_24h": true}, {"lat": 33.4531, "lon": 131.114, "name": "5.0", "type": "police_station", "is_24h": true}, {"lat": 33.5377, "lon": 131.2119, "name": "5.0", "type": "police_station", "is_24h": true}, {"lat": 33.4567, "lon": 131.1853, "name": "5.0", "type": "police_station", "is_24h": true}, {"lat": 33.5334, "lon": 131.1788, "name": "5.0", "type": "police_station", "is_24h": true}, {"lat": 33.5039, "lon": 131.1731, "name": "5.0", "type": "police_station", "is_24h": true}, {"lat": 33.2817, "lon": 131.0079, "name": "5.0", "type": "police_station", "is_24h": true}, {"lat": 33.2562, "lon": 131.0359, "name": "5.0", "type": "police_station", "is_24h": true}, {"lat": 33.0451, "lon": 131.9224, "name": "5.0", "type": "police_station", "is_24h": true}, {"lat": 33.1392, "lon": 131.7878, "name": "5.0", "type": "police_station", "is_24h": true}, {"lat": 33.177, "lon": 131.8269, "name": "5.0", "type": "police_station", "is_24h": true}, {"lat": 33.0062, "lon": 131.7166, "name": "5.0", "type": "police_station", "is_24h": true}, {"lat": 33.114, "lon": 131.8429, "name": "5.0", "type": "police_station", "is_24h": true}, {"lat": 33.0936, "lon": 131.7581, "name": "5.0", "type": "police_station", "is_24h": true}, {"lat": 33.049, "lon": 131.6898, "name": "5.0", "type": "police_station", "is_24h": true}, {"lat": 33.0423, "lon": 131.6911, "name": "5.0", "type": "police_station", "is_24h": true}, {"lat": 33.0716, "lon": 131.9897, "name": "5.0", "type": "police_station", "is_24h": true}, {"lat": 33.0809, "lon": 131.8331, "name": "5.0", "type": "police_station", "is_24h": true}, {"lat": 33.0913, "lon": 131.853, "name": "5.0", "type": "police_station", "is_24h": true}, {"lat": 33.0668, "lon": 131.9165, "name": "5.0", "type": "police_station", "is_24h": true}, {"lat": 33.0199, "lon": 131.2944, "name": "5.0", "type": "police_station", "is_24h": true}, {"lat": 33.0779, "lon": 131.3826, "name": "5.0", "type": "police_station", "is_24h": true}, {"lat": 33.0536, "lon": 131.3251, "name": "5.0", "type": "police_station", "is_24h": true}, {"lat": 33.0092, "lon": 131.2657, "name": "5.0", "type": "police_station", "is_24h": true}, {"lat": 33.6636, "lon": 131.5275, "name": "5.0", "type": "police_station", "is_24h": true}, {"lat": 33.6102, "lon": 131.4769, "name": "5.0", "type": "police_station", "is_24h": true}, {"lat": 33.5188, "lon": 131.511, "name": "5.0", "type": "police_station", "is_24h": true}, {"lat": 33.5643, "lon": 131.5107, "name": "5.0", "type": "police_station", "is_24h": true}, {"lat": 33.4886, "lon": 131.5632, "name": "5.0", "type": "police_station", "is_24h": true}, {"lat": 33.4154, "lon": 131.5867, "name": "5.0", "type": "police_station", "is_24h": true}, {"lat": 33.4224, "lon": 131.4438, "name": "5.0", "type": "police_station", "is_24h": true}, {"lat": 33.4476, "lon": 131.5038, "name": "5.0", "type": "police_station", "is_24h": true}, {"lat": 33.4815, "lon": 131.4759, "name": "5.0", "type": "police_station", "is_24h": true}, {"lat": 33.4362, "lon": 131.3574, "name": "5.0", "type": "police_station", "is_24h": true}, {"lat": 33.4155, "lon": 131.3163, "name": "5.0", "type": "police_station", "is_24h": true}, {"lat": 33.5287, "lon": 131.3724, "name": "5.0", "type": "police_station", "is_24h": true}, {"lat": 33.5322, "lon": 131.4112, "name": "5.0", "type": "police_station", "is_24h": true}, {"lat": 33.3884, "lon": 131.3962, "name": "5.0", "type": "police_station", "is_24h": true}, {"lat": 33.4491, "lon": 131.331, "name": "5.0", "type": "police_station", "is_24h": true}, {"lat": 33.0751, "lon": 131.6352, "name": "5.0", "type": "police_station", "is_24h": true}, {"lat": 33.0396, "lon": 131.5967, "name": "5.0", "type": "police_station", "is_24h": true}, {"lat": 33.0371, "lon": 131.4861, "name": "5.0", "type": "police_station", "is_24h": true}, {"lat": 33.0397, "lon": 131.4993, "name": "5.0", "type": "police_station", "is_24h": true}, {"lat": 33.0044, "lon": 131.4317, "name": "5.0", "type": "police_station", "is_24h": true}, {"lat": 33.1987, "lon": 131.51, "name": "5.0", "type": "police_station", "is_24h": true}, {"lat": 33.1845, "lon": 131.3986, "name": "5.0", "type": "police_station", "is_24h": true}, {"lat": 33.1833, "lon": 131.4544, "name": "5.0", "type": "police_station", "is_24h": true}, {"lat": 33.2216, "lon": 131.5243, "name": "5.0", "type": "police_station", "is_24h": true}, {"lat": 33.463, "lon": 131.7216, "name": "5.0", "type": "police_station", "is_24h": true}, {"lat": 33.6798, "lon": 131.5948, "name": "5.0", "type": "police_station", "is_24h": true}, {"lat": 33.4758, "lon": 131.655, "name": "5.0", "type": "police_station", "is_24h": true}, {"lat": 33.6591, "lon": 131.6471, "name": "5.0", "type": "police_station", "is_24h": true}, {"lat": 33.4707, "lon": 131.6915, "name": "5.0", "type": "police_station", "is_24h": true}, {"lat": 33.6747, "lon": 131.5638, "name": "5.0", "type": "police_station", "is_24h": true}, {"lat": 33.6092, "lon": 131.7014, "name": "5.0", "type": "police_station", "is_24h": true}, {"lat": 33.5013, "lon": 131.725, "name": "5.0", "type": "police_station", "is_24h": true}, {"lat": 33.7246, "lon": 131.6464, "name": "5.0", "type": "police_station", "is_24h": true}, {"lat": 33.3709, "lon": 131.5759, "name": "5.0", "type": "police_station", "is_24h": true}, {"lat": 33.3619, "lon": 131.4991, "name": "5.0", "type": "police_station", "is_24h": true}, {"lat": 33.1174, "lon": 131.2282, "name": "5.0", "type": "police_station", "is_24h": true}, {"lat": 33.1568, "lon": 131.224, "name": "5.0", "type": "police_station", "is_24h": true}, {"lat": 33.1968, "lon": 131.1653, "name": "5.0", "type": "police_station", "is_24h": true}, {"lat": 33.2264, "lon": 131.2068, "name": "5.0", "type": "police_station", "is_24h": true}, {"lat": 33.3181, "lon": 131.1377, "name": "5.0", "type": "police_station", "is_24h": true}, {"lat": 33.283, "lon": 131.0901, "name": "5.0", "type": "police_station", "is_24h": true}, {"lat": 33.4781, "lon": 131.7337, "name": "6.0", "type": "police_station", "is_24h": true}, {"lat": 33.1593, "lon": 131.4926, "name": "7.0", "type": "police_station", "is_24h": true}, {"lat": 33.0754, "lon": 131.8652, "name": "4.0", "type": "police_station", "is_24h": true}, {"lat": 33.1232, "lon": 131.8052, "name": "6.0", "type": "police_station", "is_24h": true}, {"lat": 33.5563, "lon": 131.446, "name": "6.0", "type": "police_station", "is_24h": true}, {"lat": 33.5634, "lon": 131.7331, "name": "6.0", "type": "police_station", "is_24h": true}, {"lat": 33.3801, "lon": 131.5406, "name": "6.0", "type": "police_station", "is_24h": true}, {"lat": 33.2748, "lon": 131.154, "name": "6.0", "type": "police_station", "is_24h": true}, {"lat": 33.2406, "lon": 131.6075, "name": "\u5927\u5206\u4e2d\u592e\u8b66\u5bdf\u7f72", "type": "police_station", "is_24h": true}, {"lat": 33.9511, "lon": 131.8496, "name": "\u4e0b\u677e\u8b66\u5bdf\u7f72\u6c5f\u306e\u6d66\u99d0\u5728\u6240", "type": "police_station", "is_24h": true}, {"lat": 33.9567, "lon": 131.9496, "name": "\u5149\u8b66\u5bdf\u7f72", "type": "police_station", "is_24h": true}, {"lat": 33.9905, "lon": 131.9613, "name": "\u5149\u8b66\u5bdf\u7f72\u4e0a\u5cf6\u7530\u99d0\u5728\u6240", "type": "police_station", "is_24h": true}, {"lat": 33.9734, "lon": 131.9144, "name": "\u5149\u8b66\u5bdf\u7f72\u5149\u99c5\u524d\u4ea4\u756a", "type": "koban", "is_24h": true}, {"lat": 33.9819, "lon": 131.9956, "name": "\u5149\u8b66\u5bdf\u7f72\u5927\u548c\u99d0\u5728\u6240", "type": "police_station", "is_24h": true}, {"lat": 33.9312, "lon": 131.9719, "name": "\u5149\u8b66\u5bdf\u7f72\u5ba4\u7a4d\u4ea4\u756a", "type": "koban", "is_24h": true}, {"lat": 33.9877, "lon": 131.7909, "name": "\u5468\u5357\u8b66\u5bdf\u7f72\u5927\u5cf6\u99d0\u5728\u6240", "type": "police_station", "is_24h": true}, {"lat": 33.9676, "lon": 131.2669, "name": "\u5b87\u90e8\u8b66\u5bdf\u7f72\u4e0a\u5b87\u90e8\u4ea4\u756a", "type": "koban", "is_24h": true}, {"lat": 33.9786, "lon": 131.2605, "name": "\u5b87\u90e8\u8b66\u5bdf\u7f72\u5c0f\u7fbd\u5c71\u4ea4\u756a", "type": "koban", "is_24h": true}, {"lat": 33.9684, "lon": 131.2316, "name": "\u5b87\u90e8\u8b66\u5bdf\u7f72\u5c45\u80fd\u4ea4\u756a", "type": "koban", "is_24h": true}, {"lat": 33.9819, "lon": 131.3402, "name": "\u5b87\u90e8\u8b66\u5bdf\u7f72\u6771\u5c90\u6ce2\u4ea4\u756a", "type": "koban", "is_24h": true}, {"lat": 33.9434, "lon": 131.2564, "name": "\u5b87\u90e8\u8b66\u5bdf\u7f72\u677e\u5c71\u4ea4\u756a", "type": "koban", "is_24h": true}, {"lat": 33.9772, "lon": 131.201, "name": "\u5b87\u90e8\u8b66\u5bdf\u7f72\u6d41\u5ddd\u4ea4\u756a", "type": "koban", "is_24h": true}, {"lat": 33.9569, "lon": 131.3074, "name": "\u5b87\u90e8\u8b66\u5bdf\u7f72\u897f\u5c90\u6ce2\u4ea4\u756a", "type": "koban", "is_24h": true}, {"lat": 33.9759, "lon": 131.177, "name": "\u5c0f\u91ce\u7530\u8b66\u5bdf\u7f72\u30bb\u30e1\u30f3\u30c8\u753a\u4ea4\u756a", "type": "koban", "is_24h": true}, {"lat": 33.9469, "lon": 131.1675, "name": "\u5c0f\u91ce\u7530\u8b66\u5bdf\u7f72\u672c\u5c71\u99d0\u5728\u6240", "type": "police_station", "is_24h": true}, {"lat": 33.9628, "lon": 131.1743, "name": "\u5c0f\u91ce\u7530\u8b66\u5bdf\u7f72\u897f\u306e\u6d5c\u99d0\u5728\u6240", "type": "police_station", "is_24h": true}, {"lat": 33.7872, "lon": 131.9898, "name": "\u5e73\u751f\u8b66\u5bdf\u7f72\u795d\u5cf6\u99d0\u5728\u6240", "type": "police_station", "is_24h": true}, {"lat": 33.7252, "lon": 131.0027, "name": "\u884c\u6a4b\u8b66\u5bdf\u7f72\u4eca\u5143\u99d0\u5728\u6240", "type": "police_station", "is_24h": true}, {"lat": 33.6919, "lon": 131.0134, "name": "\u884c\u6a4b\u8b66\u5bdf\u7f72\u65b0\u7530\u539f\u4ea4\u756a", "type": "koban", "is_24h": true}, {"lat": 33.6058, "lon": 131.1189, "name": "\u8c4a\u524d\u8b66\u5bdf\u7f72", "type": "police_station", "is_24h": true}, {"lat": 33.5619, "lon": 131.0938, "name": "\u8c4a\u524d\u8b66\u5bdf\u7f72\u5408\u5ca9\u99d0\u5728\u6240", "type": "police_station", "is_24h": true}, {"lat": 33.6067, "lon": 131.1749, "name": "\u8c4a\u524d\u8b66\u5bdf\u7f72\u5409\u5bcc\u99d0\u5728\u6240", "type": "police_station", "is_24h": true}, {"lat": 33.5552, "lon": 131.1871, "name": "\u8c4a\u524d\u8b66\u5bdf\u7f72\u5510\u539f\u99d0\u5728\u6240", "type": "police_station", "is_24h": true}, {"lat": 33.5655, "lon": 131.1549, "name": "\u8c4a\u524d\u8b66\u5bdf\u7f72\u571f\u4f50\u4e95\u99d0\u5728\u6240", "type": "police_station", "is_24h": true}, {"lat": 33.5839, "lon": 131.1679, "name": "\u8c4a\u524d\u8b66\u5bdf\u7f72\u5782\u6c34\u99d0\u5728\u6240", "type": "police_station", "is_24h": true}, {"lat": 33.6208, "lon": 131.1261, "name": "\u8c4a\u524d\u8b66\u5bdf\u7f72\u5b87\u5cf6\u99c5\u524d\u4ea4\u756a", "type": "koban", "is_24h": true}, {"lat": 33.6088, "lon": 131.1028, "name": "\u8c4a\u524d\u8b66\u5bdf\u7f72\u5c71\u7530\u99d0\u5728\u6240", "type": "police_station", "is_24h": true}, {"lat": 33.6003, "lon": 131.1744, "name": "\u8c4a\u524d\u8b66\u5bdf\u7f72\u5e83\u6d25\u99d0\u5728\u6240", "type": "police_station", "is_24h": true}, {"lat": 33.6551, "lon": 131.058, "name": "\u8c4a\u524d\u8b66\u5bdf\u7f72\u690e\u7530\u4ea4\u756a", "type": "koban", "is_24h": true}, {"lat": 33.6215, "lon": 131.0957, "name": "\u8c4a\u524d\u8b66\u5bdf\u7f72\u89d2\u7530\u99d0\u5728\u6240", "type": "police_station", "is_24h": true}, {"lat": 33.9362, "lon": 131.0058, "name": "\u9580\u53f8\u8b66\u5bdf\u7f72\u767d\u91ce\u6c5f\u99d0\u5728\u6240", "type": "police_station", "is_24h": true}, {"lat": 33.1229, "lon": 131.0615, "name": "\u5c0f\u56fd\u8b66\u5bdf\u7f72", "type": "police_station", "is_24h": true}, {"lat": 33.1422, "lon": 131.0967, "name": "\u5c0f\u56fd\u8b66\u5bdf\u7f72\u5317\u91cc\u99d0\u5728\u6240", "type": "police_station", "is_24h": true}, {"lat": 33.0924, "lon": 131.0668, "name": "\u5c0f\u56fd\u8b66\u5bdf\u7f72\u8d64\u99ac\u5834\u99d0\u5728\u6240", "type": "police_station", "is_24h": true}, {"lat": 33.0786, "lon": 131.1396, "name": "\u5c0f\u56fd\u8b66\u5bdf\u7f72\u9ed2\u5ddd\u99d0\u5728\u6240", "type": "police_station", "is_24h": true}, {"lat": 33.4567, "lon": 131.1853, "name": "\u4e2d\u6d25\u8b66\u5bdf\u7f72\u4e0a\u6d25\u99d0\u5728\u6240", "type": "police_station", "is_24h": true}, {"lat": 33.4283, "lon": 131.0987, "name": "\u4e2d\u6d25\u8b66\u5bdf\u7f72\u4e0b\u90f7\u99d0\u5728\u6240", "type": "police_station", "is_24h": true}, {"lat": 33.5874, "lon": 131.1867, "name": "\u4e2d\u6d25\u8b66\u5bdf\u7f72\u4e2d\u6d25\u5357\u4ea4\u756a", "type": "koban", "is_24h": true}, {"lat": 33.5771, "lon": 131.2393, "name": "\u4e2d\u6d25\u8b66\u5bdf\u7f72\u4e2d\u6d25\u6771\u4ea4\u756a", "type": "koban", "is_24h": true}, {"lat": 33.5991, "lon": 131.192, "name": "\u4e2d\u6d25\u8b66\u5bdf\u7f72\u4e2d\u6d25\u99c5\u4ea4\u756a", "type": "koban", "is_24h": true}, {"lat": 33.4013, "lon": 131.0465, "name": "\u4e2d\u6d25\u8b66\u5bdf\u7f72\u5b87\u66fd\u99d0\u5728\u6240", "type": "police_station", "is_24h": true}, {"lat": 33.5377, "lon": 131.2119, "name": "\u4e2d\u6d25\u8b66\u5bdf\u7f72\u5c71\u53e3\u99d0\u5728\u6240", "type": "police_station", "is_24h": true}, {"lat": 33.4531, "lon": 131.1139, "name": "\u4e2d\u6d25\u8b66\u5bdf\u7f72\u67ff\u5742\u99d0\u5728\u6240", "type": "police_station", "is_24h": true}, {"lat": 33.5039, "lon": 131.1731, "name": "\u4e2d\u6d25\u8b66\u5bdf\u7f72\u6d1e\u9580\u99d0\u5728\u6240", "type": "police_station", "is_24h": true}, {"lat": 33.5334, "lon": 131.1788, "name": "\u4e2d\u6d25\u8b66\u5bdf\u7f72\u771f\u5742\u99d0\u5728\u6240", "type": "police_station", "is_24h": true}, {"lat": 33.0451, "lon": 131.9224, "name": "\u4f50\u4f2f\u8b66\u5bdf\u7f72\u4e0a\u6d66\u99d0\u5728\u6240", "type": "police_station", "is_24h": true}, {"lat": 33.3295, "lon": 131.4897, "name": "\u5225\u5e9c\u8b66\u5bdf\u7f72\u4e80\u5ddd\u4ea4\u756a", "type": "koban", "is_24h": true}, {"lat": 33.2878, "lon": 131.4815, "name": "\u5225\u5e9c\u8b66\u5bdf\u7f72\u5c71\u306e\u624b\u4ea4\u756a", "type": "koban", "is_24h": true}, {"lat": 33.2994, "lon": 131.4747, "name": "\u5225\u5e9c\u8b66\u5bdf\u7f72\u9244\u8f2a\u4ea4\u756a", "type": "koban", "is_24h": true}, {"lat": 33.5633, "lon": 131.733, "name": "\u56fd\u6771\u8b66\u5bdf\u7f72", "type": "police_station", "is_24h": true}, {"lat": 33.6798, "lon": 131.5948, "name": "\u56fd\u6771\u8b66\u5bdf\u7f72\u4f0a\u7f8e\u99d0\u5728\u6240", "type": "police_station", "is_24h": true}, {"lat": 33.7246, "lon": 131.6464, "name": "\u56fd\u6771\u8b66\u5bdf\u7f72\u59eb\u5cf6\u99d0\u5728\u6240", "type": "police_station", "is_24h": true}, {"lat": 33.463, "lon": 131.7216, "name": "\u56fd\u6771\u8b66\u5bdf\u7f72\u5b89\u5c90\u99d0\u5728\u6240", "type": "police_station", "is_24h": true}, {"lat": 33.6092, "lon": 131.7014, "name": "\u56fd\u6771\u8b66\u5bdf\u7f72\u5bcc\u6765\u99d0\u5728\u6240", "type": "police_station", "is_24h": true}, {"lat": 33.4758, "lon": 131.655, "name": "\u56fd\u6771\u8b66\u5bdf\u7f72\u639b\u6a0b\u99d0\u5728\u6240", "type": "police_station", "is_24h": true}, {"lat": 33.5013, "lon": 131.725, "name": "\u56fd\u6771\u8b66\u5bdf\u7f72\u6b66\u8535\u99d0\u5728\u6240", "type": "police_station", "is_24h": true}, {"lat": 33.6591, "lon": 131.6471, "name": "\u56fd\u6771\u8b66\u5bdf\u7f72\u718a\u6bdb\u99d0\u5728\u6240", "type": "police_station", "is_24h": true}, {"lat": 33.4782, "lon": 131.7336, "name": "\u56fd\u6771\u8b66\u5bdf\u7f72\u7a7a\u6e2f\u8b66\u5099\u6d3e\u51fa\u6240", "type": "police_station", "is_24h": true}, {"lat": 33.6747, "lon": 131.5638, "name": "\u56fd\u6771\u8b66\u5bdf\u7f72\u7af9\u7530\u99d0\u5728\u6240", "type": "police_station", "is_24h": true}, {"lat": 33.4706, "lon": 131.6915, "name": "\u56fd\u6771\u8b66\u5bdf\u7f72\u897f\u5b89\u5c90\u99d0\u5728\u6240", "type": "police_station", "is_24h": true}, {"lat": 33.2382, "lon": 131.6023, "name": "\u5927\u5206\u4e2d\u592e\u8b66\u5bdf\u7f72\u4e2d\u592e\u4ea4\u756a", "type": "koban", "is_24h": true}, {"lat": 33.2152, "lon": 131.5911, "name": "\u5927\u5206\u4e2d\u592e\u8b66\u5bdf\u7f72\u5357\u5927\u5206\u4ea4\u756a", "type": "koban", "is_24h": true}, {"lat": 33.2237, "lon": 131.6517, "name": "\u5927\u5206\u4e2d\u592e\u8b66\u5bdf\u7f72\u660e\u91ce\u4ea4\u756a", "type": "koban", "is_24h": true}, {"lat": 33.2435, "lon": 131.5881, "name": "\u5927\u5206\u4e2d\u592e\u8b66\u5bdf\u7f72\u897f\u5927\u5206\u4ea4\u756a", "type": "koban", "is_24h": true}, {"lat": 33.2449, "lon": 131.6545, "name": "\u5927\u5206\u4e2d\u592e\u8b66\u5bdf\u7f72\u9ad8\u57ce\u4ea4\u756a", "type": "koban", "is_24h": true}, {"lat": 33.1057, "lon": 131.4507, "name": "\u5927\u5206\u5357\u8b66\u5bdf\u7f72\u4eca\u5e02\u99d0\u5728\u6240", "type": "police_station", "is_24h": true}, {"lat": 33.1125, "lon": 131.6935, "name": "\u5927\u5206\u5357\u8b66\u5bdf\u7f72\u5409\u91ce\u99d0\u5728\u6240", "type": "police_station", "is_24h": true}, {"lat": 33.1845, "lon": 131.3986, "name": "\u5927\u5206\u5357\u8b66\u5bdf\u7f72\u5e84\u5185\u897f\u99d0\u5728\u6240", "type": "police_station", "is_24h": true}, {"lat": 33.1987, "lon": 131.51, "name": "\u5927\u5206\u5357\u8b66\u5bdf\u7f72\u631f\u9593\u99d0\u5728\u6240", "type": "police_station", "is_24h": true}, {"lat": 33.1926, "lon": 131.6118, "name": "\u5927\u5206\u5357\u8b66\u5bdf\u7f72\u6577\u6238\u4ea4\u756a", "type": "koban", "is_24h": true}, {"lat": 33.2657, "lon": 131.3558, "name": "\u5927\u5206\u5357\u8b66\u5bdf\u7f72\u6e6f\u5e03\u9662\u5e79\u90e8\u4ea4\u756a", "type": "koban", "is_24h": true}, {"lat": 33.2216, "lon": 131.5243, "name": "\u5927\u5206\u5357\u8b66\u5bdf\u7f72\u77f3\u57ce\u5ddd\u99d0\u5728\u6240", "type": "police_station", "is_24h": true}, {"lat": 33.1844, "lon": 131.5687, "name": "\u5927\u5206\u5357\u8b66\u5bdf\u7f72\u7a19\u7530\u4ea4\u756a", "type": "koban", "is_24h": true}, {"lat": 33.1119, "lon": 131.6524, "name": "\u5927\u5206\u5357\u8b66\u5bdf\u7f72\u7af9\u4e2d\u99d0\u5728\u6240", "type": "police_station", "is_24h": true}, {"lat": 33.1615, "lon": 131.5266, "name": "\u5927\u5206\u5357\u8b66\u5bdf\u7f72\u91ce\u6d25\u539f\u99d0\u5728\u6240", "type": "police_station", "is_24h": true}, {"lat": 33.2172, "lon": 131.7248, "name": "\u5927\u5206\u6771\u8b66\u5bdf\u7f72\u4e39\u751f\u99d0\u5728\u6240", "type": "police_station", "is_24h": true}, {"lat": 33.2324, "lon": 131.7493, "name": "\u5927\u5206\u6771\u8b66\u5bdf\u7f72\u5742\u30ce\u5e02\u99d0\u5728\u6240", "type": "police_station", "is_24h": true}, {"lat": 33.2482, "lon": 131.7153, "name": "\u5927\u5206\u6771\u8b66\u5bdf\u7f72\u5927\u5728\u4ea4\u756a", "type": "koban", "is_24h": true}, {"lat": 33.1968, "lon": 131.6963, "name": "\u5927\u5206\u6771\u8b66\u5bdf\u7f72\u5ddd\u6dfb\u99d0\u5728\u6240", "type": "police_station", "is_24h": true}, {"lat": 33.2196, "lon": 131.6647, "name": "\u5927\u5206\u6771\u8b66\u5bdf\u7f72\u660e\u6cbb\u4ea4\u756a", "type": "koban", "is_24h": true}, {"lat": 33.1853, "lon": 131.6681, "name": "\u5927\u5206\u6771\u8b66\u5bdf\u7f72\u677e\u5ca1\u99d0\u5728\u6240", "type": "police_station", "is_24h": true}, {"lat": 33.2403, "lon": 131.7967, "name": "\u5927\u5206\u6771\u8b66\u5bdf\u7f72\u795e\u5d0e\u99d0\u5728\u6240", "type": "police_station", "is_24h": true}, {"lat": 33.2391, "lon": 131.7748, "name": "\u5927\u5206\u6771\u8b66\u5bdf\u7f72\u7d30\u99d0\u5728\u6240", "type": "police_station", "is_24h": true}, {"lat": 33.2276, "lon": 131.7438, "name": "\u5927\u5206\u6771\u8b66\u5bdf\u7f72\u91cc\u99d0\u5728\u6240", "type": "police_station", "is_24h": true}, {"lat": 33.2427, "lon": 131.6878, "name": "\u5927\u5206\u6771\u8b66\u5bdf\u7f72\u9db4\u5d0e\u99c5\u524d\u4ea4\u756a", "type": "koban", "is_24h": true}, {"lat": 33.2389, "lon": 131.6125, "name": "\u5927\u5206\u770c\u8b66\u5bdf\u672c\u90e8", "type": "police_station", "is_24h": true}, {"lat": 33.5326, "lon": 131.3485, "name": "\u5b87\u4f50\u8b66\u5bdf\u7f72", "type": "police_station", "is_24h": true}, {"lat": 33.4531, "lon": 131.3282, "name": "\u5b87\u4f50\u8b66\u5bdf\u7f72\u4e21\u5ddd\u99d0\u5728\u6240", "type": "police_station", "is_24h": true}, {"lat": 33.5316, "lon": 131.3273, "name": "\u5b87\u4f50\u8b66\u5bdf\u7f72\u56db\u65e5\u5e02\u4ea4\u756a", "type": "koban", "is_24h": true}, {"lat": 33.5638, "lon": 131.2916, "name": "\u5b87\u4f50\u8b66\u5bdf\u7f72\u5929\u6d25\u4ea4\u756a", "type": "koban", "is_24h": true}, {"lat": 33.5287, "lon": 131.3724, "name": "\u5b87\u4f50\u8b66\u5bdf\u7f72\u5b87\u4f50\u99d0\u5728\u6240", "type": "police_station", "is_24h": true}, {"lat": 33.4362, "lon": 131.3575, "name": "\u5b87\u4f50\u8b66\u5bdf\u7f72\u5b89\u5fc3\u9662\u99d0\u5728\u6240", "type": "police_station", "is_24h": true}, {"lat": 33.5324, "lon": 131.411, "name": "\u5b87\u4f50\u8b66\u5bdf\u7f72\u5ca9\u5d0e\u99d0\u5728\u6240", "type": "police_station", "is_24h": true}, {"lat": 33.3884, "lon": 131.3962, "name": "\u5b87\u4f50\u8b66\u5bdf\u7f72\u6d25\u623f\u99d0\u5728\u6240", "type": "police_station", "is_24h": true}, {"lat": 33.5551, "lon": 131.3056, "name": "\u5b87\u4f50\u8b66\u5bdf\u7f72\u7cf8\u53e3\u4ea4\u756a", "type": "koban", "is_24h": true}, {"lat": 33.5446, "lon": 131.2838, "name": "\u5b87\u4f50\u8b66\u5bdf\u7f72\u9577\u5cf0\u4ea4\u756a", "type": "koban", "is_24h": true}, {"lat": 33.5683, "lon": 131.3771, "name": "\u5b87\u4f50\u8b66\u5bdf\u7f72\u9577\u6d32\u4ea4\u756a", "type": "koban", "is_24h": true}, {"lat": 33.4155, "lon": 131.3163, "name": "\u5b87\u4f50\u8b66\u5bdf\u7f72\u9662\u5185\u99d0\u5728\u6240", "type": "police_station", "is_24h": true}, {"lat": 33.3801, "lon": 131.5406, "name": "\u65e5\u51fa\u8b66\u5bdf\u7f72", "type": "police_station", "is_24h": true}, {"lat": 33.3709, "lon": 131.5759, "name": "\u65e5\u51fa\u8b66\u5bdf\u7f72\u5927\u795e\u99d0\u5728\u6240", "type": "police_station", "is_24h": true}, {"lat": 33.4238, "lon": 131.4445, "name": "\u65e5\u51fa\u8b66\u5bdf\u7f72\u5c71\u9999\u4e0a\u99d0\u5728\u6240", "type": "police_station", "is_24h": true}, {"lat": 33.4476, "lon": 131.5038, "name": "\u65e5\u51fa\u8b66\u5bdf\u7f72\u5c71\u9999\u4e2d\u99d0\u5728\u6240", "type": "police_station", "is_24h": true}, {"lat": 33.4815, "lon": 131.4759, "name": "\u65e5\u51fa\u8b66\u5bdf\u7f72\u7acb\u77f3\u99d0\u5728\u6240", "type": "police_station", "is_24h": true}, {"lat": 33.3645, "lon": 131.5042, "name": "\u65e5\u51fa\u8b66\u5bdf\u7f72\u8c4a\u5ca1\u99d0\u5728\u6240", "type": "police_station", "is_24h": true}, {"lat": 33.2817, "lon": 131.0078, "name": "\u65e5\u7530\u8b66\u5bdf\u7f72\u4e2d\u5ddd\u99d0\u5728\u6240", "type": "police_station", "is_24h": true}, {"lat": 33.2562, "lon": 131.0359, "name": "\u65e5\u7530\u8b66\u5bdf\u7f72\u5929\u702c\u99d0\u5728\u6240", "type": "police_station", "is_24h": true}, {"lat": 33.4176, "lon": 131.6291, "name": "\u6775\u7bc9\u8b66\u5bdf\u7f72", "type": "police_station", "is_24h": true}, {"lat": 33.4154, "lon": 131.5867, "name": "\u6775\u7bc9\u8b66\u5bdf\u7f72\u516b\u5742\u99d0\u5728\u6240", "type": "police_station", "is_24h": true}, {"lat": 33.4886, "lon": 131.5632, "name": "\u6775\u7bc9\u8b66\u5bdf\u7f72\u5927\u7530\u99d0\u5728\u6240", "type": "police_station", "is_24h": true}, {"lat": 33.0809, "lon": 131.8331, "name": "\u6d25\u4e45\u898b\u8b66\u5bdf\u7f72\u4e0a\u9752\u6c5f\u99d0\u5728\u6240", "type": "police_station", "is_24h": true}, {"lat": 33.0716, "lon": 131.9897, "name": "\u6d25\u4e45\u898b\u8b66\u5bdf\u7f72\u56db\u6d66\u99d0\u5728\u6240", "type": "police_station", "is_24h": true}, {"lat": 33.0921, "lon": 131.8489, "name": "\u6d25\u4e45\u898b\u8b66\u5bdf\u7f72\u5fb3\u6d66\u99d0\u5728\u6240", "type": "police_station", "is_24h": true}, {"lat": 33.0668, "lon": 131.9165, "name": "\u6d25\u4e45\u898b\u8b66\u5bdf\u7f72\u65e5\u4ee3\u99d0\u5728\u6240", "type": "police_station", "is_24h": true}, {"lat": 33.2747, "lon": 131.1541, "name": "\u7396\u73e0\u8b66\u5bdf\u7f72", "type": "police_station", "is_24h": true}, {"lat": 33.3181, "lon": 131.1377, "name": "\u7396\u73e0\u8b66\u5bdf\u7f72\u516b\u5e61\u99d0\u5728\u6240", "type": "police_station", "is_24h": true}, {"lat": 33.283, "lon": 131.0901, "name": "\u7396\u73e0\u8b66\u5bdf\u7f72\u5317\u5c71\u99d0\u5728\u6240", "type": "police_station", "is_24h": true}, {"lat": 33.1968, "lon": 131.1653, "name": "\u7396\u73e0\u8b66\u5bdf\u7f72\u5b9d\u6cc9\u5bfa\u99d0\u5728\u6240", "type": "police_station", "is_24h": true}, {"lat": 33.2264, "lon": 131.2068, "name": "\u7396\u73e0\u8b66\u5bdf\u7f72\u91ce\u4e0a\u99d0\u5728\u6240", "type": "police_station", "is_24h": true}, {"lat": 33.1174, "lon": 131.2282, "name": "\u7396\u73e0\u8b66\u5bdf\u7f72\u9577\u8005\u99d0\u5728\u6240", "type": "police_station", "is_24h": true}, {"lat": 33.1568, "lon": 131.224, "name": "\u7396\u73e0\u8b66\u5bdf\u7f72\u98ef\u7530\u99d0\u5728\u6240", "type": "police_station", "is_24h": true}, {"lat": 33.0195, "lon": 131.2943, "name": "\u7af9\u7530\u8b66\u5bdf\u7f72\u4e45\u4f4f\u99d0\u5728\u6240", "type": "police_station", "is_24h": true}, {"lat": 33.0092, "lon": 131.2657, "name": "\u7af9\u7530\u8b66\u5bdf\u7f72\u767d\u4e39\u99d0\u5728\u6240", "type": "police_station", "is_24h": true}, {"lat": 33.0779, "lon": 131.3826, "name": "\u7af9\u7530\u8b66\u5bdf\u7f72\u76f4\u5165\u99d0\u5728\u6240", "type": "police_station", "is_24h": true}, {"lat": 33.0536, "lon": 131.3251, "name": "\u7af9\u7530\u8b66\u5bdf\u7f72\u90fd\u91ce\u99d0\u5728\u6240", "type": "police_station", "is_24h": true}, {"lat": 33.0396, "lon": 131.5967, "name": "\u8c4a\u5f8c\u5927\u91ce\u8b66\u5bdf\u7f72\u5343\u6b73\u99d0\u5728\u6240", "type": "police_station", "is_24h": true}, {"lat": 33.0397, "lon": 131.4993, "name": "\u8c4a\u5f8c\u5927\u91ce\u8b66\u5bdf\u7f72\u5927\u91ce\u4e2d\u99d0\u5728\u6240", "type": "police_station", "is_24h": true}, {"lat": 33.0371, "lon": 131.4861, "name": "\u8c4a\u5f8c\u5927\u91ce\u8b66\u5bdf\u7f72\u5927\u91ce\u897f\u99d0\u5728\u6240", "type": "police_station", "is_24h": true}, {"lat": 33.0044, "lon": 131.4317, "name": "\u8c4a\u5f8c\u5927\u91ce\u8b66\u5bdf\u7f72\u671d\u5730\u99d0\u5728\u6240", "type": "police_station", "is_24h": true}, {"lat": 33.0751, "lon": 131.6352, "name": "\u8c4a\u5f8c\u5927\u91ce\u8b66\u5bdf\u7f72\u72ac\u98fc\u99d0\u5728\u6240", "type": "police_station", "is_24h": true}, {"lat": 33.5563, "lon": 131.446, "name": "\u8c4a\u5f8c\u9ad8\u7530\u8b66\u5bdf\u7f72", "type": "police_station", "is_24h": true}, {"lat": 33.5188, "lon": 131.511, "name": "\u8c4a\u5f8c\u9ad8\u7530\u8b66\u5bdf\u7f72\u7530\u67d3\u99d0\u5728\u6240", "type": "police_station", "is_24h": true}, {"lat": 33.6102, "lon": 131.4769, "name": "\u8c4a\u5f8c\u9ad8\u7530\u8b66\u5bdf\u7f72\u771f\u7389\u99d0\u5728\u6240", "type": "police_station", "is_24h": true}, {"lat": 33.5643, "lon": 131.5107, "name": "\u8c4a\u5f8c\u9ad8\u7530\u8b66\u5bdf\u7f72\u90fd\u7532\u99d0\u5728\u6240", "type": "police_station", "is_24h": true}, {"lat": 33.6636, "lon": 131.5275, "name": "\u8c4a\u5f8c\u9ad8\u7530\u8b66\u5bdf\u7f72\u9999\u3005\u5730\u99d0\u5728\u6240", "type": "police_station", "is_24h": true}, {"lat": 33.8398, "lon": 131.0314, "name": "\u5c0f\u5009\u5357\u8b66\u5bdf\u7f72\u5317\u4e5d\u5dde\u7a7a\u6e2f\u8b66\u5099\u6d3e\u51fa\u6240", "type": "police_station", "is_24h": true}, {"lat": 33.2788, "lon": 131.5005, "name": "\u5225\u5e9c\u8b66\u5bdf\u7f72 \u5225\u5e9c\u99c5\u4ea4\u756a", "type": "koban", "is_24h": true}, {"lat": 33.2469, "lon": 131.8766, "name": "\u5927\u5206\u6771\u8b66\u5bdf\u7f72\u4f50\u8cc0\u95a2\u99d0\u5728\u6240", "type": "police_station", "is_24h": true}, {"lat": 33.3142, "lon": 131.4735, "name": "\u9244\u8f2a\u4ea4\u756a", "type": "koban", "is_24h": true}, {"lat": 33.2138, "lon": 131.5954, "name": "police_station", "type": "police_station", "is_24h": true}, {"lat": 33.2766, "lon": 131.4947, "name": "\u691c\u5bdf\u5e81", "type": "police_station", "is_24h": true}, {"lat": 33.2336, "lon": 131.6074, "name": "\u5927\u5206\u4e2d\u592e\u8b66\u5bdf\u7f72 \u5927\u5206\u99c5\u524d\u4ea4\u756a", "type": "koban", "is_24h": true}, {"lat": 33.416, "lon": 131.6206, "name": "\u3051\u3093\u3057\u3093\u6775\u7bc9\u652f\u5e97", "type": "police_station", "is_24h": true}, {"lat": 33.5941, "lon": 131.1925, "name": "\u4e2d\u6d25\u8b66\u5bdf\u7f72", "type": "police_station", "is_24h": true}, {"lat": 33.9497, "lon": 131.2545, "name": "\u5b87\u90e8\u8b66\u5bdf\u7f72", "type": "police_station", "is_24h": true}, {"lat": 33.9588, "lon": 131.242, "name": "\u5b87\u90e8\u8b66\u5bdf\u7f72\u65b0\u5ddd\u4ea4\u756a", "type": "koban", "is_24h": true}, {"lat": 33.9538, "lon": 131.2743, "name": "\u5b87\u90e8\u8b66\u5bdf\u7f72\u5e38\u76e4\u53f0\u4ea4\u756a", "type": "koban", "is_24h": true}, {"lat": 33.3297, "lon": 131.4897, "name": "police_station", "type": "police_station", "is_24h": true}, {"lat": 33.3297, "lon": 131.4895, "name": "police_station", "type": "police_station", "is_24h": true}, {"lat": 33.3295, "lon": 131.4896, "name": "police_station", "type": "police_station", "is_24h": true}, {"lat": 33.3294, "lon": 131.4895, "name": "police_station", "type": "police_station", "is_24h": true}, {"lat": 33.1833, "lon": 131.4543, "name": "\u5927\u5206\u5357\u8b66\u5bdf\u7f72\u5e84\u5185\u99d0\u5728\u6240", "type": "police_station", "is_24h": true}, {"lat": 33.1987, "lon": 131.51, "name": "\u5927\u5206\u5357\u8b66\u5bdf\u7f72\u631f\u9593\u99d0\u5728\u6240", "type": "police_station", "is_24h": true}, {"lat": 33.2798, "lon": 131.4981, "name": "\u5225\u5e9c\u8b66\u5bdf\u7f72", "type": "police_station", "is_24h": true}, {"lat": 33.3294, "lon": 131.4896, "name": "police_station", "type": "police_station", "is_24h": true}, {"lat": 33.3293, "lon": 131.4897, "name": "police_station", "type": "police_station", "is_24h": true}, {"lat": 33.1844, "lon": 131.5687, "name": "police_station", "type": "police_station", "is_24h": true}, {"lat": 33.1897, "lon": 131.5358, "name": "\u5927\u5206\u5357\u8b66\u5bdf\u7f72", "type": "police_station", "is_24h": true}, {"lat": 33.38, "lon": 131.5406, "name": "police_station", "type": "police_station", "is_24h": true}, {"lat": 33.177, "lon": 131.827, "name": "\u81fc\u6775\u6d25\u4e45\u898b\u8b66\u5bdf\u7f72 \u4f50\u5fd7\u751f\u8b66\u5bdf\u5b98\u99d0\u5728\u6240", "type": "police_station", "is_24h": true}, {"lat": 33.2412, "lon": 131.6078, "name": "\u5927\u5206\u4e2d\u592e\u8b66\u5bdf\u7f72", "type": "police_station", "is_24h": true}, {"lat": 33.0755, "lon": 131.8652, "name": "\u6d25\u4e45\u898b\u5e79\u90e8\u4ea4\u756a", "type": "koban", "is_24h": true}, {"lat": 33.1139, "lon": 131.8429, "name": "\u81fc\u6775\u6d25\u4e45\u898b\u8b66\u5bdf\u7f72 \u5927\u6cca\u8b66\u5bdf\u5b98\u99d0\u5728\u6240", "type": "police_station", "is_24h": true}, {"lat": 33.1816, "lon": 131.0361, "name": "\u5c0f\u56fd\u8b66\u5bdf\u7f72\u6756\u7acb\u99d0\u5728\u6240", "type": "police_station", "is_24h": true}, {"lat": 33.2489, "lon": 131.6326, "name": "\u5927\u5206\u4e2d\u592e\u8b66\u5bdf\u7f72\u6d25\u7559\u4ea4\u756a", "type": "koban", "is_24h": true}, {"lat": 33.9786, "lon": 131.2605, "name": "police_station", "type": "police_station", "is_24h": true}, {"lat": 33.275, "lon": 131.5068, "name": "\u5225\u5e9c\u8b66\u5bdf\u7f72 \u5357\u90e8\u4ea4\u756a", "type": "koban", "is_24h": true}, {"lat": 33.1391, "lon": 131.7877, "name": "\u81fc\u6775\u6d25\u4e45\u898b\u8b66\u5bdf\u7f72 \u718a\u5d0e\u8b66\u5bdf\u5b98\u99d0\u5728\u6240", "type": "police_station", "is_24h": true}, {"lat": 33.0934, "lon": 131.7575, "name": "\u81fc\u6775\u6d25\u4e45\u898b\u8b66\u5bdf\u7f72 \u5357\u6d25\u7559\u8b66\u5bdf\u5b98\u99d0\u5728\u6240", "type": "police_station", "is_24h": true}, {"lat": 33.1234, "lon": 131.8051, "name": "\u81fc\u6775\u6d25\u4e45\u898b\u8b66\u5bdf\u7f72", "type": "police_station", "is_24h": true}, {"lat": 33.0376, "lon": 131.6859, "name": "\u81fc\u6775\u6d25\u4e45\u898b\u8b66\u5bdf\u7f72 \u91ce\u6d25\u5e02\u8b66\u5bdf\u5b98\u99d0\u5728\u6240", "type": "police_station", "is_24h": true}, {"lat": 33.0062, "lon": 131.7167, "name": "\u81fc\u6775\u6d25\u4e45\u898b\u8b66\u5bdf\u7f72 \u6e05\u6c34\u539f\u8b66\u5bdf\u5b98\u99d0\u5728\u6240", "type": "police_station", "is_24h": true}, {"lat": 33.0509, "lon": 131.6887, "name": "\u81fc\u6775\u6d25\u4e45\u898b\u8b66\u5bdf\u7f72 \u65e5\u5f53\u8b66\u5bdf\u5b98\u99d0\u5728\u6240", "type": "police_station", "is_24h": true}, {"lat": 33.9975, "lon": 131.1808, "name": "fire_station", "type": "fire_station", "is_24h": true}, {"lat": 33.983, "lon": 131.9771, "name": "fire_station", "type": "fire_station", "is_24h": true}, {"lat": 33.969, "lon": 131.2818, "name": "fire_station", "type": "fire_station", "is_24h": true}, {"lat": 33.954, "lon": 131.8399, "name": "fire_station", "type": "fire_station", "is_24h": true}, {"lat": 33.984, "lon": 131.7528, "name": "fire_station", "type": "fire_station", "is_24h": true}, {"lat": 33.9791, "lon": 131.7629, "name": "fire_station", "type": "fire_station", "is_24h": true}, {"lat": 33.9804, "lon": 131.7356, "name": "fire_station", "type": "fire_station", "is_24h": true}, {"lat": 33.9694, "lon": 131.4222, "name": "fire_station", "type": "fire_station", "is_24h": true}, {"lat": 33.9671, "lon": 131.5101, "name": "fire_station", "type": "fire_station", "is_24h": true}, {"lat": 33.96, "lon": 131.8007, "name": "fire_station", "type": "fire_station", "is_24h": true}, {"lat": 33.9531, "lon": 131.6988, "name": "fire_station", "type": "fire_station", "is_24h": true}, {"lat": 33.9412, "lon": 131.6955, "name": "fire_station", "type": "fire_station", "is_24h": true}, {"lat": 33.9393, "lon": 131.9291, "name": "fire_station", "type": "fire_station", "is_24h": true}, {"lat": 33.8733, "lon": 131.9847, "name": "fire_station", "type": "fire_station", "is_24h": true}, {"lat": 33.8698, "lon": 131.9832, "name": "fire_station", "type": "fire_station", "is_24h": true}, {"lat": 33.7825, "lon": 131.9704, "name": "fire_station", "type": "fire_station", "is_24h": true}, {"lat": 33.791, "lon": 131.9352, "name": "fire_station", "type": "fire_station", "is_24h": true}, {"lat": 33.9996, "lon": 131.459, "name": "fire_station", "type": "fire_station", "is_24h": true}, {"lat": 33.9992, "lon": 131.4588, "name": "fire_station", "type": "fire_station", "is_24h": true}, {"lat": 33.9992, "lon": 131.4591, "name": "fire_station", "type": "fire_station", "is_24h": true}, {"lat": 33.9988, "lon": 131.4592, "name": "fire_station", "type": "fire_station", "is_24h": true}, {"lat": 33.9973, "lon": 131.3653, "name": "fire_station", "type": "fire_station", "is_24h": true}, {"lat": 33.997, "lon": 131.6973, "name": "fire_station", "type": "fire_station", "is_24h": true}, {"lat": 33.9968, "lon": 131.365, "name": "fire_station", "type": "fire_station", "is_24h": true}, {"lat": 33.9961, "lon": 131.697, "name": "fire_station", "type": "fire_station", "is_24h": true}, {"lat": 33.9963, "lon": 131.586, "name": "fire_station", "type": "fire_station", "is_24h": true}, {"lat": 33.9956, "lon": 131.0265, "name": "fire_station", "type": "fire_station", "is_24h": true}, {"lat": 33.996, "lon": 131.3703, "name": "fire_station", "type": "fire_station", "is_24h": true}, {"lat": 33.9949, "lon": 131.4072, "name": "fire_station", "type": "fire_station", "is_24h": true}, {"lat": 33.9944, "lon": 131.0087, "name": "fire_station", "type": "fire_station", "is_24h": true}, {"lat": 33.9948, "lon": 131.4077, "name": "fire_station", "type": "fire_station", "is_24h": true}, {"lat": 33.9935, "lon": 131.363, "name": "fire_station", "type": "fire_station", "is_24h": true}, {"lat": 33.9932, "lon": 131.0083, "name": "fire_station", "type": "fire_station", "is_24h": true}, {"lat": 33.9923, "lon": 131.4442, "name": "fire_station", "type": "fire_station", "is_24h": true}, {"lat": 33.992, "lon": 131.4437, "name": "fire_station", "type": "fire_station", "is_24h": true}, {"lat": 33.992, "lon": 131.3613, "name": "fire_station", "type": "fire_station", "is_24h": true}, {"lat": 33.9915, "lon": 131.3616, "name": "fire_station", "type": "fire_station", "is_24h": true}, {"lat": 33.9905, "lon": 131.3622, "name": "fire_station", "type": "fire_station", "is_24h": true}, {"lat": 33.9895, "lon": 131.3627, "name": "fire_station", "type": "fire_station", "is_24h": true}, {"lat": 33.9897, "lon": 131.5572, "name": "fire_station", "type": "fire_station", "is_24h": true}, {"lat": 33.9891, "lon": 131.5728, "name": "fire_station", "type": "fire_station", "is_24h": true}, {"lat": 33.9891, "lon": 131.378, "name": "fire_station", "type": "fire_station", "is_24h": true}, {"lat": 33.989, "lon": 131.4285, "name": "fire_station", "type": "fire_station", "is_24h": true}, {"lat": 33.9889, "lon": 131.3776, "name": "fire_station", "type": "fire_station", "is_24h": true}, {"lat": 33.989, "lon": 131.5726, "name": "fire_station", "type": "fire_station", "is_24h": true}, {"lat": 33.989, "lon": 131.4219, "name": "fire_station", "type": "fire_station", "is_24h": true}, {"lat": 33.9887, "lon": 131.379, "name": "fire_station", "type": "fire_station", "is_24h": true}, {"lat": 33.9886, "lon": 131.3796, "name": "fire_station", "type": "fire_station", "is_24h": true}, {"lat": 33.9883, "lon": 131.3788, "name": "fire_station", "type": "fire_station", "is_24h": true}, {"lat": 33.9876, "lon": 131.3798, "name": "fire_station", "type": "fire_station", "is_24h": true}, {"lat": 33.9882, "lon": 131.3792, "name": "fire_station", "type": "fire_station", "is_24h": true}, {"lat": 33.988, "lon": 131.3791, "name": "fire_station", "type": "fire_station", "is_24h": true}, {"lat": 33.988, "lon": 131.3787, "name": "fire_station", "type": "fire_station", "is_24h": true}, {"lat": 33.9878, "lon": 131.3787, "name": "fire_station", "type": "fire_station", "is_24h": true}, {"lat": 33.9876, "lon": 131.3787, "name": "fire_station", "type": "fire_station", "is_24h": true}, {"lat": 33.9875, "lon": 131.3766, "name": "fire_station", "type": "fire_station", "is_24h": true}, {"lat": 33.9875, "lon": 131.3792, "name": "fire_station", "type": "fire_station", "is_24h": true}, {"lat": 33.9875, "lon": 131.3788, "name": "fire_station", "type": "fire_station", "is_24h": true}, {"lat": 33.9872, "lon": 131.5534, "name": "fire_station", "type": "fire_station", "is_24h": true}, {"lat": 33.9871, "lon": 131.3766, "name": "fire_station", "type": "fire_station", "is_24h": true}, {"lat": 33.9841, "lon": 131.7516, "name": "fire_station", "type": "fire_station", "is_24h": true}, {"lat": 33.9839, "lon": 131.3967, "name": "fire_station", "type": "fire_station", "is_24h": true}, {"lat": 33.9825, "lon": 131.4284, "name": "fire_station", "type": "fire_station", "is_24h": true}, {"lat": 33.981, "lon": 131.8511, "name": "fire_station", "type": "fire_station", "is_24h": true}, {"lat": 33.9796, "lon": 131.7221, "name": "fire_station", "type": "fire_station", "is_24h": true}, {"lat": 33.9792, "lon": 131.3504, "name": "fire_station", "type": "fire_station", "is_24h": true}, {"lat": 33.9765, "lon": 131.7979, "name": "fire_station", "type": "fire_station", "is_24h": true}, {"lat": 33.9754, "lon": 131.8537, "name": "fire_station", "type": "fire_station", "is_24h": true}, {"lat": 33.9747, "lon": 131.8734, "name": "fire_station", "type": "fire_station", "is_24h": true}, {"lat": 33.9743, "lon": 131.8733, "name": "fire_station", "type": "fire_station", "is_24h": true}, {"lat": 33.9741, "lon": 131.8733, "name": "fire_station", "type": "fire_station", "is_24h": true}, {"lat": 33.9706, "lon": 131.843, "name": "fire_station", "type": "fire_station", "is_24h": true}, {"lat": 33.9705, "lon": 131.8778, "name": "fire_station", "type": "fire_station", "is_24h": true}, {"lat": 33.9705, "lon": 131.4246, "name": "fire_station", "type": "fire_station", "is_24h": true}, {"lat": 33.9703, "lon": 131.4248, "name": "fire_station", "type": "fire_station", "is_24h": true}, {"lat": 33.9701, "lon": 131.4243, "name": "fire_station", "type": "fire_station", "is_24h": true}, {"lat": 33.9699, "lon": 131.4244, "name": "fire_station", "type": "fire_station", "is_24h": true}, {"lat": 33.9698, "lon": 131.4241, "name": "fire_station", "type": "fire_station", "is_24h": true}, {"lat": 33.9697, "lon": 131.424, "name": "fire_station", "type": "fire_station", "is_24h": true}, {"lat": 33.9691, "lon": 131.4236, "name": "fire_station", "type": "fire_station", "is_24h": true}, {"lat": 33.969, "lon": 131.4237, "name": "fire_station", "type": "fire_station", "is_24h": true}, {"lat": 33.9689, "lon": 131.4235, "name": "fire_station", "type": "fire_station", "is_24h": true}, {"lat": 33.9683, "lon": 131.8659, "name": "fire_station", "type": "fire_station", "is_24h": true}, {"lat": 33.9682, "lon": 131.4218, "name": "fire_station", "type": "fire_station", "is_24h": true}, {"lat": 33.9675, "lon": 131.421, "name": "fire_station", "type": "fire_station", "is_24h": true}, {"lat": 33.9662, "lon": 131.8612, "name": "fire_station", "type": "fire_station", "is_24h": true}, {"lat": 33.9657, "lon": 131.5108, "name": "fire_station", "type": "fire_station", "is_24h": true}, {"lat": 33.9658, "lon": 131.51, "name": "fire_station", "type": "fire_station", "is_24h": true}, {"lat": 33.9649, "lon": 131.3549, "name": "fire_station", "type": "fire_station", "is_24h": true}, {"lat": 33.9636, "lon": 131.3492, "name": "fire_station", "type": "fire_station", "is_24h": true}, {"lat": 33.9632, "lon": 131.3508, "name": "fire_station", "type": "fire_station", "is_24h": true}, {"lat": 33.9626, "lon": 131.353, "name": "fire_station", "type": "fire_station", "is_24h": true}, {"lat": 33.9621, "lon": 131.8033, "name": "fire_station", "type": "fire_station", "is_24h": true}, {"lat": 33.9603, "lon": 131.343, "name": "fire_station", "type": "fire_station", "is_24h": true}, {"lat": 33.9602, "lon": 131.7992, "name": "fire_station", "type": "fire_station", "is_24h": true}, {"lat": 33.9577, "lon": 131.3413, "name": "fire_station", "type": "fire_station", "is_24h": true}, {"lat": 33.9547, "lon": 131.3373, "name": "fire_station", "type": "fire_station", "is_24h": true}, {"lat": 33.9518, "lon": 131.3259, "name": "fire_station", "type": "fire_station", "is_24h": true}, {"lat": 33.9515, "lon": 131.3339, "name": "fire_station", "type": "fire_station", "is_24h": true}, {"lat": 33.9514, "lon": 131.3281, "name": "fire_station", "type": "fire_station", "is_24h": true}, {"lat": 33.9513, "lon": 131.3303, "name": "fire_station", "type": "fire_station", "is_24h": true}, {"lat": 33.9513, "lon": 131.3255, "name": "fire_station", "type": "fire_station", "is_24h": true}, {"lat": 33.951, "lon": 131.8566, "name": "fire_station", "type": "fire_station", "is_24h": true}, {"lat": 33.9503, "lon": 131.3232, "name": "fire_station", "type": "fire_station", "is_24h": true}, {"lat": 33.9495, "lon": 131.3309, "name": "fire_station", "type": "fire_station", "is_24h": true}, {"lat": 33.9484, "lon": 131.3133, "name": "fire_station", "type": "fire_station", "is_24h": true}, {"lat": 33.9463, "lon": 131.9227, "name": "fire_station", "type": "fire_station", "is_24h": true}, {"lat": 33.9462, "lon": 131.9224, "name": "fire_station", "type": "fire_station", "is_24h": true}, {"lat": 33.9442, "lon": 131.9258, "name": "fire_station", "type": "fire_station", "is_24h": true}, {"lat": 33.9427, "lon": 131.8442, "name": "fire_station", "type": "fire_station", "is_24h": true}, {"lat": 33.9409, "lon": 131.1994, "name": "fire_station", "type": "fire_station", "is_24h": true}, {"lat": 33.9383, "lon": 131.7002, "name": "fire_station", "type": "fire_station", "is_24h": true}, {"lat": 33.9381, "lon": 131.7003, "name": "fire_station", "type": "fire_station", "is_24h": true}, {"lat": 33.9379, "lon": 131.6995, "name": "fire_station", "type": "fire_station", "is_24h": true}, {"lat": 33.9377, "lon": 131.6993, "name": "fire_station", "type": "fire_station", "is_24h": true}, {"lat": 33.9376, "lon": 131.699, "name": "fire_station", "type": "fire_station", "is_24h": true}, {"lat": 33.9375, "lon": 131.6988, "name": "fire_station", "type": "fire_station", "is_24h": true}, {"lat": 33.9368, "lon": 131.6983, "name": "fire_station", "type": "fire_station", "is_24h": true}, {"lat": 33.9367, "lon": 131.6985, "name": "fire_station", "type": "fire_station", "is_24h": true}, {"lat": 33.9334, "lon": 131.8332, "name": "fire_station", "type": "fire_station", "is_24h": true}, {"lat": 33.9275, "lon": 131.6871, "name": "fire_station", "type": "fire_station", "is_24h": true}, {"lat": 33.922, "lon": 131.992, "name": "fire_station", "type": "fire_station", "is_24h": true}, {"lat": 33.9198, "lon": 131.9748, "name": "fire_station", "type": "fire_station", "is_24h": true}, {"lat": 33.8705, "lon": 131.9819, "name": "fire_station", "type": "fire_station", "is_24h": true}, {"lat": 33.7983, "lon": 131.972, "name": "fire_station", "type": "fire_station", "is_24h": true}, {"lat": 33.7982, "lon": 131.9671, "name": "fire_station", "type": "fire_station", "is_24h": true}, {"lat": 33.7979, "lon": 131.9666, "name": "fire_station", "type": "fire_station", "is_24h": true}, {"lat": 33.7977, "lon": 131.9664, "name": "fire_station", "type": "fire_station", "is_24h": true}, {"lat": 33.7812, "lon": 131.9445, "name": "fire_station", "type": "fire_station", "is_24h": true}, {"lat": 33.781, "lon": 131.9456, "name": "fire_station", "type": "fire_station", "is_24h": true}, {"lat": 33.7809, "lon": 131.9459, "name": "fire_station", "type": "fire_station", "is_24h": true}, {"lat": 33.7809, "lon": 131.9463, "name": "fire_station", "type": "fire_station", "is_24h": true}, {"lat": 33.7808, "lon": 131.9457, "name": "fire_station", "type": "fire_station", "is_24h": true}, {"lat": 33.7807, "lon": 131.9462, "name": "fire_station", "type": "fire_station", "is_24h": true}, {"lat": 33.7807, "lon": 131.9466, "name": "fire_station", "type": "fire_station", "is_24h": true}, {"lat": 33.7806, "lon": 131.9464, "name": "fire_station", "type": "fire_station", "is_24h": true}, {"lat": 33.7803, "lon": 131.9444, "name": "fire_station", "type": "fire_station", "is_24h": true}, {"lat": 33.7799, "lon": 131.9938, "name": "fire_station", "type": "fire_station", "is_24h": true}, {"lat": 33.7797, "lon": 131.947, "name": "fire_station", "type": "fire_station", "is_24h": true}, {"lat": 33.7797, "lon": 131.9938, "name": "fire_station", "type": "fire_station", "is_24h": true}, {"lat": 33.7795, "lon": 131.9934, "name": "fire_station", "type": "fire_station", "is_24h": true}, {"lat": 33.7794, "lon": 131.9932, "name": "fire_station", "type": "fire_station", "is_24h": true}, {"lat": 33.7793, "lon": 131.9941, "name": "fire_station", "type": "fire_station", "is_24h": true}, {"lat": 33.7793, "lon": 131.9929, "name": "fire_station", "type": "fire_station", "is_24h": true}, {"lat": 33.7792, "lon": 131.9932, "name": "fire_station", "type": "fire_station", "is_24h": true}, {"lat": 33.7791, "lon": 131.9927, "name": "fire_station", "type": "fire_station", "is_24h": true}, {"lat": 33.7791, "lon": 131.993, "name": "fire_station", "type": "fire_station", "is_24h": true}, {"lat": 33.7769, "lon": 131.9858, "name": "fire_station", "type": "fire_station", "is_24h": true}, {"lat": 33.7768, "lon": 131.9856, "name": "fire_station", "type": "fire_station", "is_24h": true}, {"lat": 33.7766, "lon": 131.9849, "name": "fire_station", "type": "fire_station", "is_24h": true}, {"lat": 33.7759, "lon": 131.9484, "name": "fire_station", "type": "fire_station", "is_24h": true}, {"lat": 33.7759, "lon": 131.9831, "name": "fire_station", "type": "fire_station", "is_24h": true}, {"lat": 33.7752, "lon": 131.9829, "name": "fire_station", "type": "fire_station", "is_24h": true}, {"lat": 33.7745, "lon": 131.9803, "name": "fire_station", "type": "fire_station", "is_24h": true}, {"lat": 33.7744, "lon": 131.9797, "name": "fire_station", "type": "fire_station", "is_24h": true}, {"lat": 33.7743, "lon": 131.9798, "name": "fire_station", "type": "fire_station", "is_24h": true}, {"lat": 33.7743, "lon": 131.9795, "name": "fire_station", "type": "fire_station", "is_24h": true}, {"lat": 33.7742, "lon": 131.9761, "name": "fire_station", "type": "fire_station", "is_24h": true}, {"lat": 33.774, "lon": 131.9761, "name": "fire_station", "type": "fire_station", "is_24h": true}, {"lat": 33.7739, "lon": 131.9808, "name": "fire_station", "type": "fire_station", "is_24h": true}, {"lat": 33.7733, "lon": 131.9732, "name": "fire_station", "type": "fire_station", "is_24h": true}, {"lat": 33.7731, "lon": 131.9733, "name": "fire_station", "type": "fire_station", "is_24h": true}, {"lat": 33.7728, "lon": 131.9502, "name": "fire_station", "type": "fire_station", "is_24h": true}, {"lat": 33.7727, "lon": 131.9729, "name": "fire_station", "type": "fire_station", "is_24h": true}, {"lat": 33.7724, "lon": 131.9726, "name": "fire_station", "type": "fire_station", "is_24h": true}, {"lat": 33.7722, "lon": 131.9712, "name": "fire_station", "type": "fire_station", "is_24h": true}, {"lat": 33.7719, "lon": 131.9708, "name": "fire_station", "type": "fire_station", "is_24h": true}, {"lat": 33.7718, "lon": 131.9706, "name": "fire_station", "type": "fire_station", "is_24h": true}, {"lat": 33.7716, "lon": 131.9702, "name": "fire_station", "type": "fire_station", "is_24h": true}, {"lat": 33.7712, "lon": 131.952, "name": "fire_station", "type": "fire_station", "is_24h": true}, {"lat": 33.7706, "lon": 131.9542, "name": "fire_station", "type": "fire_station", "is_24h": true}, {"lat": 33.7705, "lon": 131.9545, "name": "fire_station", "type": "fire_station", "is_24h": true}, {"lat": 33.7701, "lon": 131.9562, "name": "fire_station", "type": "fire_station", "is_24h": true}, {"lat": 33.77, "lon": 131.9563, "name": "fire_station", "type": "fire_station", "is_24h": true}, {"lat": 33.7691, "lon": 131.959, "name": "fire_station", "type": "fire_station", "is_24h": true}, {"lat": 33.7688, "lon": 131.9652, "name": "fire_station", "type": "fire_station", "is_24h": true}, {"lat": 33.7686, "lon": 131.9644, "name": "fire_station", "type": "fire_station", "is_24h": true}, {"lat": 33.7684, "lon": 131.964, "name": "fire_station", "type": "fire_station", "is_24h": true}, {"lat": 33.7683, "lon": 131.963, "name": "fire_station", "type": "fire_station", "is_24h": true}, {"lat": 33.7683, "lon": 131.9626, "name": "fire_station", "type": "fire_station", "is_24h": true}, {"lat": 33.7683, "lon": 131.9623, "name": "fire_station", "type": "fire_station", "is_24h": true}, {"lat": 33.7682, "lon": 131.9619, "name": "fire_station", "type": "fire_station", "is_24h": true}, {"lat": 33.9659, "lon": 131.1604, "name": "fire_station", "type": "fire_station", "is_24h": true}, {"lat": 33.9495, "lon": 131.3083, "name": "fire_station", "type": "fire_station", "is_24h": true}, {"lat": 33.984, "lon": 131.3925, "name": "fire_station", "type": "fire_station", "is_24h": true}, {"lat": 33.9838, "lon": 131.3924, "name": "fire_station", "type": "fire_station", "is_24h": true}, {"lat": 33.9836, "lon": 131.3915, "name": "fire_station", "type": "fire_station", "is_24h": true}, {"lat": 33.9839, "lon": 131.3919, "name": "fire_station", "type": "fire_station", "is_24h": true}, {"lat": 33.984, "lon": 131.393, "name": "fire_station", "type": "fire_station", "is_24h": true}, {"lat": 33.9689, "lon": 131.4233, "name": "fire_station", "type": "fire_station", "is_24h": true}, {"lat": 33.9702, "lon": 131.4244, "name": "fire_station", "type": "fire_station", "is_24h": true}, {"lat": 33.9704, "lon": 131.4244, "name": "fire_station", "type": "fire_station", "is_24h": true}, {"lat": 33.9863, "lon": 131.5672, "name": "fire_station", "type": "fire_station", "is_24h": true}, {"lat": 33.9578, "lon": 131.6994, "name": "fire_station", "type": "fire_station", "is_24h": true}, {"lat": 33.989, "lon": 131.715, "name": "fire_station", "type": "fire_station", "is_24h": true}, {"lat": 33.9825, "lon": 131.7521, "name": "fire_station", "type": "fire_station", "is_24h": true}, {"lat": 33.9629, "lon": 131.8007, "name": "fire_station", "type": "fire_station", "is_24h": true}, {"lat": 33.9466, "lon": 131.8048, "name": "fire_station", "type": "fire_station", "is_24h": true}, {"lat": 33.9297, "lon": 131.8186, "name": "fire_station", "type": "fire_station", "is_24h": true}, {"lat": 33.9459, "lon": 131.9239, "name": "fire_station", "type": "fire_station", "is_24h": true}, {"lat": 33.9468, "lon": 131.9222, "name": "fire_station", "type": "fire_station", "is_24h": true}, {"lat": 33.7721, "lon": 131.971, "name": "fire_station", "type": "fire_station", "is_24h": true}, {"lat": 33.8361, "lon": 131.0342, "name": "fire_station", "type": "fire_station", "is_24h": true}, {"lat": 33.792, "lon": 131.0098, "name": "fire_station", "type": "fire_station", "is_24h": true}, {"lat": 33.5963, "lon": 131.0234, "name": "fire_station", "type": "fire_station", "is_24h": true}, {"lat": 33.8278, "lon": 131.0086, "name": "fire_station", "type": "fire_station", "is_24h": true}, {"lat": 33.8119, "lon": 131.0154, "name": "fire_station", "type": "fire_station", "is_24h": true}, {"lat": 33.7795, "lon": 131.0009, "name": "fire_station", "type": "fire_station", "is_24h": true}, {"lat": 33.7284, "lon": 131.0275, "name": "fire_station", "type": "fire_station", "is_24h": true}, {"lat": 33.906, "lon": 131.006, "name": "fire_station", "type": "fire_station", "is_24h": true}, {"lat": 33.6948, "lon": 131.0381, "name": "fire_station", "type": "fire_station", "is_24h": true}, {"lat": 33.6952, "lon": 131.0379, "name": "fire_station", "type": "fire_station", "is_24h": true}, {"lat": 33.1244, "lon": 131.0629, "name": "3.0", "type": "fire_station", "is_24h": true}, {"lat": 33.2395, "lon": 131.616, "name": "1.0", "type": "fire_station", "is_24h": true}, {"lat": 33.2881, "lon": 131.4889, "name": "1.0", "type": "fire_station", "is_24h": true}, {"lat": 33.5862, "lon": 131.1863, "name": "1.0", "type": "fire_station", "is_24h": true}, {"lat": 33.1233, "lon": 131.8062, "name": "1.0", "type": "fire_station", "is_24h": true}, {"lat": 33.0754, "lon": 131.8625, "name": "1.0", "type": "fire_station", "is_24h": true}, {"lat": 33.5566, "lon": 131.4465, "name": "1.0", "type": "fire_station", "is_24h": true}, {"lat": 33.4116, "lon": 131.5945, "name": "1.0", "type": "fire_station", "is_24h": true}, {"lat": 33.532, "lon": 131.335, "name": "1.0", "type": "fire_station", "is_24h": true}, {"lat": 33.1967, "lon": 131.4989, "name": "1.0", "type": "fire_station", "is_24h": true}, {"lat": 33.5702, "lon": 131.7325, "name": "1.0", "type": "fire_station", "is_24h": true}, {"lat": 33.2395, "lon": 131.616, "name": "2.0", "type": "fire_station", "is_24h": true}, {"lat": 33.2424, "lon": 131.5882, "name": "3.0", "type": "fire_station", "is_24h": true}, {"lat": 33.2498, "lon": 131.6474, "name": "3.0", "type": "fire_station", "is_24h": true}, {"lat": 33.224, "lon": 131.6516, "name": "3.0", "type": "fire_station", "is_24h": true}, {"lat": 33.2411, "lon": 131.6945, "name": "2.0", "type": "fire_station", "is_24h": true}, {"lat": 33.2493, "lon": 131.8664, "name": "3.0", "type": "fire_station", "is_24h": true}, {"lat": 33.2298, "lon": 131.7503, "name": "3.0", "type": "fire_station", "is_24h": true}, {"lat": 33.2433, "lon": 131.7275, "name": "3.0", "type": "fire_station", "is_24h": true}, {"lat": 33.1852, "lon": 131.5757, "name": "2.0", "type": "fire_station", "is_24h": true}, {"lat": 33.1524, "lon": 131.656, "name": "3.0", "type": "fire_station", "is_24h": true}, {"lat": 33.1923, "lon": 131.6117, "name": "3.0", "type": "fire_station", "is_24h": true}, {"lat": 33.1592, "lon": 131.5236, "name": "3.0", "type": "fire_station", "is_24h": true}, {"lat": 33.2881, "lon": 131.4889, "name": "2.0", "type": "fire_station", "is_24h": true}, {"lat": 33.3277, "lon": 131.4947, "name": "3.0", "type": "fire_station", "is_24h": true}, {"lat": 33.3117, "lon": 131.4669, "name": "3.0", "type": "fire_station", "is_24h": true}, {"lat": 33.2735, "lon": 131.5072, "name": "3.0", "type": "fire_station", "is_24h": true}, {"lat": 33.5862, "lon": 131.1863, "name": "2.0", "type": "fire_station", "is_24h": true}, {"lat": 33.4458, "lon": 131.1159, "name": "3.0", "type": "fire_station", "is_24h": true}, {"lat": 33.2545, "lon": 131.0193, "name": "3.0", "type": "fire_station", "is_24h": true}, {"lat": 33.0455, "lon": 131.9239, "name": "3.0", "type": "fire_station", "is_24h": true}, {"lat": 33.1233, "lon": 131.8062, "name": "2.0", "type": "fire_station", "is_24h": true}, {"lat": 33.0754, "lon": 131.8625, "name": "2.0", "type": "fire_station", "is_24h": true}, {"lat": 33.0562, "lon": 131.3265, "name": "3.0", "type": "fire_station", "is_24h": true}, {"lat": 33.5566, "lon": 131.4465, "name": "2.0", "type": "fire_station", "is_24h": true}, {"lat": 33.6637, "lon": 131.528, "name": "3.0", "type": "fire_station", "is_24h": true}, {"lat": 33.4116, "lon": 131.5945, "name": "2.0", "type": "fire_station", "is_24h": true}, {"lat": 33.4485, "lon": 131.5079, "name": "3.0", "type": "fire_station", "is_24h": true}, {"lat": 33.532, "lon": 131.335, "name": "2.0", "type": "fire_station", "is_24h": true}, {"lat": 33.5692, "lon": 131.3765, "name": "3.0", "type": "fire_station", "is_24h": true}, {"lat": 33.4218, "lon": 131.3311, "name": "3.0", "type": "fire_station", "is_24h": true}, {"lat": 33.068, "lon": 131.6355, "name": "3.0", "type": "fire_station", "is_24h": true}, {"lat": 33.1967, "lon": 131.4989, "name": "2.0", "type": "fire_station", "is_24h": true}, {"lat": 33.1817, "lon": 131.4273, "name": "3.0", "type": "fire_station", "is_24h": true}, {"lat": 33.266, "lon": 131.3577, "name": "3.0", "type": "fire_station", "is_24h": true}, {"lat": 33.5702, "lon": 131.7325, "name": "2.0", "type": "fire_station", "is_24h": true}, {"lat": 33.6765, "lon": 131.5917, "name": "3.0", "type": "fire_station", "is_24h": true}, {"lat": 33.7245, "lon": 131.6451, "name": "3.0", "type": "fire_station", "is_24h": true}, {"lat": 33.3819, "lon": 131.5402, "name": "2.0", "type": "fire_station", "is_24h": true}, {"lat": 33.227, "lon": 131.1959, "name": "3.0", "type": "fire_station", "is_24h": true}, {"lat": 33.2689, "lon": 131.1648, "name": "2.0", "type": "fire_station", "is_24h": true}, {"lat": 33.2084, "lon": 131.5895, "name": "3.0", "type": "fire_station", "is_24h": true}, {"lat": 33.188, "lon": 131.678, "name": "3.0", "type": "fire_station", "is_24h": true}, {"lat": 33.0509, "lon": 131.6882, "name": "3.0", "type": "fire_station", "is_24h": true}, {"lat": 33.0238, "lon": 131.4836, "name": "3.0", "type": "fire_station", "is_24h": true}, {"lat": 33.4816, "lon": 131.7213, "name": "3.0", "type": "fire_station", "is_24h": true}, {"lat": 33.9667, "lon": 131.3016, "name": "\u548c\u540c\u4f1a\u5b87\u90e8\u6e29\u6cc9\u75c5\u9662", "type": "hospital", "is_24h": false}, {"lat": 33.9667, "lon": 131.3016, "name": "\u548c\u540c\u4f1a\u7247\u5009\u75c5\u9662", "type": "hospital", "is_24h": false}, {"lat": 33.9773, "lon": 131.3473, "name": "\u72ec\u7acb\u884c\u653f\u6cd5\u4eba\u56fd\u7acb\u75c5\u9662\u6a5f\u69cb\u3000\u5c71\u53e3\u5b87\u90e8\u533b\u7642\u30bb\u30f3\u30bf\u30fc", "type": "hospital", "is_24h": false}, {"lat": 33.9663, "lon": 131.3514, "name": "\u592a\u767d\u4f1a\u30b7\u30fc\u30b5\u30a4\u30c9\u75c5\u9662", "type": "hospital", "is_24h": false}, {"lat": 33.9662, "lon": 131.3298, "name": "\u5b87\u90e8\u8208\u7523\u4e2d\u592e\u75c5\u9662", "type": "hospital", "is_24h": false}, {"lat": 33.9862, "lon": 131.1846, "name": "\u5c71\u53e3\u52b4\u707d\u75c5\u9662", "type": "hospital", "is_24h": false}, {"lat": 33.98, "lon": 131.1884, "name": "\u5fc3\u548c\u4f1a\u5c0f\u91ce\u7530\u5fc3\u548c\u5712", "type": "hospital", "is_24h": false}, {"lat": 33.9804, "lon": 131.9402, "name": "\u611b\u547d\u4f1a\u5927\u7530\u75c5\u9662", "type": "hospital", "is_24h": false}, {"lat": 33.9618, "lon": 131.1739, "name": "\u68ee\u7530\u75c5\u9662", "type": "hospital", "is_24h": false}, {"lat": 33.9838, "lon": 131.1782, "name": "\u702c\u6238\u75c5\u9662", "type": "hospital", "is_24h": false}, {"lat": 33.9829, "lon": 131.9997, "name": "\u5927\u548c\u7dcf\u5408\u75c5\u9662", "type": "hospital", "is_24h": false}, {"lat": 33.9758, "lon": 131.3429, "name": "\u5c71\u53e3\u770c\u7acb\u3053\u3053\u308d\u306e\u533b\u7642\u30bb\u30f3\u30bf\u30fc", "type": "hospital", "is_24h": false}, {"lat": 33.9637, "lon": 131.3047, "name": "\u8056\u6bd4\u7559\u4f1a\u30bb\u30f3\u30c8\u30d2\u30eb\u75c5\u9662", "type": "hospital", "is_24h": false}, {"lat": 33.9727, "lon": 131.9159, "name": "\u81f3\u8aa0\u4f1a\u6885\u7530\u75c5\u9662", "type": "hospital", "is_24h": false}, {"lat": 33.9761, "lon": 131.1778, "name": "\u9577\u660e\u4f1a\u9577\u6ca2\u75c5\u9662", "type": "hospital", "is_24h": false}, {"lat": 33.9705, "lon": 131.9336, "name": "\u967d\u5149\u4f1a\u5149\u4e2d\u592e\u75c5\u9662", "type": "hospital", "is_24h": false}, {"lat": 33.602, "lon": 131.1741, "name": "\u3051\u3084\u304d\u4f1a\u6771\u75c5\u9662", "type": "hospital", "is_24h": false}, {"lat": 33.6518, "lon": 131.064, "name": "\u5bae\u90e8\u75c5\u9662", "type": "hospital", "is_24h": false}, {"lat": 33.6871, "lon": 131.0095, "name": "\u656c\u611b\u4f1a\u65b0\u7530\u539f\u8056\u6bcd\u75c5\u9662", "type": "hospital", "is_24h": false}, {"lat": 33.6931, "lon": 131.0123, "name": "\u65b0\u884c\u6a4b\u75c5\u9662", "type": "hospital", "is_24h": false}, {"lat": 33.653, "lon": 131.0635, "name": "\u690e\u7530\u75c5\u9662", "type": "hospital", "is_24h": false}, {"lat": 33.6053, "lon": 131.0999, "name": "\u7965\u548c\u4f1a\u5927\u5ddd\u75c5\u9662", "type": "hospital", "is_24h": false}, {"lat": 33.5933, "lon": 131.131, "name": "\u8c4a\u548c\u4f1a\u8c4a\u524d\u75c5\u9662", "type": "hospital", "is_24h": false}, {"lat": 33.1216, "lon": 131.066, "name": "\u5c0f\u56fd\u516c\u7acb\u75c5\u9662", "type": "hospital", "is_24h": false}, {"lat": 33.193, "lon": 131.5672, "name": "\u3068\u3088\u307f\u4f1a\u4ef2\u5b97\u6839\u75c5\u9662", "type": "hospital", "is_24h": false}, {"lat": 33.4461, "lon": 131.5974, "name": "\u30aa\u30ec\u30f3\u30b8\u4f1a\u6775\u7bc9\u30aa\u30ec\u30f3\u30b8\u75c5\u9662", "type": "hospital", "is_24h": false}, {"lat": 33.236, "lon": 131.6259, "name": "\u4e00\u4fe1\u4f1a\u5927\u5206\u6574\u5f62\u5916\u79d1\u75c5\u9662", "type": "hospital", "is_24h": false}, {"lat": 33.5919, "lon": 131.1924, "name": "\u4e09\u5149\u4f1a\u677e\u6c38\u5faa\u74b0\u5668\u75c5\u9662", "type": "hospital", "is_24h": false}, {"lat": 33.2164, "lon": 131.6111, "name": "\u4e09\u674f\u4f1a\u4ec1\u533b\u4f1a\u75c5\u9662", "type": "hospital", "is_24h": false}, {"lat": 33.311, "lon": 131.5004, "name": "\u4e0a\u4eba\u4f1a\u4e0a\u4eba\u75c5\u9662", "type": "hospital", "is_24h": false}, {"lat": 33.5901, "lon": 131.2152, "name": "\u4e2d\u6d25\u5e02\u7acb\u4e2d\u6d25\u5e02\u6c11\u75c5\u9662", "type": "hospital", "is_24h": false}, {"lat": 33.5884, "lon": 131.208, "name": "\u4e2d\u6d25\u7b2c\u4e00\u75c5\u9662", "type": "hospital", "is_24h": false}, {"lat": 33.5797, "lon": 131.2054, "name": "\u4e2d\u6d25\u80c3\u8178\u75c5\u9662", "type": "hospital", "is_24h": false}, {"lat": 33.5637, "lon": 131.2256, "name": "\u4e2d\u6d25\u8133\u795e\u7d4c\u5916\u79d1\u75c5\u9662", "type": "hospital", "is_24h": false}, {"lat": 33.3753, "lon": 131.5458, "name": "\u4e45\u5bff\u4f1a\u9234\u6728\u75c5\u9662", "type": "hospital", "is_24h": false}, {"lat": 33.2936, "lon": 131.4798, "name": "\u4e5d\u5dde\u5927\u5b66\u75c5\u9662\u5225\u5e9c\u5148\u9032\u533b\u7642\u30bb\u30f3\u30bf\u30fc", "type": "hospital", "is_24h": false}, {"lat": 33.6859, "lon": 131.5956, "name": "\u4e8c\u8c4a\u4f1a\u56fd\u898b\u75c5\u9662", "type": "hospital", "is_24h": false}, {"lat": 33.5165, "lon": 131.3362, "name": "\u4ec1\u548c\u4f1a\u4f50\u85e4\u75c5\u9662", "type": "hospital", "is_24h": false}, {"lat": 33.2751, "lon": 131.4928, "name": "\u4ec1\u6cc9\u4f1a\u7551\u75c5\u9662", "type": "hospital", "is_24h": false}, {"lat": 33.5295, "lon": 131.4118, "name": "\u4fe1\u548c\u4f1a\u548c\u7530\u75c5\u9662", "type": "hospital", "is_24h": false}, {"lat": 33.2166, "lon": 131.6011, "name": "\u4fe1\u8208\u4f1a\u5927\u5206\u6d88\u5316\u5668\u79d1\u75c5\u9662", "type": "hospital", "is_24h": false}, {"lat": 33.2407, "lon": 131.6362, "name": "\u516b\u5b8f\u4f1a\u6709\u7530\u80c3\u8178\u75c5\u9662", "type": "hospital", "is_24h": false}, {"lat": 33.2135, "lon": 131.5919, "name": "\u51f1\u98a8\u4f1a\u7e54\u90e8\u75c5\u9662", "type": "hospital", "is_24h": false}, {"lat": 33.2964, "lon": 131.4768, "name": "\u5225\u5e9c\u767a\u9054\u533b\u7642\u30bb\u30f3\u30bf\u30fc", "type": "hospital", "is_24h": false}, {"lat": 33.2404, "lon": 131.5996, "name": "\u535a\u5149\u4f1a\u585a\u5ddd\u7b2c\u4e00\u75c5\u9662", "type": "hospital", "is_24h": false}, {"lat": 33.2851, "lon": 131.5044, "name": "\u535a\u611b\u4f1a\u5225\u5e9c\u4e2d\u592e\u75c5\u9662", "type": "hospital", "is_24h": false}, {"lat": 33.4632, "lon": 131.501, "name": "\u535a\u611b\u4f1a\u5c71\u9999\u7406\u5b66\u8a3a\u7642\u79d1\u75c5\u9662", "type": "hospital", "is_24h": false}, {"lat": 33.2313, "lon": 131.6399, "name": "\u540c\u4ec1\u4f1a\u5927\u5206\u4e0b\u90e1\u75c5\u9662", "type": "hospital", "is_24h": false}, {"lat": 33.5777, "lon": 131.2164, "name": "\u5411\u5fc3\u4f1a\u5927\u8c9e\u75c5\u9662", "type": "hospital", "is_24h": false}, {"lat": 33.2949, "lon": 131.4769, "name": "\u54f2\u4e16\u4f1a\u9db4\u898b\u53f0\u75c5\u9662", "type": "hospital", "is_24h": false}, {"lat": 33.1495, "lon": 131.6467, "name": "\u5584\u6148\u4f1a\u5927\u5206\u4e18\u306e\u4e0a\u75c5\u9662", "type": "hospital", "is_24h": false}, {"lat": 33.2387, "lon": 131.696, "name": "\u5584\u662d\u4f1a\u4e0a\u5c3e\u8a18\u5ff5\u75c5\u9662", "type": "hospital", "is_24h": false}, {"lat": 33.2932, "lon": 131.4749, "name": "\u56fd\u7acb\u75c5\u9662\u6a5f\u69cb\u897f\u5225\u5e9c\u75c5\u9662", "type": "hospital", "is_24h": false}, {"lat": 33.0577, "lon": 131.3323, "name": "\u5927\u4e45\u4fdd\u75c5\u9662", "type": "hospital", "is_24h": false}, {"lat": 33.1934, "lon": 131.6094, "name": "\u5927\u5206\u5e02\u533b\u5e2b\u4f1a\u7acb\u30a2\u30eb\u30e1\u30a4\u30c0\u75c5\u9662", "type": "hospital", "is_24h": false}, {"lat": 33.1973, "lon": 131.604, "name": "\u5927\u5206\u770c\u52e4\u52b4\u8005\u533b\u7642\u751f\u6d3b\u5354\u540c\u7d44\u5408\u5927\u5206\u5354\u548c\u75c5\u9662", "type": "hospital", "is_24h": false}, {"lat": 33.2391, "lon": 131.6298, "name": "\u5927\u5206\u770c\u533b\u7642\u751f\u6d3b\u5354\u540c\u7d44\u5408\u5927\u5206\u5065\u751f\u75c5\u9662", "type": "hospital", "is_24h": false}, {"lat": 33.2974, "lon": 131.4891, "name": "\u5927\u5206\u770c\u539a\u751f\u9023\u9db4\u898b\u75c5\u9662", "type": "hospital", "is_24h": false}, {"lat": 33.2106, "lon": 131.6004, "name": "\u5927\u5206\u8a18\u5ff5\u75c5\u9662", "type": "hospital", "is_24h": false}, {"lat": 33.5572, "lon": 131.3568, "name": "\u5b87\u4f50\u80c3\u8178\u75c5\u9662", "type": "hospital", "is_24h": false}, {"lat": 33.5274, "lon": 131.386, "name": "\u5b87\u4f50\u9ad8\u7530\u533b\u5e2b\u4f1a\u75c5\u9662", "type": "hospital", "is_24h": false}, {"lat": 33.2747, "lon": 131.4978, "name": "\u5c71\u672c\u8a18\u5ff5\u4f1a\u5c71\u672c\u75c5\u9662", "type": "hospital", "is_24h": false}, {"lat": 33.4454, "lon": 131.5087, "name": "\u6775\u7bc9\u5e02\u7acb\u5c71\u9999\u75c5\u9662", "type": "hospital", "is_24h": false}, {"lat": 33.2075, "lon": 131.5879, "name": "\u5ca1\u4ec1\u4f1a\u5927\u5206\u5171\u7acb\u75c5\u9662", "type": "hospital", "is_24h": false}, {"lat": 33.4465, "lon": 131.5081, "name": "\u6775\u7bc9\u5e02\u7acb\u5c71\u9999\u75c5\u9662\u99d0\u8eca\u5834", "type": "hospital", "is_24h": false}, {"lat": 33.5475, "lon": 131.281, "name": "\u5f18\u967d\u4f1a\u5c0f\u91ce\u5185\u79d1\u75c5\u9662", "type": "hospital", "is_24h": false}, {"lat": 33.5544, "lon": 131.3573, "name": "\u5fb3\u548c\u4f1a\u5b87\u4f50\u4e2d\u592e\u5185\u79d1\u75c5\u9662", "type": "hospital", "is_24h": false}, {"lat": 33.4157, "lon": 131.6234, "name": "\u6075\u53cb\u4f1a\u6775\u7bc9\u4e2d\u592e\u75c5\u9662", "type": "hospital", "is_24h": false}, {"lat": 33.2408, "lon": 131.6416, "name": "\u611b\u656c\u4f1a\u57ce\u6771\u75c5\u9662", "type": "hospital", "is_24h": false}, {"lat": 33.5936, "lon": 131.1897, "name": "\u6148\u4ec1\u4f1a\u9152\u4e95\u75c5\u9662", "type": "hospital", "is_24h": false}, {"lat": 33.2899, "lon": 131.4587, "name": "\u6148\u611b\u4f1a\u5411\u4e95\u75c5\u9662", "type": "hospital", "is_24h": false}, {"lat": 33.2658, "lon": 131.3582, "name": "\u6148\u611b\u4f1a\u5ca9\u7537\u75c5\u9662", "type": "hospital", "is_24h": false}, {"lat": 33.2993, "lon": 131.4771, "name": "\u65b0\u5225\u5e9c\u75c5\u9662", "type": "hospital", "is_24h": false}, {"lat": 33.3672, "lon": 131.5455, "name": "\u65e5\u51fa\u5150\u7389\u75c5\u9662", "type": "hospital", "is_24h": false}, {"lat": 33.2265, "lon": 131.6048, "name": "\u4f50\u85e4\u75c5\u9662", "type": "hospital", "is_24h": false}, {"lat": 33.2275, "lon": 131.5557, "name": "\u660e\u548c\u4f1a\u5927\u5206\u3086\u3075\u307f\u75c5\u9662", "type": "hospital", "is_24h": false}, {"lat": 33.3195, "lon": 131.4976, "name": "\u6625\u65e5\u4f1a\u9ed2\u6728\u8a18\u5ff5\u75c5\u9662", "type": "hospital", "is_24h": false}, {"lat": 33.2716, "lon": 131.4962, "name": "\u671d\u898b\u75c5\u9662", "type": "hospital", "is_24h": false}, {"lat": 33.6028, "lon": 131.1834, "name": "\u674f\u6797\u4f1a\u6751\u4e0a\u8a18\u5ff5\u75c5\u9662", "type": "hospital", "is_24h": false}, {"lat": 33.4682, "lon": 131.7207, "name": "\u6771\u56fd\u6771\u5e83\u57df\u56fd\u4fdd\u7dcf\u5408\u75c5\u9662", "type": "hospital", "is_24h": false}, {"lat": 33.33, "lon": 131.485, "name": "\u6d17\u5fc3\u4f1a\u5225\u5e9c\u6e29\u6cc9\u75c5\u9662", "type": "hospital", "is_24h": false}, {"lat": 33.2182, "lon": 131.7034, "name": "\u6df5\u91ce\u4f1a\u7dd1\u30b1\u4e18\u4fdd\u990a\u5712", "type": "hospital", "is_24h": false}, {"lat": 33.2809, "lon": 131.4985, "name": "\u6e05\u702c\u75c5\u9662", "type": "hospital", "is_24h": false}, {"lat": 33.5926, "lon": 131.2132, "name": "\u7384\u771f\u5802\u5ddd\u5d8c\u6574\u5f62\u5916\u79d1\u75c5\u9662", "type": "hospital", "is_24h": false}, {"lat": 33.2824, "lon": 131.1532, "name": "\u7396\u5bff\u4f1a\u9ad8\u7530\u75c5\u9662", "type": "hospital", "is_24h": false}, {"lat": 33.2556, "lon": 131.0352, "name": "\u7531\u96c5\u4ec1\u4f1a\u5929\u702c\u6e29\u6cc9\u75c5\u9662", "type": "hospital", "is_24h": false}, {"lat": 33.2085, "lon": 131.5506, "name": "\u754f\u656c\u4f1a\u4e95\u91ce\u8fba\u75c5\u9662", "type": "hospital", "is_24h": false}, {"lat": 33.1364, "lon": 131.7696, "name": "\u767d\u5ddd\u75c5\u9662", "type": "hospital", "is_24h": false}, {"lat": 33.2118, "lon": 131.5656, "name": "\u76db\u53cb\u4f1a\u5c0f\u6df1\u7530\u6d88\u5316\u5668\u75c5\u9662", "type": "hospital", "is_24h": false}, {"lat": 33.5476, "lon": 131.2185, "name": "\u76f4\u5fc3\u4f1a\u3064\u304f\u3057\u5712", "type": "hospital", "is_24h": false}, {"lat": 33.0135, "lon": 131.624, "name": "\u770c\u7acb\u4e09\u91cd\u75c5\u9662", "type": "hospital", "is_24h": false}, {"lat": 33.2572, "lon": 131.3582, "name": "\u798f\u5bff\u4f1a\u65e5\u91ce\u75c5\u9662", "type": "hospital", "is_24h": false}, {"lat": 33.2291, "lon": 131.6403, "name": "\u79c0\u660e\u4f1a\u3060\u3044\u304b\u304f\u75c5\u9662", "type": "hospital", "is_24h": false}, {"lat": 33.5771, "lon": 131.432, "name": "\u7a4d\u5584\u4f1a\u5343\u5d8b\u75c5\u9662", "type": "hospital", "is_24h": false}, {"lat": 33.2785, "lon": 131.1502, "name": "\u7d14\u548c\u4f1a\u5c0f\u4e2d\u75c5\u9662", "type": "hospital", "is_24h": false}, {"lat": 33.3211, "lon": 131.4939, "name": "\u8061\u660e\u4f1a\u5150\u7389\u75c5\u9662", "type": "hospital", "is_24h": false}, {"lat": 33.2853, "lon": 131.4854, "name": "\u81ea\u885b\u968a\u5225\u5e9c\u75c5\u9662", "type": "hospital", "is_24h": false}, {"lat": 33.2255, "lon": 131.6195, "name": "\u81f3\u8aa0\u4f1a\u5e06\u79cb\u75c5\u9662", "type": "hospital", "is_24h": false}, {"lat": 33.1885, "lon": 131.6159, "name": "\u85e4\u5cf6\u75c5\u9662", "type": "hospital", "is_24h": false}, {"lat": 33.2159, "lon": 131.6201, "name": "\u85e4\u672c\u80b2\u6210\u4f1a\u5927\u5206\u3053\u3069\u3082\u75c5\u9662", "type": "hospital", "is_24h": false}, {"lat": 33.167, "lon": 131.632, "name": "\u89aa\u548c\u4f1a\u3048\u3068\u3046\u5185\u79d1\u75c5\u9662", "type": "hospital", "is_24h": false}, {"lat": 33.1672, "lon": 131.6308, "name": "\u89aa\u548c\u4f1a\u885b\u85e4\u75c5\u9662", "type": "hospital", "is_24h": false}, {"lat": 33.5313, "lon": 131.3738, "name": "\u8d77\u611b\u4f1a\u5b87\u4f50\u75c5\u9662", "type": "hospital", "is_24h": false}, {"lat": 33.5289, "lon": 131.3844, "name": "\u8f5f\u6728\u6574\u5f62\u5916\u79d1\u75c5\u9662", "type": "hospital", "is_24h": false}, {"lat": 33.3135, "lon": 131.4637, "name": "\u8fb2\u5354\u5171\u6e08\u5225\u5e9c\u30ea\u30cf\u30d3\u30ea\u30c6\u30fc\u30b7\u30e7\u30f3\u30bb\u30f3\u30bf\u30fc", "type": "hospital", "is_24h": false}, {"lat": 33.2818, "lon": 131.498, "name": "\u91ce\u53e3\u8a18\u5ff5\u4f1a\u91ce\u53e3\u75c5\u9662", "type": "hospital", "is_24h": false}, {"lat": 33.1997, "lon": 131.609, "name": "\u9752\u6a39\u4f1a\u30ea\u30d0\u30fc\u30b5\u30a4\u30c9\u75c5\u9662", "type": "hospital", "is_24h": false}, {"lat": 33.5481, "lon": 131.4278, "name": "\u9752\u7fc6\u4f1a\u539f\u7530\u6574\u5f62\u5916\u79d1\u75c5\u9662", "type": "hospital", "is_24h": false}, {"lat": 33.2746, "lon": 131.1578, "name": "\u9806\u69ae\u4f1a\u7396\u73e0\u8a18\u5ff5\u75c5\u9662", "type": "hospital", "is_24h": false}, {"lat": 33.3061, "lon": 131.4875, "name": "\u9855\u79c0\u4f1a\u77f3\u57a3\u75c5\u9662", "type": "hospital", "is_24h": false}, {"lat": 33.5555, "lon": 131.4406, "name": "\u9ad8\u7530\u4e2d\u592e\u75c5\u9662", "type": "hospital", "is_24h": false}, {"lat": 33.2397, "lon": 131.7054, "name": "\u9db4\u53cb\u4f1a\u3053\u304c\u75c5\u9662", "type": "hospital", "is_24h": false}, {"lat": 33.4149, "lon": 131.6259, "name": "\u304d\u3064\u304d\u773c\u79d1", "type": "hospital", "is_24h": false}, {"lat": 33.1137, "lon": 131.689, "name": "\u5409\u91ce\u8a3a\u7642\u6240", "type": "hospital", "is_24h": false}, {"lat": 33.1413, "lon": 131.6523, "name": "\u5927\u5d8b\u533b\u9662", "type": "hospital", "is_24h": false}, {"lat": 33.234, "lon": 131.6061, "name": "\u5171\u7acb\u7f8e\u5bb9\u5916\u79d1 \u5927\u5206", "type": "hospital", "is_24h": false}, {"lat": 33.423, "lon": 131.6309, "name": "\u885b\u85e4\u5916\u79d1", "type": "hospital", "is_24h": false}, {"lat": 33.423, "lon": 131.6333, "name": "\u6775\u7bc9\u6ccc\u5c3f\u5668\u79d1\u30af\u30ea\u30cb\u30c3\u30af", "type": "hospital", "is_24h": false}, {"lat": 33.4185, "lon": 131.6291, "name": "\u4f0a\u85e4\u5c0f\u5150\u79d1", "type": "hospital", "is_24h": false}, {"lat": 33.4193, "lon": 131.6292, "name": "\u307f\u3084\u3046\u3061\u30a6\u30a4\u30e1\u30f3\u30ba\u30af\u30ea\u30cb\u30c3\u30af", "type": "hospital", "is_24h": false}, {"lat": 33.422, "lon": 131.6164, "name": "\u304f\u308a\u3084\u307e\u30ec\u30c7\u30a3\u30fc\u30b9\u30af\u30ea\u30cb\u30c3\u30af", "type": "hospital", "is_24h": false}, {"lat": 33.2113, "lon": 131.5952, "name": "\u4e0a\u91ce\u91ab\u9662", "type": "hospital", "is_24h": false}, {"lat": 33.2112, "lon": 131.5976, "name": "\u5e73\u5ddd\u5faa\u74b0\u5668", "type": "hospital", "is_24h": false}, {"lat": 33.2155, "lon": 131.6058, "name": "\u53e4\u56fd\u5e9c\u30af\u30ea\u30cb\u30c3\u30af", "type": "hospital", "is_24h": false}, {"lat": 33.2156, "lon": 131.5945, "name": "\u4ed9\u6ce2\u6574\u5f62\u5916\u79d1", "type": "hospital", "is_24h": false}, {"lat": 33.1958, "lon": 131.5796, "name": "\u56fd\u6771\u6574\u5f62\u5916\u79d1", "type": "hospital", "is_24h": false}, {"lat": 33.1983, "lon": 131.5812, "name": "\u6771\u5185\u79d1", "type": "hospital", "is_24h": false}, {"lat": 33.2138, "lon": 131.5922, "name": "\u798f\u6ca2\u773c\u79d1", "type": "hospital", "is_24h": false}, {"lat": 33.2156, "lon": 131.6063, "name": "\u3080\u306d\u3080\u3089\u5927\u8178\u809b\u9580\u79d1", "type": "hospital", "is_24h": false}, {"lat": 33.2107, "lon": 131.5926, "name": "\u4f50\u85e4\u8033\u9f3b\u79d1", "type": "hospital", "is_24h": false}, {"lat": 33.2151, "lon": 131.601, "name": "\u305f\u306a\u304b\u773c\u79d1", "type": "hospital", "is_24h": false}, {"lat": 33.2153, "lon": 131.601, "name": "\u307b\u3046\u3075\u8033\u9f3b\u79d1", "type": "hospital", "is_24h": false}, {"lat": 33.2158, "lon": 131.5946, "name": "\u66fd\u6839\u5d0e\u7523\u5a66\u4eba\u79d1", "type": "hospital", "is_24h": false}, {"lat": 33.2158, "lon": 131.6109, "name": "\u5e02\u30f6\u8c37\u6574\u5f62\u5916\u79d1", "type": "hospital", "is_24h": false}, {"lat": 33.2128, "lon": 131.5741, "name": "\u8f9b\u5cf6\u5185\u79d1", "type": "hospital", "is_24h": false}, {"lat": 33.2189, "lon": 131.5848, "name": "\u57ce\u5357\u30af\u30ea\u30cb\u30c3\u30af", "type": "hospital", "is_24h": false}, {"lat": 33.2182, "lon": 131.5948, "name": "\u304b\u3084\u3057\u307e\u533b\u9662", "type": "hospital", "is_24h": false}, {"lat": 33.2119, "lon": 131.595, "name": "\u5927\u8c37\u6b6f\u79d1", "type": "hospital", "is_24h": false}, {"lat": 33.2096, "lon": 131.5335, "name": "\u5927\u5206\u533b\u79d1\u5927\u5b66\u533b\u5b66\u90e8\u9644\u5c5e\u75c5\u9662", "type": "hospital", "is_24h": false}, {"lat": 33.979, "lon": 131.9216, "name": "\u307f\u3061\u304c\u307f\u75c5\u9662", "type": "hospital", "is_24h": false}, {"lat": 33.9687, "lon": 131.9333, "name": "\u65b0\u65e5\u9435\u4f4f\u91d1\u8a3a\u7642\u6240", "type": "hospital", "is_24h": false}, {"lat": 33.9662, "lon": 131.2361, "name": "\u30a4\u30b7\u30c0\u52d5\u7269\u75c5\u9662", "type": "hospital", "is_24h": false}, {"lat": 33.9875, "lon": 131.3441, "name": "\u304d\u308f\u306e\u3082\u308a\u6b6f\u79d1\u30af\u30ea\u30cb\u30c3\u30af", "type": "hospital", "is_24h": false}, {"lat": 33.2394, "lon": 131.6199, "name": "\u5927\u5206\u4e2d\u6751\u75c5\u9662", "type": "hospital", "is_24h": true}, {"lat": 33.2369, "lon": 131.6109, "name": "\u5800\u6c38\u7523\u5a66\u4eba\u79d1\u533b\u9662", "type": "hospital", "is_24h": false}, {"lat": 33.2144, "lon": 131.6008, "name": "\u5927\u5206\u8a18\u5ff5\u75c5\u9662", "type": "hospital", "is_24h": false}, {"lat": 33.2267, "lon": 131.6527, "name": "\u5927\u5834\u6574\u5f62\u5916\u79d1", "type": "hospital", "is_24h": false}, {"lat": 33.2205, "lon": 131.6575, "name": "\u660e\u91ce\u4e2d\u592e\u75c5\u9662", "type": "hospital", "is_24h": true}, {"lat": 33.2082, "lon": 131.6604, "name": "\u6d25\u7530\u304b\u304a\u308b\u30af\u30ea\u30cb\u30c3\u30af", "type": "hospital", "is_24h": false}, {"lat": 33.2356, "lon": 131.6033, "name": "\u5927\u5ddd\u7523\u5a66\u4eba\u79d1\u75c5\u9662", "type": "hospital", "is_24h": false}, {"lat": 33.2261, "lon": 131.6522, "name": "\u3048\u3068\u3046\u773c\u79d1", "type": "hospital", "is_24h": false}, {"lat": 33.2272, "lon": 131.6525, "name": "\u306a\u3093\u3070\u6d88\u706b\u5668\u30fb\u809b\u9580\u79d1", "type": "hospital", "is_24h": false}, {"lat": 33.2287, "lon": 131.6529, "name": "\u53e4\u8cc0\u660e\u91ce\u8a3a\u7642\u6240", "type": "hospital", "is_24h": false}, {"lat": 33.2269, "lon": 131.6526, "name": "\u5927\u5206\u30b9\u30dd\u30fc\u30c4\u30ea\u30cf\u30d3\u30ea\u30c6\u30fc\u30b7\u30e7\u30f3\u30bb\u30f3\u30bf\u30fc", "type": "hospital", "is_24h": false}, {"lat": 33.2261, "lon": 131.6555, "name": "\u660e\u548c\u8a18\u5ff5\u75c5\u9662", "type": "hospital", "is_24h": false}, {"lat": 33.4193, "lon": 131.6292, "name": "hospital", "type": "hospital", "is_24h": false}, {"lat": 33.422, "lon": 131.6164, "name": "hospital", "type": "hospital", "is_24h": false}, {"lat": 33.4185, "lon": 131.6291, "name": "hospital", "type": "hospital", "is_24h": false}, {"lat": 33.25, "lon": 131.6701, "name": "hospital", "type": "hospital", "is_24h": false}, {"lat": 33.5327, "lon": 131.3309, "name": "hospital", "type": "hospital", "is_24h": false}, {"lat": 33.193, "lon": 131.6102, "name": "\u30a2\u30eb\u30e1\u30a4\u30c0\u75c5\u9662", "type": "hospital", "is_24h": false}, {"lat": 33.2066, "lon": 131.599, "name": "\u5927\u5206\u770c\u7acb\u75c5\u9662", "type": "hospital", "is_24h": false}, {"lat": 33.2079, "lon": 131.592, "name": "\u5927\u585a\u773c\u79d1", "type": "hospital", "is_24h": false}, {"lat": 33.9518, "lon": 131.2531, "name": "\u4ec1\u5fc3\u4f1a\u4ec1\u5fc3\u4f1a\u75c5\u9662", "type": "hospital", "is_24h": false}, {"lat": 33.9589, "lon": 131.2399, "name": "\u535a\u611b\u4f1a\u5b87\u90e8\u8a18\u5ff5\u75c5\u9662", "type": "hospital", "is_24h": false}, {"lat": 33.9513, "lon": 131.2507, "name": "\u7dbf\u7530\u5185\u79d1\u75c5\u9662", "type": "hospital", "is_24h": false}, {"lat": 33.971, "lon": 131.918, "name": "\u7dcf\u5408\u75c5\u9662\u5149\u5e02\u7acb\u75c5\u9662", "type": "hospital", "is_24h": false}, {"lat": 33.9804, "lon": 131.9399, "name": "hospital", "type": "hospital", "is_24h": false}, {"lat": 33.9373, "lon": 131.2665, "name": "\u5b87\u90e8\u5354\u7acb\u75c5\u9662", "type": "hospital", "is_24h": false}, {"lat": 33.2567, "lon": 131.3625, "name": "\u6e6f\u5e03\u9662\u539a\u751f\u5e74\u91d1\u75c5\u9662", "type": "hospital", "is_24h": false}, {"lat": 33.2047, "lon": 131.5204, "name": "\u68ee\u672c\u6574\u5f62\u5916\u79d1\u30af\u30ea\u30cb\u30c3\u30af", "type": "hospital", "is_24h": false}, {"lat": 33.2098, "lon": 131.6186, "name": "\u8acf\u8a2a\u306e\u675c\u75c5\u9662", "type": "hospital", "is_24h": true}, {"lat": 33.2108, "lon": 131.6156, "name": "hospital", "type": "hospital", "is_24h": false}, {"lat": 33.2128, "lon": 131.6198, "name": "hospital", "type": "hospital", "is_24h": false}, {"lat": 33.9534, "lon": 131.183, "name": "\u5c0f\u91ce\u7530\u8d64\u5341\u5b57\u75c5\u9662", "type": "hospital", "is_24h": false}, {"lat": 33.9542, "lon": 131.1836, "name": "\u5c0f\u91ce\u7530\u8d64\u5341\u5b57\u75c5\u9662", "type": "hospital", "is_24h": false}, {"lat": 33.1863, "lon": 131.5756, "name": "hospital", "type": "hospital", "is_24h": false}, {"lat": 33.5344, "lon": 131.3265, "name": "\u8208\u4ec1\u4f1a\u6851\u5c3e\u75c5\u9662", "type": "hospital", "is_24h": false}, {"lat": 33.5269, "lon": 131.3863, "name": "hospital", "type": "hospital", "is_24h": false}, {"lat": 33.1842, "lon": 131.5589, "name": "hospital", "type": "hospital", "is_24h": false}, {"lat": 33.5263, "lon": 131.3436, "name": "\u660e\u5fb3\u4f1a\u4f50\u85e4\u7b2c\u4e00\u75c5\u9662", "type": "hospital", "is_24h": false}, {"lat": 33.3703, "lon": 131.529, "name": "\u30b5\u30f3\u30e9\u30a4\u30ba\u9152\u4e95\u75c5\u9662", "type": "hospital", "is_24h": false}, {"lat": 33.2496, "lon": 131.8677, "name": "\u4f50\u8cc0\u95a2\u75c5\u9662", "type": "hospital", "is_24h": false}, {"lat": 33.9786, "lon": 131.2175, "name": "\u8056\u6bd4\u7559\u4f1a\u539a\u5357\u30bb\u30f3\u30c8\u30d2\u30eb\u75c5\u9662", "type": "hospital", "is_24h": false}, {"lat": 33.1894, "lon": 131.5865, "name": "hospital", "type": "hospital", "is_24h": false}, {"lat": 33.9899, "lon": 131.1754, "name": "\u308f\u305f\u306a\u3079\u6ccc\u5c3f\u5668\u79d1", "type": "hospital", "is_24h": false}, {"lat": 33.1886, "lon": 131.616, "name": "\u85e4\u5cf6\u75c5\u9662", "type": "hospital", "is_24h": false}, {"lat": 33.4542, "lon": 131.3287, "name": "\u6709\u6599\u8001\u4eba\u30db\u30fc\u30e0\u307b\u308a\u304b\u308f", "type": "hospital", "is_24h": false}, {"lat": 33.2439, "lon": 131.6045, "name": "\u5927\u5206\u8d64\u5341\u5b57\u75c5\u9662", "type": "hospital", "is_24h": true}, {"lat": 33.1234, "lon": 131.7788, "name": "\u30b3\u30b9\u30e2\u30b9\u75c5\u9662", "type": "hospital", "is_24h": false}, {"lat": 33.0722, "lon": 131.8878, "name": "\u6d25\u4e45\u898b\u4e2d\u592e\u75c5\u9662", "type": "hospital", "is_24h": false}, {"lat": 33.158, "lon": 131.6571, "name": "\u5929\u5fc3\u5802\u3078\u3064\u304e\u75c5\u9662", "type": "hospital", "is_24h": true}, {"lat": 33.2306, "lon": 131.5967, "name": "hospital", "type": "hospital", "is_24h": false}, {"lat": 33.2522, "lon": 131.7211, "name": "\u56fd\u7acb\u75c5\u9662\u6a5f\u69cb\u5927\u5206\u533b\u7642\u30bb\u30f3\u30bf\u30fc", "type": "hospital", "is_24h": true}, {"lat": 33.2308, "lon": 131.6401, "name": "\u540c\u4ec1\u4f1a\u5927\u5206\u4e0b\u90e1\u75c5\u9662", "type": "hospital", "is_24h": false}, {"lat": 33.9979, "lon": 131.1773, "name": "\u5c71\u967d\u5c0f\u91ce\u7530\u5e02\u6c11\u75c5\u9662", "type": "hospital", "is_24h": false}, {"lat": 33.96, "lon": 131.2496, "name": "\u5c71\u53e3\u5927\u5b66\u533b\u5b66\u90e8\u9644\u5c5e\u75c5\u9662", "type": "hospital", "is_24h": false}, {"lat": 33.2797, "lon": 131.4925, "name": "\u533b\u7642\u6cd5\u4eba\u8ca1\u56e3\u91ce\u53e3\u8a18\u5ff5\u75c5\u9662", "type": "hospital", "is_24h": false}, {"lat": 33.3316, "lon": 131.4868, "name": "\u56fd\u7acb\u75c5\u9662\u6a5f\u69cb\u5225\u5e9c\u533b\u7642\u30bb\u30f3\u30bf\u30fc", "type": "hospital", "is_24h": false}, {"lat": 33.2759, "lon": 131.501, "name": "\u4e2d\u6751\u75c5\u9662", "type": "hospital", "is_24h": false}, {"lat": 33.2747, "lon": 131.5047, "name": "\u6751\u6a4b\u75c5\u9662", "type": "hospital", "is_24h": false}, {"lat": 33.2735, "lon": 131.5029, "name": "\u535a\u6148\u4f1a\u5185\u7530\u75c5\u9662", "type": "hospital", "is_24h": true}, {"lat": 33.2695, "lon": 131.5104, "name": "\u6d5c\u8107\u8a18\u5ff5\u75c5\u9662", "type": "hospital", "is_24h": false}, {"lat": 33.5634, "lon": 131.7324, "name": "aed", "type": "aed", "is_24h": false}, {"lat": 33.5027, "lon": 131.7195, "name": "aed", "type": "aed", "is_24h": false}, {"lat": 33.5653, "lon": 131.7337, "name": "aed", "type": "aed", "is_24h": false}, {"lat": 33.4666, "lon": 131.6928, "name": "aed", "type": "aed", "is_24h": false}, {"lat": 33.5021, "lon": 131.7215, "name": "aed", "type": "aed", "is_24h": false}, {"lat": 33.522, "lon": 131.6849, "name": "aed", "type": "aed", "is_24h": false}, {"lat": 33.6772, "lon": 131.5913, "name": "aed", "type": "aed", "is_24h": false}, {"lat": 33.5626, "lon": 131.7318, "name": "aed", "type": "aed", "is_24h": false}, {"lat": 33.5626, "lon": 131.7318, "name": "aed", "type": "aed", "is_24h": false}, {"lat": 33.6797, "lon": 131.5964, "name": "aed", "type": "aed", "is_24h": false}, {"lat": 33.5758, "lon": 131.7291, "name": "aed", "type": "aed", "is_24h": false}, {"lat": 33.5071, "lon": 131.7099, "name": "aed", "type": "aed", "is_24h": false}, {"lat": 33.465, "lon": 131.6945, "name": "aed", "type": "aed", "is_24h": false}, {"lat": 33.6708, "lon": 131.5647, "name": "aed", "type": "aed", "is_24h": false}, {"lat": 33.6676, "lon": 131.5901, "name": "aed", "type": "aed", "is_24h": false}, {"lat": 33.6603, "lon": 131.6491, "name": "aed", "type": "aed", "is_24h": false}, {"lat": 33.6084, "lon": 131.7011, "name": "aed", "type": "aed", "is_24h": false}, {"lat": 33.5623, "lon": 131.7292, "name": "aed", "type": "aed", "is_24h": false}, {"lat": 33.5502, "lon": 131.7221, "name": "aed", "type": "aed", "is_24h": false}, {"lat": 33.5294, "lon": 131.7225, "name": "aed", "type": "aed", "is_24h": false}, {"lat": 33.467, "lon": 131.7203, "name": "aed", "type": "aed", "is_24h": false}, {"lat": 33.4641, "lon": 131.6947, "name": "aed", "type": "aed", "is_24h": false}, {"lat": 33.6712, "lon": 131.5649, "name": "aed", "type": "aed", "is_24h": false}, {"lat": 33.6605, "lon": 131.6489, "name": "aed", "type": "aed", "is_24h": false}, {"lat": 33.5664, "lon": 131.7032, "name": "aed", "type": "aed", "is_24h": false}, {"lat": 33.5225, "lon": 131.6853, "name": "aed", "type": "aed", "is_24h": false}, {"lat": 33.4678, "lon": 131.7211, "name": "aed", "type": "aed", "is_24h": false}, {"lat": 33.6785, "lon": 131.5944, "name": "aed", "type": "aed", "is_24h": false}, {"lat": 33.5013, "lon": 131.7201, "name": "aed", "type": "aed", "is_24h": false}, {"lat": 33.4666, "lon": 131.6928, "name": "aed", "type": "aed", "is_24h": false}, {"lat": 33.5208, "lon": 131.6843, "name": "aed", "type": "aed", "is_24h": false}, {"lat": 33.5288, "lon": 131.7267, "name": "aed", "type": "aed", "is_24h": false}, {"lat": 33.5626, "lon": 131.7318, "name": "aed", "type": "aed", "is_24h": false}, {"lat": 33.565, "lon": 131.7147, "name": "aed", "type": "aed", "is_24h": false}, {"lat": 33.6793, "lon": 131.6045, "name": "aed", "type": "aed", "is_24h": false}, {"lat": 33.5915, "lon": 131.721, "name": "aed", "type": "aed", "is_24h": false}, {"lat": 33.5067, "lon": 131.7176, "name": "aed", "type": "aed", "is_24h": false}, {"lat": 33.4726, "lon": 131.73, "name": "aed", "type": "aed", "is_24h": false}, {"lat": 33.471, "lon": 131.7294, "name": "aed", "type": "aed", "is_24h": false}, {"lat": 33.5456, "lon": 131.7396, "name": "aed", "type": "aed", "is_24h": false}, {"lat": 33.5456, "lon": 131.74, "name": "aed", "type": "aed", "is_24h": false}, {"lat": 33.6057, "lon": 131.5806, "name": "aed", "type": "aed", "is_24h": false}, {"lat": 33.6066, "lon": 131.5857, "name": "aed", "type": "aed", "is_24h": false}, {"lat": 33.5369, "lon": 131.7376, "name": "aed", "type": "aed", "is_24h": false}, {"lat": 33.5194, "lon": 131.6195, "name": "aed", "type": "aed", "is_24h": false}, {"lat": 33.4685, "lon": 131.7204, "name": "aed", "type": "aed", "is_24h": false}, {"lat": 33.5781, "lon": 131.7313, "name": "aed", "type": "aed", "is_24h": false}, {"lat": 33.5747, "lon": 131.6751, "name": "aed", "type": "aed", "is_24h": false}, {"lat": 33.6653, "lon": 131.6248, "name": "aed", "type": "aed", "is_24h": false}, {"lat": 33.4763, "lon": 131.7326, "name": "aed", "type": "aed", "is_24h": false}, {"lat": 33.2381, "lon": 131.6126, "name": "aed", "type": "aed", "is_24h": false}, {"lat": 33.2374, "lon": 131.612, "name": "aed", "type": "aed", "is_24h": false}, {"lat": 33.2378, "lon": 131.611, "name": "aed", "type": "aed", "is_24h": false}, {"lat": 33.1905, "lon": 131.5878, "name": "aed", "type": "aed", "is_24h": false}, {"lat": 33.1605, "lon": 131.641, "name": "aed", "type": "aed", "is_24h": false}, {"lat": 33.1678, "lon": 131.6421, "name": "aed", "type": "aed", "is_24h": false}, {"lat": 33.2525, "lon": 131.6564, "name": "aed", "type": "aed", "is_24h": false}, {"lat": 33.1258, "lon": 131.6467, "name": "aed", "type": "aed", "is_24h": false}, {"lat": 33.2128, "lon": 131.5819, "name": "aed", "type": "aed", "is_24h": false}, {"lat": 33.1729, "lon": 131.618, "name": "aed", "type": "aed", "is_24h": false}, {"lat": 33.1661, "lon": 131.6097, "name": "aed", "type": "aed", "is_24h": false}, {"lat": 33.1745, "lon": 131.5425, "name": "aed", "type": "aed", "is_24h": false}, {"lat": 33.2234, "lon": 131.6159, "name": "aed", "type": "aed", "is_24h": false}, {"lat": 33.1979, "lon": 131.5939, "name": "aed", "type": "aed", "is_24h": false}, {"lat": 33.2383, "lon": 131.6018, "name": "aed", "type": "aed", "is_24h": false}, {"lat": 33.2391, "lon": 131.602, "name": "aed", "type": "aed", "is_24h": false}, {"lat": 33.1547, "lon": 131.5572, "name": "aed", "type": "aed", "is_24h": false}, {"lat": 33.2007, "lon": 131.6576, "name": "aed", "type": "aed", "is_24h": false}, {"lat": 33.2536, "lon": 131.6243, "name": "aed", "type": "aed", "is_24h": false}, {"lat": 33.2065, "lon": 131.5991, "name": "aed", "type": "aed", "is_24h": false}, {"lat": 33.2393, "lon": 131.5996, "name": "aed", "type": "aed", "is_24h": false}, {"lat": 33.2175, "lon": 131.6554, "name": "aed", "type": "aed", "is_24h": false}, {"lat": 33.2481, "lon": 131.6254, "name": "aed", "type": "aed", "is_24h": false}, {"lat": 33.2489, "lon": 131.6248, "name": "aed", "type": "aed", "is_24h": false}, {"lat": 33.1547, "lon": 131.5572, "name": "aed", "type": "aed", "is_24h": false}, {"lat": 33.1739, "lon": 131.6196, "name": "aed", "type": "aed", "is_24h": false}, {"lat": 33.2238, "lon": 131.6164, "name": "aed", "type": "aed", "is_24h": false}, {"lat": 33.2217, "lon": 131.6114, "name": "aed", "type": "aed", "is_24h": false}, {"lat": 33.2444, "lon": 131.6231, "name": "aed", "type": "aed", "is_24h": false}, {"lat": 33.1925, "lon": 131.5804, "name": "aed", "type": "aed", "is_24h": false}, {"lat": 33.1595, "lon": 131.63, "name": "aed", "type": "aed", "is_24h": false}, {"lat": 33.2067, "lon": 131.6056, "name": "aed", "type": "aed", "is_24h": false}, {"lat": 33.1971, "lon": 131.6151, "name": "aed", "type": "aed", "is_24h": false}, {"lat": 33.2475, "lon": 131.6284, "name": "aed", "type": "aed", "is_24h": false}, {"lat": 33.2339, "lon": 131.5897, "name": "aed", "type": "aed", "is_24h": false}, {"lat": 33.2249, "lon": 131.6103, "name": "aed", "type": "aed", "is_24h": false}, {"lat": 33.238, "lon": 131.6921, "name": "aed", "type": "aed", "is_24h": false}, {"lat": 33.2227, "lon": 131.6729, "name": "aed", "type": "aed", "is_24h": false}, {"lat": 33.2039, "lon": 131.6484, "name": "aed", "type": "aed", "is_24h": false}, {"lat": 33.2201, "lon": 131.7447, "name": "aed", "type": "aed", "is_24h": false},