[{"lat": 32.9386, "lon": 131.109, "name": "2.0", "type": "police_station", "is_24h": true}, {"lat": 32.8187, "lon": 131.1132, "name": "2.0", "type": "police_station", "is_24h": true}, {"lat": 32.9701, "lon": 131.0486, "name": "4.0", "type": "police_station", "is_24h": true}, {"lat": 32.9614, "lon": 131.2025, "name": "5.0", "type": "police_station", "is_24h": true}, {"lat": 32.9346, "lon": 131.0717, "name": "5.0", "type": "police_station", "is_24h": true}, {"lat": 32.9958, "lon": 131.2118, "name": "5.0", "type": "police_station", "is_24h": true}, {"lat": 32.8306, "lon": 131.2629, "name": "5.0", "type": "police_station", "is_24h": true}, {"lat": 32.8248, "lon": 131.0239, "name": "5.0", "type": "police_station", "is_24h": true}, {"lat": 32.8243, "lon": 131.0802, "name": "5.0", "type": "police_station", "is_24h": true}, {"lat": 32.7292, "lon": 131.0019, "name": "5.0", "type": "police_station", "is_24h": true}, {"lat": 32.6917, "lon": 131.0927, "name": "5.0", "type": "police_station", "is_24h": true}, {"lat": 32.6823, "lon": 131.1552, "name": "5.0", "type": "police_station", "is_24h": true}, {"lat": 32.3134, "lon": 131.0079, "name": "5.0", "type": "police_station", "is_24h": true}, {"lat": 32.8804, "lon": 131.0739, "name": "6.0", "type": "police_station", "is_24h": true}, {"lat": 32.9656, "lon": 131.8798, "name": "2.0", "type": "police_station", "is_24h": true}, {"lat": 32.9612, "lon": 131.3826, "name": "2.0", "type": "police_station", "is_24h": true}, {"lat": 32.9771, "lon": 131.5881, "name": "2.0", "type": "police_station", "is_24h": true}, {"lat": 32.9709, "lon": 131.3907, "name": "4.0", "type": "police_station", "is_24h": true}, {"lat": 32.7987, "lon": 131.9248, "name": "5.0", "type": "police_station", "is_24h": true}, {"lat": 32.9316, "lon": 131.8764, "name": "5.0", "type": "police_station", "is_24h": true}, {"lat": 32.8513, "lon": 131.6917, "name": "5.0", "type": "police_station", "is_24h": true}, {"lat": 32.8571, "lon": 131.6303, "name": "5.0", "type": "police_station", "is_24h": true}, {"lat": 32.8613, "lon": 131.9486, "name": "5.0", "type": "police_station", "is_24h": true}, {"lat": 32.9981, "lon": 131.923, "name": "5.0", "type": "police_station", "is_24h": true}, {"lat": 32.897, "lon": 131.7792, "name": "5.0", "type": "police_station", "is_24h": true}, {"lat": 32.9475, "lon": 131.9577, "name": "5.0", "type": "police_station", "is_24h": true}, {"lat": 32.9217, "lon": 131.9749, "name": "5.0", "type": "police_station", "is_24h": true}, {"lat": 32.9513, "lon": 131.7891, "name": "5.0", "type": "police_station", "is_24h": true}, {"lat": 32.7938, "lon": 131.8749, "name": "5.0", "type": "police_station", "is_24h": true}, {"lat": 32.9189, "lon": 131.9276, "name": "5.0", "type": "police_station", "is_24h": true}, {"lat": 32.9525, "lon": 131.8381, "name": "5.0", "type": "police_station", "is_24h": true}, {"lat": 32.9792, "lon": 131.848, "name": "5.0", "type": "police_station", "is_24h": true}, {"lat": 32.9233, "lon": 131.298, "name": "5.0", "type": "police_station", "is_24h": true}, {"lat": 32.9865, "lon": 131.3081, "name": "5.0", "type": "police_station", "is_24h": true}, {"lat": 32.8939, "lon": 131.3288, "name": "5.0", "type": "police_station", "is_24h": true}, {"lat": 32.9562, "lon": 131.2857, "name": "5.0", "type": "police_station", "is_24h": true}, {"lat": 32.9863, "lon": 131.3402, "name": "5.0", "type": "police_station", "is_24h": true}, {"lat": 32.975, "lon": 131.468, "name": "5.0", "type": "police_station", "is_24h": true}, {"lat": 32.9231, "lon": 131.4413, "name": "5.0", "type": "police_station", "is_24h": true}, {"lat": 32.969, "lon": 131.5173, "name": "5.0", "type": "police_station", "is_24h": true}, {"lat": 32.9647, "lon": 131.9044, "name": "4.0", "type": "police_station", "is_24h": true}, {"lat": 32.9771, "lon": 131.5882, "name": "6.0", "type": "police_station", "is_24h": true}, {"lat": 32.5667, "lon": 131.6701, "name": "2.0", "type": "police_station", "is_24h": true}, {"lat": 32.4227, "lon": 131.6269, "name": "2.0", "type": "police_station", "is_24h": true}, {"lat": 32.1046, "lon": 131.4059, "name": "2.0", "type": "police_station", "is_24h": true}, {"lat": 32.1363, "lon": 131.5269, "name": "2.0", "type": "police_station", "is_24h": true}, {"lat": 32.7118, "lon": 131.3058, "name": "2.0", "type": "police_station", "is_24h": true}, {"lat": 32.0254, "lon": 131.4752, "name": "4.0", "type": "police_station", "is_24h": true}, {"lat": 32.5247, "lon": 131.679, "name": "4.0", "type": "police_station", "is_24h": true}, {"lat": 32.5893, "lon": 131.6723, "name": "4.0", "type": "police_station", "is_24h": true}, {"lat": 32.5753, "lon": 131.6676, "name": "4.0", "type": "police_station", "is_24h": true}, {"lat": 32.5887, "lon": 131.6765, "name": "4.0", "type": "police_station", "is_24h": true}, {"lat": 32.5717, "lon": 131.642, "name": "4.0", "type": "police_station", "is_24h": true}, {"lat": 32.5524, "lon": 131.6772, "name": "4.0", "type": "police_station", "is_24h": true}, {"lat": 32.6105, "lon": 131.683, "name": "4.0", "type": "police_station", "is_24h": true}, {"lat": 32.4355, "lon": 131.6353, "name": "4.0", "type": "police_station", "is_24h": true}, {"lat": 32.4217, "lon": 131.6482, "name": "4.0", "type": "police_station", "is_24h": true}, {"lat": 32.407, "lon": 131.6227, "name": "4.0", "type": "police_station", "is_24h": true}, {"lat": 32.4264, "lon": 131.6276, "name": "4.0", "type": "police_station", "is_24h": true}, {"lat": 32.1097, "lon": 131.4085, "name": "4.0", "type": "police_station", "is_24h": true}, {"lat": 32.131, "lon": 131.5106, "name": "4.0", "type": "police_station", "is_24h": true}, {"lat": 32.0648, "lon": 131.4866, "name": "4.0", "type": "police_station", "is_24h": true}, {"lat": 32.1875, "lon": 131.5265, "name": "4.0", "type": "police_station", "is_24h": true}, {"lat": 32.2551, "lon": 131.5587, "name": "4.0", "type": "police_station", "is_24h": true}, {"lat": 32.4731, "lon": 131.652, "name": "4.0", "type": "police_station", "is_24h": true}, {"lat": 32.7096, "lon": 131.3082, "name": "4.0", "type": "police_station", "is_24h": true}, {"lat": 32.0446, "lon": 131.4261, "name": "5.0", "type": "police_station", "is_24h": true}, {"lat": 32.0301, "lon": 131.4293, "name": "5.0", "type": "police_station", "is_24h": true}, {"lat": 32.5742, "lon": 131.5877, "name": "5.0", "type": "police_station", "is_24h": true}, {"lat": 32.5732, "lon": 131.541, "name": "5.0", "type": "police_station", "is_24h": true}, {"lat": 32.5078, "lon": 131.6772, "name": "5.0", "type": "police_station", "is_24h": true}, {"lat": 32.6662, "lon": 131.8155, "name": "5.0", "type": "police_station", "is_24h": true}, {"lat": 32.6152, "lon": 131.7046, "name": "5.0", "type": "police_station", "is_24h": true}, {"lat": 32.583, "lon": 131.6346, "name": "5.0", "type": "police_station", "is_24h": true}, {"lat": 32.707, "lon": 131.821, "name": "5.0", "type": "police_station", "is_24h": true}, {"lat": 32.5617, "lon": 131.5248, "name": "5.0", "type": "police_station", "is_24h": true}, {"lat": 32.5505, "lon": 131.6822, "name": "5.0", "type": "police_station", "is_24h": true}, {"lat": 32.0691, "lon": 131.0766, "name": "5.0", "type": "police_station", "is_24h": true}, {"lat": 32.0121, "lon": 131.0082, "name": "5.0", "type": "police_station", "is_24h": true}, {"lat": 32.4145, "lon": 131.6043, "name": "5.0", "type": "police_station", "is_24h": true}, {"lat": 32.4247, "lon": 131.6581, "name": "5.0", "type": "police_station", "is_24h": true}, {"lat": 32.3613, "lon": 131.4582, "name": "5.0", "type": "police_station", "is_24h": true}, {"lat": 32.3925, "lon": 131.5321, "name": "5.0", "type": "police_station", "is_24h": true}, {"lat": 32.3311, "lon": 131.6084, "name": "5.0", "type": "police_station", "is_24h": true}, {"lat": 32.3683, "lon": 131.6248, "name": "5.0", "type": "police_station", "is_24h": true}, {"lat": 32.0907, "lon": 131.4104, "name": "5.0", "type": "police_station", "is_24h": true}, {"lat": 32.0614, "lon": 131.3584, "name": "5.0", "type": "police_station", "is_24h": true}, {"lat": 32.2658, "lon": 131.2527, "name": "5.0", "type": "police_station", "is_24h": true}, {"lat": 32.1128, "lon": 131.3522, "name": "5.0", "type": "police_station", "is_24h": true}, {"lat": 32.0751, "lon": 131.3176, "name": "5.0", "type": "police_station", "is_24h": true}, {"lat": 32.0575, "lon": 131.3813, "name": "5.0", "type": "police_station", "is_24h": true}, {"lat": 32.1307, "lon": 131.3951, "name": "5.0", "type": "police_station", "is_24h": true}, {"lat": 32.0275, "lon": 131.306, "name": "5.0", "type": "police_station", "is_24h": true}, {"lat": 32.0422, "lon": 131.3194, "name": "5.0", "type": "police_station", "is_24h": true}, {"lat": 32.1021, "lon": 131.4456, "name": "5.0", "type": "police_station", "is_24h": true}, {"lat": 32.0746, "lon": 131.4372, "name": "5.0", "type": "police_station", "is_24h": true}, {"lat": 32.2288, "lon": 131.1526, "name": "5.0", "type": "police_station", "is_24h": true}, {"lat": 32.161, "lon": 131.4697, "name": "5.0", "type": "police_station", "is_24h": true}, {"lat": 32.1953, "lon": 131.5533, "name": "5.0", "type": "police_station", "is_24h": true}, {"lat": 32.2203, "lon": 131.5414, "name": "5.0", "type": "police_station", "is_24h": true}, {"lat": 32.1835, "lon": 131.485, "name": "5.0", "type": "police_station", "is_24h": true}, {"lat": 32.4906, "lon": 131.5789, "name": "5.0", "type": "police_station", "is_24h": true}, {"lat": 32.6871, "lon": 131.6927, "name": "5.0", "type": "police_station", "is_24h": true}, {"lat": 32.5116, "lon": 131.3303, "name": "5.0", "type": "police_station", "is_24h": true}, {"lat": 32.4662, "lon": 131.1565, "name": "5.0", "type": "police_station", "is_24h": true}, {"lat": 32.4398, "lon": 131.4226, "name": "5.0", "type": "police_station", "is_24h": true}, {"lat": 32.3859, "lon": 131.3314, "name": "5.0", "type": "police_station", "is_24h": true}, {"lat": 32.5012, "lon": 131.4443, "name": "5.0", "type": "police_station", "is_24h": true}, {"lat": 32.7771, "lon": 131.2561, "name": "5.0", "type": "police_station", "is_24h": true}, {"lat": 32.7295, "lon": 131.3479, "name": "5.0", "type": "police_station", "is_24h": true}, {"lat": 32.752, "lon": 131.2972, "name": "5.0", "type": "police_station", "is_24h": true}, {"lat": 32.6913, "lon": 131.3262, "name": "5.0", "type": "police_station", "is_24h": true}, {"lat": 32.6546, "lon": 131.3854, "name": "5.0", "type": "police_station", "is_24h": true}, {"lat": 32.6199, "lon": 131.4315, "name": "5.0", "type": "police_station", "is_24h": true}, {"lat": 32.646, "lon": 131.1619, "name": "5.0", "type": "police_station", "is_24h": true}, {"lat": 32.682, "lon": 131.2013, "name": "5.0", "type": "police_station", "is_24h": true}, {"lat": 32.5818, "lon": 131.6718, "name": "4.0", "type": "police_station", "is_24h": true}, {"lat": 32.3134, "lon": 131.0079, "name": "\u591a\u826f\u6728\u8b66\u5bdf\u7f72\u6c34\u4e0a\u99d0\u5728\u6240", "type": "police_station", "is_24h": true}, {"lat": 32.7292, "lon": 131.0019, "name": "\u5c71\u90fd\u8b66\u5bdf\u7f72\u4e0b\u540d\u9023\u77f3\u99d0\u5728\u6240", "type": "police_station", "is_24h": true}, {"lat": 32.6917, "lon": 131.0927, "name": "\u5c71\u90fd\u8b66\u5bdf\u7f72\u6e05\u548c\u99d0\u5728\u6240", "type": "police_station", "is_24h": true}, {"lat": 32.6823, "lon": 131.1552, "name": "\u5c71\u90fd\u8b66\u5bdf\u7f72\u99ac\u898b\u539f\u99d0\u5728\u6240", "type": "police_station", "is_24h": true}, {"lat": 32.9701, "lon": 131.0486, "name": "\u963f\u8607\u8b66\u5bdf\u7f72\u5185\u7267\u4ea4\u756a", "type": "koban", "is_24h": true}, {"lat": 32.9346, "lon": 131.0717, "name": "\u963f\u8607\u8b66\u5bdf\u7f72\u574a\u4e2d\u99d0\u5728\u6240", "type": "police_station", "is_24h": true}, {"lat": 32.957, "lon": 131.2169, "name": "\u963f\u8607\u8b66\u5bdf\u7f72\u6ce2\u91ce\u99d0\u5728\u6240", "type": "police_station", "is_24h": true}, {"lat": 32.9958, "lon": 131.2118, "name": "\u963f\u8607\u8b66\u5bdf\u7f72\u7523\u5c71\u99d0\u5728\u6240", "type": "police_station", "is_24h": true}, {"lat": 32.8248, "lon": 131.0239, "name": "\u9ad8\u68ee\u8b66\u5bdf\u7f72\u4e45\u6728\u91ce\u99d0\u5728\u6240", "type": "police_station", "is_24h": true}, {"lat": 32.8243, "lon": 131.0802, "name": "\u9ad8\u68ee\u8b66\u5bdf\u7f72\u767d\u6c34\u99d0\u5728\u6240", "type": "police_station", "is_24h": true}, {"lat": 32.8306, "lon": 131.2629, "name": "\u9ad8\u68ee\u8b66\u5bdf\u7f72\u91ce\u5c3b\u99d0\u5728\u6240", "type": "police_station", "is_24h": true}, {"lat": 32.8613, "lon": 131.9486, "name": "\u4f50\u4f2f\u8b66\u5bdf\u7f72\u4e0a\u5165\u6d25\u99d0\u5728\u6240", "type": "police_station", "is_24h": true}, {"lat": 32.7938, "lon": 131.8749, "name": "\u4f50\u4f2f\u8b66\u5bdf\u7f72\u540d\u8b77\u5c4b\u99d0\u5728\u6240", "type": "police_station", "is_24h": true}, {"lat": 32.9316, "lon": 131.8764, "name": "\u4f50\u4f2f\u8b66\u5bdf\u7f72\u5805\u7530\u99d0\u5728\u6240", "type": "police_station", "is_24h": true}, {"lat": 32.9877, "lon": 131.9128, "name": "\u4f50\u4f2f\u8b66\u5bdf\u7f72\u5927\u5165\u5cf6\u99d0\u5728\u6240", "type": "police_station", "is_24h": true}, {"lat": 32.8568, "lon": 131.6306, "name": "\u4f50\u4f2f\u8b66\u5bdf\u7f72\u5c0f\u91ce\u5e02\u99d0\u5728\u6240", "type": "police_station", "is_24h": true}, {"lat": 32.9792, "lon": 131.848, "name": "\u4f50\u4f2f\u8b66\u5bdf\u7f72\u5f25\u751f\u5317\u8b66\u5bdf\u5b98\u99d0\u5728\u6240", "type": "police_station", "is_24h": true}, {"lat": 32.9525, "lon": 131.8381, "name": "\u4f50\u4f2f\u8b66\u5bdf\u7f72\u5f25\u751f\u5357\u99d0\u5728\u6240", "type": "police_station", "is_24h": true}, {"lat": 32.9189, "lon": 131.9276, "name": "\u4f50\u4f2f\u8b66\u5bdf\u7f72\u6728\u7acb\u99d0\u5728\u6240", "type": "police_station", "is_24h": true}, {"lat": 32.9513, "lon": 131.7891, "name": "\u4f50\u4f2f\u8b66\u5bdf\u7f72\u672c\u5320\u99d0\u5728\u6240", "type": "police_station", "is_24h": true}, {"lat": 32.897, "lon": 131.7792, "name": "\u4f50\u4f2f\u8b66\u5bdf\u7f72\u76f4\u5ddd\u99d0\u5728\u6240", "type": "police_station", "is_24h": true}, {"lat": 32.9217, "lon": 131.9749, "name": "\u4f50\u4f2f\u8b66\u5bdf\u7f72\u7c73\u6c34\u6d25\u99d0\u5728\u6240", "type": "police_station", "is_24h": true}, {"lat": 32.7986, "lon": 131.925, "name": "\u4f50\u4f2f\u8b66\u5bdf\u7f72\u84b2\u6c5f\u99d0\u5728\u6240", "type": "police_station", "is_24h": true}, {"lat": 32.8513, "lon": 131.6917, "name": "\u4f50\u4f2f\u8b66\u5bdf\u7f72\u91cd\u5ca1\u99d0\u5728\u6240", "type": "police_station", "is_24h": true}, {"lat": 32.9458, "lon": 131.9625, "name": "\u4f50\u4f2f\u8b66\u5bdf\u7f72\u9db4\u898b\u99d0\u5728\u6240", "type": "police_station", "is_24h": true}, {"lat": 32.579, "lon": 131.6607, "name": "\u5bae\u5d0e\u5211\u52d9\u6240\u5ef6\u5ca1\u62d8\u7f6e\u652f\u6240", "type": "police_station", "is_24h": true}, {"lat": 32.0254, "lon": 131.4752, "name": "\u5bae\u5d0e\u5317\u8b66\u5bdf\u7f72\u4f50\u571f\u539f\u753a\u4ea4\u756a", "type": "koban", "is_24h": true}, {"lat": 32.0446, "lon": 131.4261, "name": "\u5bae\u5d0e\u5317\u8b66\u5bdf\u7f72\u897f\u4f50\u571f\u539f\u99d0\u5728\u6240", "type": "police_station", "is_24h": true}, {"lat": 32.0301, "lon": 131.4293, "name": "\u5bae\u5d0e\u5317\u8b66\u5bdf\u7f72\u90a3\u73c2\u99d0\u5728\u6240", "type": "police_station", "is_24h": true}, {"lat": 32.0121, "lon": 131.0082, "name": "\u5c0f\u6797\u8b66\u5bdf\u7f72\u6771\u65b9\u99d0\u5728\u6240", "type": "police_station", "is_24h": true}, {"lat": 32.0691, "lon": 131.0766, "name": "\u5c0f\u6797\u8b66\u5bdf\u7f72\u9808\u6728\u99d0\u5728\u6240", "type": "police_station", "is_24h": true}, {"lat": 32.5669, "lon": 131.6702, "name": "\u5ef6\u5ca1\u8b66\u5bdf\u7f72", "type": "police_station", "is_24h": true}, {"lat": 32.5247, "lon": 131.679, "name": "\u5ef6\u5ca1\u8b66\u5bdf\u7f72\u4e00\u30f6\u5ca1\u4ea4\u756a", "type": "koban", "is_24h": true}, {"lat": 32.7622, "lon": 131.7928, "name": "\u5ef6\u5ca1\u8b66\u5bdf\u7f72\u4e09\u5ddd\u5185\u99d0\u5728\u6240", "type": "police_station", "is_24h": true}, {"lat": 32.5742, "lon": 131.5877, "name": "\u5ef6\u5ca1\u8b66\u5bdf\u7f72\u4e0a\u5357\u65b9\u99d0\u5728\u6240", "type": "police_station", "is_24h": true}, {"lat": 32.6881, "lon": 131.6934, "name": "\u5ef6\u5ca1\u8b66\u5bdf\u7f72\u5317\u5ddd\u99d0\u5728\u6240", "type": "police_station", "is_24h": true}, {"lat": 32.5617, "lon": 131.5248, "name": "\u5ef6\u5ca1\u8b66\u5bdf\u7f72\u5317\u65b9\u99d0\u5728\u6240", "type": "police_station", "is_24h": true}, {"lat": 32.707, "lon": 131.821, "name": "\u5ef6\u5ca1\u8b66\u5bdf\u7f72\u5317\u6d66\u99d0\u5728\u6240", "type": "police_station", "is_24h": true}, {"lat": 32.5523, "lon": 131.6771, "name": "\u5ef6\u5ca1\u8b66\u5bdf\u7f72\u5357\u5ef6\u5ca1\u99c5\u524d\u4ea4\u756a", "type": "koban", "is_24h": true}, {"lat": 32.583, "lon": 131.6346, "name": "\u5ef6\u5ca1\u8b66\u5bdf\u7f72\u5357\u65b9\u99d0\u5728\u6240", "type": "police_station", "is_24h": true}, {"lat": 32.6105, "lon": 131.683, "name": "\u5ef6\u5ca1\u8b66\u5bdf\u7f72\u548c\u7530\u8d8a\u4ea4\u756a", "type": "koban", "is_24h": true}, {"lat": 32.5077, "lon": 131.6772, "name": "\u5ef6\u5ca1\u8b66\u5bdf\u7f72\u571f\u3005\u5442\u99d0\u5728\u6240", "type": "police_station", "is_24h": true}, {"lat": 32.6663, "lon": 131.8155, "name": "\u5ef6\u5ca1\u8b66\u5bdf\u7f72\u5cf6\u6d66\u99d0\u5728\u6240", "type": "police_station", "is_24h": true}, {"lat": 32.5892, "lon": 131.6721, "name": "\u5ef6\u5ca1\u8b66\u5bdf\u7f72\u5ef6\u5ca1\u99c5\u4ea4\u756a", "type": "koban", "is_24h": true}, {"lat": 32.5753, "lon": 131.6676, "name": "\u5ef6\u5ca1\u8b66\u5bdf\u7f72\u6052\u5bcc\u4ea4\u756a", "type": "koban", "is_24h": true}, {"lat": 32.5887, "lon": 131.6765, "name": "\u5ef6\u5ca1\u8b66\u5bdf\u7f72\u662d\u548c\u753a\u4ea4\u756a", "type": "koban", "is_24h": true}, {"lat": 32.5732, "lon": 131.541, "name": "\u5ef6\u5ca1\u8b66\u5bdf\u7f72\u66fd\u6728\u99d0\u5728\u6240", "type": "police_station", "is_24h": true}, {"lat": 32.6152, "lon": 131.7046, "name": "\u5ef6\u5ca1\u8b66\u5bdf\u7f72\u6771\u6d77\u99d0\u5728\u6240", "type": "police_station", "is_24h": true}, {"lat": 32.5505, "lon": 131.6822, "name": "\u5ef6\u5ca1\u8b66\u5bdf\u7f72\u7dd1\u30f6\u4e18\u99d0\u5728\u6240", "type": "police_station", "is_24h": true}, {"lat": 32.5717, "lon": 131.642, "name": "\u5ef6\u5ca1\u8b66\u5bdf\u7f72\u897f\u968e\u4ea4\u756a", "type": "koban", "is_24h": true}, {"lat": 32.4355, "lon": 131.6353, "name": "\u65e5\u5411\u8b66\u5bdf\u7f72\u4e80\u5d0e\u4ea4\u756a", "type": "koban", "is_24h": true}, {"lat": 32.5012, "lon": 131.4443, "name": "\u65e5\u5411\u8b66\u5bdf\u7f72\u5317\u90f7\u99d0\u5728\u6240", "type": "police_station", "is_24h": true}, {"lat": 32.3859, "lon": 131.3314, "name": "\u65e5\u5411\u8b66\u5bdf\u7f72\u5357\u90f7\u99d0\u5728\u6240", "type": "police_station", "is_24h": true}, {"lat": 32.3613, "lon": 131.4582, "name": "\u65e5\u5411\u8b66\u5bdf\u7f72\u576a\u8c37\u99d0\u5728\u6240", "type": "police_station", "is_24h": true}, {"lat": 32.4145, "lon": 131.6043, "name": "\u65e5\u5411\u8b66\u5bdf\u7f72\u5869\u898b\u99d0\u5728\u6240", "type": "police_station", "is_24h": true}, {"lat": 32.3683, "lon": 131.6248, "name": "\u65e5\u5411\u8b66\u5bdf\u7f72\u5e73\u5ca9\u99d0\u5728\u6240", "type": "police_station", "is_24h": true}, {"lat": 32.3925, "lon": 131.5321, "name": "\u65e5\u5411\u8b66\u5bdf\u7f72\u6771\u90f7\u99d0\u5728\u6240", "type": "police_station", "is_24h": true}, {"lat": 32.489, "lon": 131.2419, "name": "\u65e5\u5411\u8b66\u5bdf\u7f72\u677e\u5c3e\u99d0\u5728\u6240", "type": "police_station", "is_24h": true}, {"lat": 32.4247, "lon": 131.6581, "name": "\u65e5\u5411\u8b66\u5bdf\u7f72\u7d30\u5cf6\u99d0\u5728\u6240", "type": "police_station", "is_24h": true}, {"lat": 32.3311, "lon": 131.6084, "name": "\u65e5\u5411\u8b66\u5bdf\u7f72\u7f8e\u3005\u6d25\u99d0\u5728\u6240", "type": "police_station", "is_24h": true}, {"lat": 32.4398, "lon": 131.4226, "name": "\u65e5\u5411\u8b66\u5bdf\u7f72\u897f\u90f7\u99d0\u5728\u6240", "type": "police_station", "is_24h": true}, {"lat": 32.4906, "lon": 131.5789, "name": "\u65e5\u5411\u8b66\u5bdf\u7f72\u897f\u9580\u5ddd\u99d0\u5728\u6240", "type": "police_station", "is_24h": true}, {"lat": 32.5116, "lon": 131.3303, "name": "\u65e5\u5411\u8b66\u5bdf\u7f72\u8af8\u585a\u99d0\u5728\u6240", "type": "police_station", "is_24h": true}, {"lat": 32.407, "lon": 131.6227, "name": "\u65e5\u5411\u8b66\u5bdf\u7f72\u8ca1\u5149\u5bfa\u4ea4\u756a", "type": "koban", "is_24h": true}, {"lat": 32.4731, "lon": 131.652, "name": "\u65e5\u5411\u8b66\u5bdf\u7f72\u9580\u5ddd\u4ea4\u756a", "type": "koban", "is_24h": true}, {"lat": 32.9609, "lon": 131.3823, "name": "\u7af9\u7530\u8b66\u5bdf\u7f72", "type": "police_station", "is_24h": true}, {"lat": 32.9562, "lon": 131.2857, "name": "\u7af9\u7530\u8b66\u5bdf\u7f72\u4e03\u30c4\u68ee\u99d0\u5728\u6240", "type": "police_station", "is_24h": true}, {"lat": 32.9863, "lon": 131.3402, "name": "\u7af9\u7530\u8b66\u5bdf\u7f72\u57ce\u539f\u99d0\u5728\u6240", "type": "police_station", "is_24h": true}, {"lat": 32.9865, "lon": 131.3081, "name": "\u7af9\u7530\u8b66\u5bdf\u7f72\u5bae\u57ce\u99d0\u5728\u6240", "type": "police_station", "is_24h": true}, {"lat": 32.8939, "lon": 131.3288, "name": "\u7af9\u7530\u8b66\u5bdf\u7f72\u5bae\u7825\u99d0\u5728\u6240", "type": "police_station", "is_24h": true}, {"lat": 32.9709, "lon": 131.3907, "name": "\u7af9\u7530\u8b66\u5bdf\u7f72\u7af9\u7530\u99c5\u524d\u4ea4\u756a", "type": "koban", "is_24h": true}, {"lat": 32.9233, "lon": 131.298, "name": "\u7af9\u7530\u8b66\u5bdf\u7f72\u837b\u99d0\u5728\u6240", "type": "police_station", "is_24h": true}, {"lat": 32.1047, "lon": 131.4058, "name": "\u897f\u90fd\u8b66\u5bdf\u7f72", "type": "police_station", "is_24h": true}, {"lat": 32.1128, "lon": 131.3522, "name": "\u897f\u90fd\u8b66\u5bdf\u7f72\u4e09\u7d0d\u99d0\u5728\u6240", "type": "police_station", "is_24h": true}, {"lat": 32.0751, "lon": 131.3176, "name": "\u897f\u90fd\u8b66\u5bdf\u7f72\u4e0a\u4e09\u8ca1\u99d0\u5728\u6240", "type": "police_station", "is_24h": true}, {"lat": 32.0614, "lon": 131.3584, "name": "\u897f\u90fd\u8b66\u5bdf\u7f72\u4e0b\u4e09\u8ca1\u99d0\u5728\u6240", "type": "police_station", "is_24h": true}, {"lat": 32.1097, "lon": 131.4085, "name": "\u897f\u90fd\u8b66\u5bdf\u7f72\u59bb\u4ea4\u756a", "type": "koban", "is_24h": true}, {"lat": 32.2288, "lon": 131.1526, "name": "\u897f\u90fd\u8b66\u5bdf\u7f72\u6751\u6240\u99d0\u5728\u6240", "type": "police_station", "is_24h": true}, {"lat": 32.1307, "lon": 131.3951, "name": "\u897f\u90fd\u8b66\u5bdf\u7f72\u7a42\u5317\u99d0\u5728\u6240", "type": "police_station", "is_24h": true}, {"lat": 32.0907, "lon": 131.4104, "name": "\u897f\u90fd\u8b66\u5bdf\u7f72\u8597\u5143\u99d0\u5728\u6240", "type": "police_station", "is_24h": true}, {"lat": 32.1972, "lon": 131.2416, "name": "\u897f\u90fd\u8b66\u5bdf\u7f72\u8d8a\u91ce\u5c3e\u99d0\u5728\u6240", "type": "police_station", "is_24h": true}, {"lat": 32.0575, "lon": 131.3813, "name": "\u897f\u90fd\u8b66\u5bdf\u7f72\u90fd\u65bc\u90e1\u99d0\u5728\u6240", "type": "police_station", "is_24h": true}, {"lat": 32.2658, "lon": 131.2527, "name": "\u897f\u90fd\u8b66\u5bdf\u7f72\u9280\u93e1\u99d0\u5728\u6240", "type": "police_station", "is_24h": true}, {"lat": 32.9771, "lon": 131.5881, "name": "\u8c4a\u5f8c\u5927\u91ce\u8b66\u5bdf\u7f72", "type": "police_station", "is_24h": true}, {"lat": 32.9231, "lon": 131.4413, "name": "\u8c4a\u5f8c\u5927\u91ce\u8b66\u5bdf\u7f72\u4e0a\u7dd2\u65b9\u99d0\u5728\u6240", "type": "police_station", "is_24h": true}, {"lat": 32.969, "lon": 131.5173, "name": "\u8c4a\u5f8c\u5927\u91ce\u8b66\u5bdf\u7f72\u6e05\u5ddd\u99d0\u5728\u6240", "type": "police_station", "is_24h": true}, {"lat": 32.975, "lon": 131.468, "name": "\u8c4a\u5f8c\u5927\u91ce\u8b66\u5bdf\u7f72\u7dd2\u65b9\u5317\u99d0\u5728\u6240", "type": "police_station", "is_24h": true}, {"lat": 32.7115, "lon": 131.3058, "name": "\u9ad8\u5343\u7a42\u8b66\u5bdf\u7f72", "type": "police_station", "is_24h": true}, {"lat": 32.7096, "lon": 131.3082, "name": "\u9ad8\u5343\u7a42\u8b66\u5bdf\u7f72\u4e09\u7530\u4e95\u4ea4\u756a", "type": "koban", "is_24h": true}, {"lat": 32.752, "lon": 131.2972, "name": "\u9ad8\u5343\u7a42\u8b66\u5bdf\u7f72\u4e0a\u91ce\u99d0\u5728\u6240", "type": "police_station", "is_24h": true}, {"lat": 32.6844, "lon": 131.1991, "name": "\u9ad8\u5343\u7a42\u8b66\u5bdf\u7f72\u4e94\u30f6\u702c\u99d0\u5728\u6240", "type": "police_station", "is_24h": true}, {"lat": 32.6199, "lon": 131.4315, "name": "\u9ad8\u5343\u7a42\u8b66\u5bdf\u7f72\u516b\u6238\u99d0\u5728\u6240", "type": "police_station", "is_24h": true}, {"lat": 32.7295, "lon": 131.3479, "name": "\u9ad8\u5343\u7a42\u8b66\u5bdf\u7f72\u5ca9\u6238\u99d0\u5728\u6240", "type": "police_station", "is_24h": true}, {"lat": 32.6546, "lon": 131.3854, "name": "\u9ad8\u5343\u7a42\u8b66\u5bdf\u7f72\u65e5\u4e4b\u5f71\u99d0\u5728\u6240", "type": "police_station", "is_24h": true}, {"lat": 32.7771, "lon": 131.2561, "name": "\u9ad8\u5343\u7a42\u8b66\u5bdf\u7f72\u6cb3\u5185\u99d0\u5728\u6240", "type": "police_station", "is_24h": true}, {"lat": 32.646, "lon": 131.1619, "name": "\u9ad8\u5343\u7a42\u8b66\u5bdf\u7f72\u978d\u5ca1\u99d0\u5728\u6240", "type": "police_station", "is_24h": true}, {"lat": 32.6912, "lon": 131.3264, "name": "\u9ad8\u5343\u7a42\u8b66\u5bdf\u7f72\u9ad8\u677e\u99d0\u5728\u6240", "type": "police_station", "is_24h": true}, {"lat": 32.0275, "lon": 131.306, "name": "\u9ad8\u5ca1\u8b66\u5bdf\u7f72\u516b\u4ee3\u99d0\u5728\u6240", "type": "police_station", "is_24h": true}, {"lat": 32.0422, "lon": 131.3194, "name": "\u9ad8\u5ca1\u8b66\u5bdf\u7f72\u5317\u4fe3\u99d0\u5728\u6240", "type": "police_station", "is_24h": true}, {"lat": 32.1363, "lon": 131.5269, "name": "\u9ad8\u934b\u8b66\u5bdf\u7f72", "type": "police_station", "is_24h": true}, {"lat": 32.1953, "lon": 131.5533, "name": "\u9ad8\u934b\u8b66\u5bdf\u7f72\u4f0a\u5009\u99d0\u5728\u6240", "type": "police_station", "is_24h": true}, {"lat": 32.1835, "lon": 131.485, "name": "\u9ad8\u934b\u8b66\u5bdf\u7f72\u5341\u6587\u5b57\u99d0\u5728\u6240", "type": "police_station", "is_24h": true}, {"lat": 32.2203, "lon": 131.5414, "name": "\u9ad8\u934b\u8b66\u5bdf\u7f72\u5869\u4ed8\u99d0\u5728\u6240", "type": "police_station", "is_24h": true}, {"lat": 32.1915, "lon": 131.5278, "name": "\u9ad8\u934b\u8b66\u5bdf\u7f72\u5ddd\u5357\u4ea4\u756a", "type": "koban", "is_24h": true}, {"lat": 32.2551, "lon": 131.5587, "name": "\u9ad8\u934b\u8b66\u5bdf\u7f72\u90fd\u8fb2\u4ea4\u756a", "type": "koban", "is_24h": true}, {"lat": 32.131, "lon": 131.5106, "name": "\u9ad8\u934b\u8b66\u5bdf\u7f72\u9ad8\u934b\u4ea4\u756a", "type": "koban", "is_24h": true}, {"lat": 32.7332, "lon": 131.3477, "name": "\u5929\u5ca9\u6238\u4ea4\u756a", "type": "koban", "is_24h": true}, {"lat": 32.9406, "lon": 131.0809, "name": "\u963f\u8607\u8b66\u5bdf\u7f72", "type": "police_station", "is_24h": true}, {"lat": 32.9649, "lon": 131.9042, "name": "\u4f50\u4f2f\u4e2d\u592e\u4ea4\u756a", "type": "koban", "is_24h": true}, {"lat": 32.7097, "lon": 131.3083, "name": "police_station", "type": "police_station", "is_24h": true}, {"lat": 32.6594, "lon": 131.3794, "name": "\u9ad8\u5343\u7a42\u8b66\u5bdf\u7f72\u65e5\u4e4b\u5f71\u99d0\u5728\u6240", "type": "police_station", "is_24h": true}, {"lat": 32.0645, "lon": 131.4871, "name": "\u9ad8\u934b\u8b66\u5bdf\u7f72 \u65b0\u5bcc\u4ea4\u756a", "type": "koban", "is_24h": true}, {"lat": 32.102, "lon": 131.4458, "name": "\u9ad8\u934b\u8b66\u5bdf\u7f72 \u4e0a\u65b0\u7530\u99d0\u5728\u6240", "type": "police_station", "is_24h": true}, {"lat": 32.0741, "lon": 131.4372, "name": "\u9ad8\u934b\u8b66\u5bdf\u7f72 \u65b0\u7530\u99d0\u5728\u6240", "type": "police_station", "is_24h": true}, {"lat": 32.8188, "lon": 131.1131, "name": "\u9ad8\u68ee\u8b66\u5bdf\u7f72", "type": "police_station", "is_24h": true}, {"lat": 32.5818, "lon": 131.6718, "name": "police_station", "type": "police_station", "is_24h": true}, {"lat": 32.8806, "lon": 131.074, "name": "\u963f\u8607\u8b66\u5bdf\u7f72\u963f\u8607\u5c71\u4e0a\u8b66\u5099\u6d3e\u51fa\u6240", "type": "police_station", "is_24h": true}, {"lat": 32.5668, "lon": 131.6703, "name": "\u5ef6\u5ca1\u8b66\u5bdf\u7f72", "type": "police_station", "is_24h": true}, {"lat": 32.4659, "lon": 131.1564, "name": "\u65e5\u5411\u8b66\u5bdf\u7f72\u690e\u8449\u99d0\u5728\u6240", "type": "police_station", "is_24h": true}, {"lat": 32.4264, "lon": 131.6277, "name": "\u65e5\u5411\u8b66\u5bdf\u7f72\u65e5\u5411\u5e02\u99c5\u524d\u4ea4\u756a", "type": "koban", "is_24h": true}, {"lat": 32.4262, "lon": 131.6304, "name": "\u65e5\u5411\u8b66\u5bdf\u7f72", "type": "police_station", "is_24h": true}, {"lat": 32.9656, "lon": 131.8798, "name": "\u4f50\u4f2f\u8b66\u5bdf\u7f72", "type": "police_station", "is_24h": true}, {"lat": 32.6844, "lon": 131.1991, "name": "\u9ad8\u5343\u7a42\u8b66\u5bdf\u7f72\u4e94\u30b1\u702c\u99d0\u5728\u6240", "type": "police_station", "is_24h": true}, {"lat": 32.5891, "lon": 131.6721, "name": "police_station", "type": "police_station", "is_24h": true}, {"lat": 32.5077, "lon": 131.6772, "name": "\u5ef6\u5ca1\u8b66\u5bdf\u7f72\u571f\u3005\u5442\u99d0\u5728\u6240", "type": "police_station", "is_24h": true}, {"lat": 32.1047, "lon": 131.4058, "name": "police_station", "type": "police_station", "is_24h": true}, {"lat": 32.161, "lon": 131.4698, "name": "\u9ad8\u934b\u8b66\u5bdf\u7f72 \u6728\u57ce\u99d0\u5728\u6240", "type": "police_station", "is_24h": true}, {"lat": 32.9392, "lon": 131.0801, "name": "1.0", "type": "fire_station", "is_24h": true}, {"lat": 32.9392, "lon": 131.0801, "name": "2.0", "type": "fire_station", "is_24h": true}, {"lat": 32.9594, "lon": 131.1988, "name": "3.0", "type": "fire_station", "is_24h": true}, {"lat": 32.8215, "lon": 131.2175, "name": "3.0", "type": "fire_station", "is_24h": true}, {"lat": 32.8288, "lon": 131.0712, "name": "3.0", "type": "fire_station", "is_24h": true}, {"lat": 32.6868, "lon": 131.0069, "name": "2.0", "type": "fire_station", "is_24h": true}, {"lat": 32.7246, "lon": 131.1645, "name": "3.0", "type": "fire_station", "is_24h": true}, {"lat": 32.9616, "lon": 131.8651, "name": "1.0", "type": "fire_station", "is_24h": true}, {"lat": 32.9736, "lon": 131.3874, "name": "1.0", "type": "fire_station", "is_24h": true}, {"lat": 32.9778, "lon": 131.5842, "name": "1.0", "type": "fire_station", "is_24h": true}, {"lat": 32.9616, "lon": 131.8651, "name": "2.0", "type": "fire_station", "is_24h": true}, {"lat": 32.8578, "lon": 131.6826, "name": "3.0", "type": "fire_station", "is_24h": true}, {"lat": 32.7963, "lon": 131.9267, "name": "3.0", "type": "fire_station", "is_24h": true}, {"lat": 32.9425, "lon": 131.9629, "name": "3.0", "type": "fire_station", "is_24h": true}, {"lat": 32.9736, "lon": 131.3874, "name": "2.0", "type": "fire_station", "is_24h": true}, {"lat": 32.9696, "lon": 131.4617, "name": "3.0", "type": "fire_station", "is_24h": true}, {"lat": 32.9778, "lon": 131.5842, "name": "2.0", "type": "fire_station", "is_24h": true}, {"lat": 32.5803, "lon": 131.6537, "name": "1.0", "type": "fire_station", "is_24h": true}, {"lat": 32.4322, "lon": 131.6295, "name": "1.0", "type": "fire_station", "is_24h": true}, {"lat": 32.0944, "lon": 131.3946, "name": "1.0", "type": "fire_station", "is_24h": true}, {"lat": 32.1547, "lon": 131.5007, "name": "1.0", "type": "fire_station", "is_24h": true}, {"lat": 32.0205, "lon": 131.4628, "name": "3.0", "type": "fire_station", "is_24h": true}, {"lat": 32.5803, "lon": 131.6537, "name": "2.0", "type": "fire_station", "is_24h": true}, {"lat": 32.511, "lon": 131.6818, "name": "3.0", "type": "fire_station", "is_24h": true}, {"lat": 32.6056, "lon": 131.6834, "name": "3.0", "type": "fire_station", "is_24h": true}, {"lat": 32.5524, "lon": 131.6762, "name": "3.0", "type": "fire_station", "is_24h": true}, {"lat": 32.0779, "lon": 131.0691, "name": "3.0", "type": "fire_station", "is_24h": true}, {"lat": 32.4322, "lon": 131.6295, "name": "2.0", "type": "fire_station", "is_24h": true}, {"lat": 32.3417, "lon": 131.6145, "name": "3.0", "type": "fire_station", "is_24h": true}, {"lat": 32.0944, "lon": 131.3946, "name": "2.0", "type": "fire_station", "is_24h": true}, {"lat": 32.1549, "lon": 131.5006, "name": "2.0", "type": "fire_station", "is_24h": true}, {"lat": 32.0697, "lon": 131.4868, "name": "3.0", "type": "fire_station", "is_24h": true}, {"lat": 32.1993, "lon": 131.5275, "name": "3.0", "type": "fire_station", "is_24h": true}, {"lat": 32.2588, "lon": 131.5559, "name": "3.0", "type": "fire_station", "is_24h": true}, {"lat": 32.3917, "lon": 131.5303, "name": "3.0", "type": "fire_station", "is_24h": true}, {"lat": 32.9723, "lon": 131.0449, "name": "\u5742\u68a8\u4f1a\u963f\u8607\u6e29\u6cc9\u75c5\u9662", "type": "hospital", "is_24h": false}, {"lat": 32.9334, "lon": 131.1115, "name": "\u5927\u5fb3\u4f1a\u5927\u963f\u8607\u75c5\u9662", "type": "hospital", "is_24h": false}, {"lat": 32.6859, "lon": 131.1505, "name": "\u8607\u967d\u75c5\u9662", "type": "hospital", "is_24h": false}, {"lat": 32.9312, "lon": 131.08, "name": "\u963f\u8607\u4e2d\u592e\u75c5\u9662", "type": "hospital", "is_24h": false}, {"lat": 32.9516, "lon": 131.1173, "name": "\u9ad8\u68ee\u4f1a\u963f\u8607\u3084\u307e\u306a\u307f\u75c5\u9662", "type": "hospital", "is_24h": false}, {"lat": 32.0246, "lon": 131.4671, "name": "\u30d4\u30a2\u30fb\u30e1\u30f3\u30bf\u30eb\u3055\u3055\u304d\u75c5\u9662", "type": "hospital", "is_24h": false}, {"lat": 32.5077, "lon": 131.6789, "name": "\u4e45\u5eb7\u4f1a\u5e73\u7530\u75c5\u9662", "type": "hospital", "is_24h": false}, {"lat": 32.6844, "lon": 131.1979, "name": "\u4e94\u30b1\u702c\u753a\u56fd\u6c11\u5065\u5eb7\u4fdd\u967a\u75c5\u9662", "type": "hospital", "is_24h": false}, {"lat": 32.3686, "lon": 131.627, "name": "\u4ec1\u5fb3\u4f1a\u6e21\u8fba\u75c5\u9662", "type": "hospital", "is_24h": false}, {"lat": 32.9636, "lon": 131.9094, "name": "\u4ec1\u6075\u4f1a\u4f50\u4f2f\u4fdd\u990a\u9662", "type": "hospital", "is_24h": false}, {"lat": 32.9953, "lon": 131.4132, "name": "\u4f0a\u6771\u75c5\u9662", "type": "hospital", "is_24h": false}, {"lat": 32.5951, "lon": 131.6735, "name": "\u4f38\u548c\u4f1a\u5171\u7acb\u75c5\u9662", "type": "hospital", "is_24h": false}, {"lat": 32.9785, "lon": 131.5875, "name": "\u533b\u5fc3\u4f1a\u307f\u3048\u8a18\u5ff5\u75c5\u9662\u3000\u9589\u696d", "type": "hospital", "is_24h": false}, {"lat": 32.3862, "lon": 131.3294, "name": "\u5357\u90f7\u6751\u56fd\u6c11\u5065\u5eb7\u4fdd\u967a\u75c5\u9662", "type": "hospital", "is_24h": false}, {"lat": 32.572, "lon": 131.6678, "name": "\u535a\u4fe1\u4f1a\u4f50\u4e95\u75c5\u9662", "type": "hospital", "is_24h": false}, {"lat": 32.051, "lon": 131.4316, "name": "\u535a\u611b\u793e\u4f50\u571f\u539f\u75c5\u9662", "type": "hospital", "is_24h": false}, {"lat": 32.4091, "lon": 131.6362, "name": "\u5411\u6d0b\u4f1a\u5354\u548c\u75c5\u9662", "type": "hospital", "is_24h": false}, {"lat": 32.7123, "lon": 131.2973, "name": "\u548c\u656c\u4f1a\u56fd\u898b\u30b1\u4e18\u75c5\u9662", "type": "hospital", "is_24h": false}, {"lat": 32.5544, "lon": 131.6749, "name": "\u5609\u7965\u4f1a\u5ca1\u6751\u75c5\u9662", "type": "hospital", "is_24h": false}, {"lat": 32.2254, "lon": 131.1553, "name": "\u56fd\u6c11\u5065\u5eb7\u4fdd\u967a\u6751\u7acb\u897f\u7c73\u826f\u75c5\u9662", "type": "hospital", "is_24h": false}, {"lat": 32.2025, "lon": 131.5287, "name": "\u56fd\u7acb\u75c5\u9662\u6a5f\u69cb\u5bae\u5d0e\u75c5\u9662", "type": "hospital", "is_24h": false}, {"lat": 32.1319, "lon": 131.5053, "name": "\u5742\u7530\u75c5\u9662", "type": "hospital", "is_24h": false}, {"lat": 32.1079, "lon": 131.4049, "name": "\u5927\u585a\u75c5\u9662", "type": "hospital", "is_24h": false}, {"lat": 32.4734, "lon": 131.6526, "name": "\u5b5d\u8aa0\u4f1a\u767d\u77f3\u75c5\u9662", "type": "hospital", "is_24h": false}, {"lat": 32.458, "lon": 131.6479, "name": "\u5bae\u5d0e\u770c\u6e08\u751f\u4f1a\u65e5\u5411\u75c5\u9662", "type": "hospital", "is_24h": false}, {"lat": 32.5854, "lon": 131.6657, "name": "\u5eb7\u4ec1\u4f1a\u8c37\u6751\u75c5\u9662", "type": "hospital", "is_24h": false}, {"lat": 32.5791, "lon": 131.6643, "name": "\u5ef6\u5ca1\u5e02\u533b\u5e2b\u4f1a\u75c5\u9662", "type": "hospital", "is_24h": false}, {"lat": 32.1127, "lon": 131.4106, "name": "\u6075\u559c\u4f1a\u897f\u90fd\u75c5\u9662", "type": "hospital", "is_24h": false}, {"lat": 32.52, "lon": 131.6821, "name": "\u60a0\u751f\u4f1a\u5409\u7530\u75c5\u9662", "type": "hospital", "is_24h": false}, {"lat": 32.955, "lon": 131.8918, "name": "\u6148\u6075\u4f1a\u897f\u7530\u539a\u5fb3\u75c5\u9662", "type": "hospital", "is_24h": false}, {"lat": 32.4143, "lon": 131.6016, "name": "\u6176\u57ce\u4f1a\u7027\u4e95\u75c5\u9662", "type": "hospital", "is_24h": false}, {"lat": 32.656, "lon": 131.3889, "name": "\u65e5\u4e4b\u5f71\u753a\u56fd\u6c11\u5065\u5eb7\u4fdd\u967a\u75c5\u9662", "type": "hospital", "is_24h": false}, {"lat": 32.586, "lon": 131.6649, "name": "\u65e9\u7530\u75c5\u9662", "type": "hospital", "is_24h": false}, {"lat": 32.7973, "lon": 131.927, "name": "\u660e\u502b\u4f1a\u5fa1\u624b\u6d17\u75c5\u9662", "type": "hospital", "is_24h": false}, {"lat": 32.9599, "lon": 131.9093, "name": "\u660e\u77f3\u4f1a\u66fd\u6839\u75c5\u9662", "type": "hospital", "is_24h": false}, {"lat": 32.5576, "lon": 131.6743, "name": "\u662d\u548c\u4f1a\u9ed2\u702c\u75c5\u9662", "type": "hospital", "is_24h": false}, {"lat": 32.0607, "lon": 131.3586, "name": "\u6681\u661f\u4f1a\u4e09\u8ca1\u75c5\u9662", "type": "hospital", "is_24h": false}, {"lat": 32.4084, "lon": 131.6043, "name": "\u671b\u6d0b\u4f1a\u9bab\u5cf6\u75c5\u9662", "type": "hospital", "is_24h": false}, {"lat": 32.5753, "lon": 131.6659, "name": "\u6749\u674f\u4f1a\u6749\u672c\u75c5\u9662", "type": "hospital", "is_24h": false}, {"lat": 32.3313, "lon": 131.6049, "name": "\u674f\u6797\u4f1a\u4e09\u80a1\u75c5\u9662", "type": "hospital", "is_24h": false}, {"lat": 32.3935, "lon": 131.5319, "name": "\u6771\u90f7\u753a\u56fd\u6c11\u5065\u5eb7\u4fdd\u967a\u75c5\u9662", "type": "hospital", "is_24h": false}, {"lat": 32.1265, "lon": 131.5104, "name": "\u6cb3\u91ce\u75c5\u9662", "type": "hospital", "is_24h": false}, {"lat": 32.4258, "lon": 131.6318, "name": "\u6cc9\u548c\u4f1a\u5343\u4ee3\u7530\u75c5\u9662", "type": "hospital", "is_24h": false}, {"lat": 32.4811, "lon": 131.6532, "name": "\u6d69\u6d0b\u4f1a\u7530\u4e2d\u75c5\u9662", "type": "hospital", "is_24h": false}, {"lat": 32.5756, "lon": 131.6912, "name": "\u6f64\u548c\u30ea\u30cf\u30d3\u30ea\u30c6\u30fc\u30b7\u30e7\u30f3\u632f\u8208\u8ca1\u56e3\u5ef6\u5ca1\u30ea\u30cf\u30d3\u30ea\u30c6\u30fc\u30b7\u30e7\u30f3\u75c5\u9662", "type": "hospital", "is_24h": false}, {"lat": 32.5618, "lon": 131.6757, "name": "\u7530\u539f\u75c5\u9662", "type": "hospital", "is_24h": false}, {"lat": 32.9588, "lon": 131.3797, "name": "\u7af9\u7530\u533b\u5e2b\u4f1a\u75c5\u9662", "type": "hospital", "is_24h": false}, {"lat": 32.2155, "lon": 131.5174, "name": "\u8056\u5c71\u4f1a\u5ddd\u5357\u75c5\u9662", "type": "hospital", "is_24h": false}, {"lat": 32.5553, "lon": 131.6752, "name": "\u80b2\u751f\u4f1a\u4e95\u4e0a\u75c5\u9662", "type": "hospital", "is_24h": false}, {"lat": 32.4403, "lon": 131.4224, "name": "\u7f8e\u90f7\u753a\u56fd\u6c11\u5065\u5eb7\u4fdd\u967a\u897f\u90f7\u75c5\u9662", "type": "hospital", "is_24h": false}, {"lat": 32.4288, "lon": 131.629, "name": "\u8aa0\u548c\u4f1a\u548c\u7530\u75c5\u9662", "type": "hospital", "is_24h": false}, {"lat": 32.5122, "lon": 131.3298, "name": "\u8af8\u585a\u6751\u56fd\u6c11\u5065\u5eb7\u4fdd\u967a\u75c5\u9662", "type": "hospital", "is_24h": false}, {"lat": 32.2596, "lon": 131.5547, "name": "\u90fd\u8fb2\u753a\u56fd\u6c11\u5065\u5eb7\u4fdd\u967a\u75c5\u9662", "type": "hospital", "is_24h": false}, {"lat": 32.5749, "lon": 131.6855, "name": "\u91ce\u6751\u75c5\u9662", "type": "hospital", "is_24h": false}, {"lat": 32.9591, "lon": 131.8816, "name": "\u9577\u9580\u83ab\u8a18\u5ff5\u4f1a\u9577\u9580\u8a18\u5ff5\u75c5\u9662", "type": "hospital", "is_24h": false}, {"lat": 32.1106, "lon": 131.4039, "name": "\u9686\u5fb3\u4f1a\u9db4\u7530\u75c5\u9662", "type": "hospital", "is_24h": false}, {"lat": 32.5466, "lon": 131.6813, "name": "\u9686\u8aa0\u4f1a\u5ef6\u5ca1\u4fdd\u990a\u5712", "type": "hospital", "is_24h": false}, {"lat": 32.9705, "lon": 131.3926, "name": "\u96c4\u4ec1\u4f1a\u52a0\u85e4\u75c5\u9662", "type": "hospital", "is_24h": false}, {"lat": 32.7164, "lon": 131.315, "name": "\u9ad8\u5343\u7a42\u753a\u56fd\u6c11\u5065\u5eb7\u4fdd\u967a\u75c5\u9662", "type": "hospital", "is_24h": false}, {"lat": 32.8583, "lon": 131.6297, "name": "\u77e2\u91ce\u6b6f\u79d1", "type": "hospital", "is_24h": false}, {"lat": 32.8571, "lon": 131.6309, "name": "\u65b0\u5bae\u533b\u9662", "type": "hospital", "is_24h": false}, {"lat": 32.9501, "lon": 131.0236, "name": "\u75c5\u9662", "type": "hospital", "is_24h": false}, {"lat": 32.8212, "lon": 131.1227, "name": "\u6e21\u9089\u7dcf\u5408\u5185\u79d1\u30af\u30ea\u30cb\u30c3\u30af", "type": "hospital", "is_24h": false}, {"lat": 32.8185, "lon": 131.1263, "name": "\u5e73\u7530\u533b\u9662", "type": "hospital", "is_24h": false}, {"lat": 32.8171, "lon": 131.1276, "name": "\u99ac\u539f\u5185\u79d1\u533b\u9662", "type": "hospital", "is_24h": false}, {"lat": 32.8166, "lon": 131.1223, "name": "\u7247\u5c71\u6b6f\u79d1\u533b\u9662", "type": "hospital", "is_24h": false}, {"lat": 32.8275, "lon": 131.1227, "name": "\u5357\u90f7\u8c37\u6574\u5f62\u5916\u79d1\u533b\u9662", "type": "hospital", "is_24h": false}, {"lat": 32.5813, "lon": 131.6704, "name": "\u9ad8\u6ff1\u6b6f\u79d1\u533b\u9662", "type": "hospital", "is_24h": true}, {"lat": 32.4249, "lon": 131.6318, "name": "\u5343\u4ee3\u7530\u75c5\u9662", "type": "hospital", "is_24h": false}, {"lat": 32.426, "lon": 131.6295, "name": "\u304f\u308d\u304d\u80c3\u8178\u79d1", "type": "hospital", "is_24h": false}, {"lat": 32.4111, "lon": 131.6011, "name": "\u7027\u4e95\u75c5\u9662", "type": "hospital", "is_24h": false}, {"lat": 32.4265, "lon": 131.6258, "name": "\u67f3\u7530\u7523\u5a66\u4eba\u79d1\u533b\u9662", "type": "hospital", "is_24h": false}, {"lat": 32.546, "lon": 131.6794, "name": "\u30de\u30a4\u30fb\u30b0\u30ea\u30fc\u30f3\u30d2\u30eb", "type": "hospital", "is_24h": false}, {"lat": 32.5848, "lon": 131.6634, "name": "\u7279\u5b9a\u533b\u7642\u6cd5\u4eba \u5065\u5bff\u4f1a \u9ed2\u6728\u75c5\u9662", "type": "hospital", "is_24h": false}, {"lat": 32.9696, "lon": 131.476, "name": "\u8c4a\u5f8c\u5927\u91ce\u5e02\u6c11\u75c5\u9662", "type": "hospital", "is_24h": false}, {"lat": 32.7089, "lon": 131.3092, "name": "\u7530\u4e0a\u6b6f\u79d1\u533b\u9662", "type": "hospital", "is_24h": false}, {"lat": 32.7066, "lon": 131.3071, "name": "\u9ed2\u6728\u6b6f\u79d1\u533b\u9662", "type": "hospital", "is_24h": false}, {"lat": 32.7166, "lon": 131.3148, "name": "hospital", "type": "hospital", "is_24h": false}, {"lat": 32.1072, "lon": 131.3985, "name": "\u897f\u90fd\u5150\u6e6f\u533b\u7642\u30bb\u30f3\u30bf\u30fc", "type": "hospital", "is_24h": false}, {"lat": 32.0902, "lon": 131.4568, "name": "hospital", "type": "hospital", "is_24h": false}, {"lat": 32.0645, "lon": 131.4606, "name": "\u5c0f\u6751\u533b\u9662", "type": "hospital", "is_24h": false}, {"lat": 32.5466, "lon": 131.6813, "name": "hospital", "type": "hospital", "is_24h": false}, {"lat": 32.546, "lon": 131.6795, "name": "hospital", "type": "hospital", "is_24h": false}, {"lat": 32.5703, "lon": 131.6666, "name": "\u770c\u7acb\u5ef6\u5ca1\u75c5\u9662", "type": "hospital", "is_24h": false}, {"lat": 32.5749, "lon": 131.6854, "name": "\u91ce\u6751\u75c5\u9662", "type": "hospital", "is_24h": false}, {"lat": 32.4654, "lon": 131.1558, "name": "\u690e\u8449\u6751\u56fd\u6c11\u5065\u5eb7\u4fdd\u967a\u75c5\u9662", "type": "hospital", "is_24h": false}, {"lat": 32.5756, "lon": 131.6895, "name": "\u5ef6\u5ca1\u5e02\u533b\u5e2b\u4f1a\u75c5\u9662", "type": "hospital", "is_24h": false}, {"lat": 32.6845, "lon": 131.1977, "name": "\u4e94\u30f6\u702c\u753a\u56fd\u6c11\u5065\u5eb7\u4fdd\u967a\u75c5\u9662", "type": "hospital", "is_24h": false}, {"lat": 32.9569, "lon": 131.9071, "name": "\u6e21\u753a\u53f0\u5916\u79d1\u75c5\u9662", "type": "hospital", "is_24h": false}, {"lat": 32.9649, "lon": 131.9005, "name": "\u5357\u6d77\u533b\u7642\u30bb\u30f3\u30bf\u30fc", "type": "hospital", "is_24h": false}, {"lat": 32.9357, "lon": 131.0833, "name": "\u963f\u8607\u533b\u7642\u30bb\u30f3\u30bf\u30fc", "type": "hospital", "is_24h": false}, {"lat": 32.532, "lon": 131.6703, "name": "\u5e73\u7530\u6771\u4e5d\u5dde\u75c5\u9662", "type": "hospital", "is_24h": false}, {"lat": 32.9792, "lon": 131.5846, "name": "\u571f\u751f\u75c5\u9662", "type": "hospital", "is_24h": false}, {"lat": 32.2049, "lon": 131.0197, "name": "aed", "type": "aed", "is_24h": false}, {"lat": 32.1869, "lon": 131.0621, "name": "aed", "type": "aed", "is_24h": false}, {"lat": 32.9523, "lon": 131.1213, "name": "\u963f\u8607\u5e02", "type": "aed", "is_24h": false}, {"lat": 32.9508, "lon": 131.1229, "name": "\u963f\u8607\u5e02", "type": "aed", "is_24h": false}, {"lat": 32.9421, "lon": 131.1139, "name": "\u718a\u672c\u770c", "type": "aed", "is_24h": false}, {"lat": 32.9399, "lon": 131.1158, "name": "\u963f\u8607\u5e02", "type": "aed", "is_24h": false}, {"lat": 32.9596, "lon": 131.1237, "name": "\u963f\u8607\u5e02", "type": "aed", "is_24h": false}, {"lat": 32.9392, "lon": 131.1156, "name": "\u963f\u8607\u5e02", "type": "aed", "is_24h": false}, {"lat": 32.9337, "lon": 131.1213, "name": "\u963f\u8607\u5e02", "type": "aed", "is_24h": false}, {"lat": 32.9292, "lon": 131.1098, "name": "\u963f\u8607\u5e02", "type": "aed", "is_24h": false}, {"lat": 32.8992, "lon": 131.1023, "name": "\u963f\u8607\u5e02", "type": "aed", "is_24h": false}, {"lat": 32.9392, "lon": 131.1308, "name": "\u963f\u8607\u5e02", "type": "aed", "is_24h": false}, {"lat": 32.9365, "lon": 131.1301, "name": "\u963f\u8607\u5e02", "type": "aed", "is_24h": false}, {"lat": 32.9729, "lon": 131.1284, "name": "\u963f\u8607\u5e02", "type": "aed", "is_24h": false}, {"lat": 32.9907, "lon": 131.1251, "name": "\u963f\u8607\u5e02", "type": "aed", "is_24h": false}, {"lat": 32.9621, "lon": 131.1137, "name": "\u963f\u8607\u5e02", "type": "aed", "is_24h": false}, {"lat": 32.953, "lon": 131.1002, "name": "\u718a\u672c\u770c", "type": "aed", "is_24h": false}, {"lat": 32.9644, "lon": 131.1116, "name": "\u963f\u8607\u5e02", "type": "aed", "is_24h": false}, {"lat": 32.9718, "lon": 131.0442, "name": "\u963f\u8607\u5e02", "type": "aed", "is_24h": false}, {"lat": 32.9712, "lon": 131.0444, "name": "\u963f\u8607\u5e02", "type": "aed", "is_24h": false}, {"lat": 32.9708, "lon": 131.0442, "name": "\u963f\u8607\u5e02", "type": "aed", "is_24h": false}, {"lat": 32.9707, "lon": 131.0434, "name": "\u963f\u8607\u5e02", "type": "aed", "is_24h": false}, {"lat": 32.9762, "lon": 131.0479, "name": "\u963f\u8607\u5e02", "type": "aed", "is_24h": false}, {"lat": 32.9764, "lon": 131.0419, "name": "\u963f\u8607\u5e02", "type": "aed", "is_24h": false}, {"lat": 32.9764, "lon": 131.0402, "name": "\u963f\u8607\u5e02", "type": "aed", "is_24h": false}, {"lat": 32.9681, "lon": 131.0384, "name": "\u963f\u8607\u5e02", "type": "aed", "is_24h": false}, {"lat": 32.9522, "lon": 131.019, "name": "\u963f\u8607\u5e02", "type": "aed", "is_24h": false}, {"lat": 32.93, "lon": 131.0094, "name": "\u963f\u8607\u5e02", "type": "aed", "is_24h": false}, {"lat": 32.9402, "lon": 131.0411, "name": "\u963f\u8607\u5e02", "type": "aed", "is_24h": false}, {"lat": 32.943, "lon": 131.0435, "name": "\u963f\u8607\u5e02", "type": "aed", "is_24h": false}, {"lat": 32.9401, "lon": 131.041, "name": "\u963f\u8607\u5e02", "type": "aed", "is_24h": false}, {"lat": 32.9345, "lon": 131.0826, "name": "\u963f\u8607\u5e02", "type": "aed", "is_24h": false}, {"lat": 32.9359, "lon": 131.0839, "name": "\u963f\u8607\u5e02", "type": "aed", "is_24h": false}, {"lat": 32.9371, "lon": 131.0813, "name": "\u963f\u8607\u5e02", "type": "aed", "is_24h": false}, {"lat": 32.9367, "lon": 131.0783, "name": "\u963f\u8607\u5e02", "type": "aed", "is_24h": false}, {"lat": 32.8796, "lon": 131.0741, "name": "\u963f\u8607\u5e02", "type": "aed", "is_24h": false}, {"lat": 32.9518, "lon": 131.0627, "name": "\u963f\u8607\u5e02", "type": "aed", "is_24h": false}, {"lat": 32.9502, "lon": 131.0955, "name": "\u963f\u8607\u5e02", "type": "aed", "is_24h": false}, {"lat": 32.9525, "lon": 131.0945, "name": "\u963f\u8607\u5e02", "type": "aed", "is_24h": false}, {"lat": 32.9701, "lon": 131.0898, "name": "\u963f\u8607\u5e02", "type": "aed", "is_24h": false}, {"lat": 32.9686, "lon": 131.0898, "name": "\u963f\u8607\u5e02", "type": "aed", "is_24h": false}, {"lat": 32.9601, "lon": 131.1978, "name": "\u963f\u8607\u5e02", "type": "aed", "is_24h": false}, {"lat": 32.9565, "lon": 131.2194, "name": "\u963f\u8607\u5e02", "type": "aed", "is_24h": false}, {"lat": 32.94, "lon": 131.2026, "name": "\u963f\u8607\u5e02", "type": "aed", "is_24h": false}, {"lat": 32.94, "lon": 131.2015, "name": "\u963f\u8607\u5e02", "type": "aed", "is_24h": false}, {"lat": 32.9398, "lon": 131.2027, "name": "\u963f\u8607\u5e02", "type": "aed", "is_24h": false}, {"lat": 32.9332, "lon": 131.2309, "name": "\u963f\u8607\u5e02", "type": "aed", "is_24h": false}, {"lat": 32.9577, "lon": 131.899, "name": "aed", "type": "aed", "is_24h": false}, {"lat": 32.9648, "lon": 131.9045, "name": "aed", "type": "aed", "is_24h": false}, {"lat": 32.9625, "lon": 131.9175, "name": "aed", "type": "aed", "is_24h": false}, {"lat": 32.961, "lon": 131.8951, "name": "aed", "type": "aed", "is_24h": false}, {"lat": 32.9557, "lon": 131.884, "name": "aed", "type": "aed", "is_24h": false}, {"lat": 32.9244, "lon": 131.9269, "name": "aed", "type": "aed", "is_24h": false}, {"lat": 32.9649, "lon": 131.903, "name": "aed", "type": "aed", "is_24h": false}, {"lat": 32.9602, "lon": 131.8995, "name": "aed", "type": "aed", "is_24h": false}, {"lat": 32.9685, "lon": 131.8375, "name": "aed", "type": "aed", "is_24h": false}, {"lat": 32.9511, "lon": 131.7885, "name": "aed", "type": "aed", "is_24h": false}, {"lat": 32.9282, "lon": 131.7129, "name": "aed", "type": "aed", "is_24h": false}, {"lat": 32.858, "lon": 131.6565, "name": "aed", "type": "aed", "is_24h": false}, {"lat": 32.8963, "lon": 131.7785, "name": "aed", "type": "aed", "is_24h": false}, {"lat": 32.945, "lon": 131.9607, "name": "aed", "type": "aed", "is_24h": false}, {"lat": 32.9212, "lon": 131.9758, "name": "aed", "type": "aed", "is_24h": false}, {"lat": 32.7979, "lon": 131.9262, "name": "aed", "type": "aed", "is_24h": false}, {"lat": 32.8186, "lon": 131.9634, "name": "aed", "type": "aed", "is_24h": false}, {"lat": 32.7927, "lon": 131.8741, "name": "aed", "type": "aed", "is_24h": false}, {"lat": 32.8248, "lon": 131.9822, "name": "aed", "type": "aed", "is_24h": false}, {"lat": 32.9582, "lon": 131.8996, "name": "aed", "type": "aed", "is_24h": false}, {"lat": 32.9708, "lon": 131.834, "name": "aed", "type": "aed", "is_24h": false}, {"lat": 32.8079, "lon": 131.9285, "name": "aed", "type": "aed", "is_24h": false}, {"lat": 32.919, "lon": 131.9659, "name": "aed", "type": "aed", "is_24h": false}, {"lat": 32.9681, "lon": 131.9039, "name": "aed", "type": "aed", "is_24h": false}, {"lat": 32.9608, "lon": 131.8937, "name": "aed", "type": "aed", "is_24h": false}, {"lat": 32.9518, "lon": 131.9011, "name": "aed", "type": "aed", "is_24h": false}, {"lat": 32.9687, "lon": 131.8409, "name": "aed", "type": "aed", "is_24h": false}, {"lat": 32.8079, "lon": 131.9285, "name": "aed", "type": "aed", "is_24h": false}, {"lat": 32.955, "lon": 131.9088, "name": "aed", "type": "aed", "is_24h": false}, {"lat": 32.9627, "lon": 131.9044, "name": "aed", "type": "aed", "is_24h": false}, {"lat": 32.955, "lon": 131.889, "name": "aed", "type": "aed", "is_24h": false}, {"lat": 32.9367, "lon": 131.8873, "name": "aed", "type": "aed", "is_24h": false}, {"lat": 32.9689, "lon": 131.8421, "name": "aed", "type": "aed", "is_24h": false}, {"lat": 32.9546, "lon": 131.8017, "name": "aed", "type": "aed", "is_24h": false}, {"lat": 32.8584, "lon": 131.6707, "name": "aed", "type": "aed", "is_24h": false}, {"lat": 32.897, "lon": 131.7761, "name": "aed", "type": "aed", "is_24h": false}, {"lat": 32.9415, "lon": 131.9654, "name": "aed", "type": "aed", "is_24h": false}, {"lat": 32.9167, "lon": 131.9806, "name": "aed", "type": "aed", "is_24h": false}, {"lat": 32.8028, "lon": 131.9423, "name": "aed", "type": "aed", "is_24h": false}, {"lat": 32.9535, "lon": 131.8055, "name": "aed", "type": "aed", "is_24h": false}, {"lat": 32.896, "lon": 131.8002, "name": "aed", "type": "aed", "is_24h": false}, {"lat": 32.8636, "lon": 131.6738, "name": "aed", "type": "aed", "is_24h": false}, {"lat": 32.8079, "lon": 131.9285, "name": "aed", "type": "aed", "is_24h": false}, {"lat": 32.9577, "lon": 131.8931, "name": "aed", "type": "aed", "is_24h": false}, {"lat": 32.9647, "lon": 131.8983, "name": "aed", "type": "aed", "is_24h": false}, {"lat": 32.9584, "lon": 131.9084, "name": "aed", "type": "aed", "is_24h": false}, {"lat": 32.9607, "lon": 131.8751, "name": "aed", "type": "aed", "is_24h": false}, {"lat": 32.9372, "lon": 131.8815, "name": "aed", "type": "aed", "is_24h": false}, {"lat": 32.9248, "lon": 131.8764, "name": "aed", "type": "aed", "is_24h": false}, {"lat": 32.8836, "lon": 131.8732, "name": "aed", "type": "aed", "is_24h": false}, {"lat": 32.9199, "lon": 131.9311, "name": "aed", "type": "aed", "is_24h": false}, {"lat": 32.9532, "lon": 131.8377, "name": "aed", "type": "aed", "is_24h": false}, {"lat": 32.9701, "lon": 131.8343, "name": "aed", "type": "aed", "is_24h": false}, {"lat": 32.9546, "lon": 131.8017, "name": "aed", "type": "aed", "is_24h": false}, {"lat": 32.8571, "lon": 131.6733, "name": "aed", "type": "aed", "is_24h": false}, {"lat": 32.8976, "lon": 131.7768, "name": "aed", "type": "aed", "is_24h": false}, {"lat": 32.9453, "lon": 131.9617, "name": "aed", "type": "aed", "is_24h": false}, {"lat": 32.919, "lon": 131.9659, "name": "aed", "type": "aed", "is_24h": false}, {"lat": 32.8079, "lon": 131.9285, "name": "aed", "type": "aed", "is_24h": false}, {"lat": 32.8665, "lon": 131.9487, "name": "aed", "type": "aed", "is_24h": false}, {"lat": 32.9556, "lon": 131.8829, "name": "aed", "type": "aed", "is_24h": false}, {"lat": 32.9585, "lon": 131.8929, "name": "aed", "type": "aed", "is_24h": false}, {"lat": 32.9584, "lon": 131.9078, "name": "aed", "type": "aed", "is_24h": false}, {"lat": 32.9603, "lon": 131.8751, "name": "aed", "type": "aed", "is_24h": false}, {"lat": 32.9941, "lon": 131.9207, "name": "aed", "type": "aed", "is_24h": false}, {"lat": 32.9519, "lon": 131.7895, "name": "aed", "type": "aed", "is_24h": false}, {"lat": 32.858, "lon": 131.6565, "name": "aed", "type": "aed", "is_24h": false}, {"lat": 32.8009, "lon": 131.9219, "name": "aed", "type": "aed", "is_24h": false}, {"lat": 32.9431, "lon": 131.9625, "name": "aed", "type": "aed", "is_24h": false}, {"lat": 32.9207, "lon": 131.9758, "name": "aed", "type": "aed", "is_24h": false}, {"lat": 32.7227, "lon": 131.928, "name": "aed", "type": "aed", "is_24h": false}, {"lat": 32.8079, "lon": 131.9285, "name": "aed", "type": "aed", "is_24h": false}, {"lat": 32.9678, "lon": 131.9097, "name": "aed", "type": "aed", "is_24h": false}, {"lat": 32.9525, "lon": 131.8987, "name": "aed", "type": "aed", "is_24h": false}, {"lat": 32.9637, "lon": 131.8771, "name": "aed", "type": "aed", "is_24h": false}, {"lat": 32.924, "lon": 131.9293, "name": "aed", "type": "aed", "is_24h": false}, {"lat": 32.9382, "lon": 131.882, "name": "aed", "type": "aed", "is_24h": false}, {"lat": 32.926, "lon": 131.8754, "name": "aed", "type": "aed", "is_24h": false}, {"lat": 32.8834, "lon": 131.8719, "name": "aed", "type": "aed", "is_24h": false}, {"lat": 32.9679, "lon": 131.9036, "name": "aed", "type": "aed", "is_24h": false}, {"lat": 32.8683, "lon": 131.9731, "name": "aed", "type": "aed", "is_24h": false}, {"lat": 32.9675, "lon": 131.8399, "name": "aed", "type": "aed", "is_24h": false}, {"lat": 32.8962, "lon": 131.7784, "name": "aed", "type": "aed", "is_24h": false}, {"lat": 32.9526, "lon": 131.8981, "name": "aed", "type": "aed", "is_24h": false}, {"lat": 32.9566, "lon": 131.8927, "name": "aed", "type": "aed", "is_24h": false}, {"lat": 32.9567, "lon": 131.8934, "name": "aed", "type": "aed", "is_24h": false}, {"lat": 32.9003, "lon": 131.8473, "name": "aed", "type": "aed", "is_24h": false}, {"lat": 32.9003, "lon": 131.8473, "name": "aed", "type": "aed", "is_24h": false}, {"lat": 32.9509, "lon": 131.9004, "name": "aed", "type": "aed", "is_24h": false}, {"lat": 32.8588, "lon": 131.6982, "name": "aed", "type": "aed", "is_24h": false}, {"lat": 32.8023, "lon": 131.905, "name": "aed", "type": "aed", "is_24h": false}, {"lat": 32.9375, "lon": 131.9818, "name": "aed", "type": "aed", "is_24h": false}, {"lat": 32.896, "lon": 131.8002, "name": "aed", "type": "aed", "is_24h": false}, {"lat": 32.9003, "lon": 131.8473, "name": "aed", "type": "aed", "is_24h": false}, {"lat": 32.9677, "lon": 131.9102, "name": "aed", "type": "aed", "is_24h": false}, {"lat": 32.9003, "lon": 131.8473, "name": "aed", "type": "aed", "is_24h": false}, {"lat": 32.8967, "lon": 131.7869, "name": "aed", "type": "aed", "is_24h": false}, {"lat": 32.8654, "lon": 131.7909, "name": "aed", "type": "aed", "is_24h": false}, {"lat": 32.977, "lon": 131.9043, "name": "aed", "type": "aed", "is_24h": false}, {"lat": 32.8018, "lon": 131.9243, "name": "aed", "type": "aed", "is_24h": false}, {"lat": 32.9646, "lon": 131.8387, "name": "aed", "type": "aed", "is_24h": false}, {"lat": 32.8035, "lon": 131.6104, "name": "aed", "type": "aed", "is_24h": false}, {"lat": 32.9003, "lon": 131.8473, "name": "aed", "type": "aed", "is_24h": false}, {"lat": 32.8703, "lon": 131.7844, "name": "aed", "type": "aed", "is_24h": false}, {"lat": 32.9212, "lon": 131.9761, "name": "aed", "type": "aed", "is_24h": false}, {"lat": 32.9276, "lon": 131.7125, "name": "aed", "type": "aed", "is_24h": false}, {"lat": 32.9423, "lon": 131.9627, "name": "aed", "type": "aed", "is_24h": false}, {"lat": 32.9975, "lon": 131.9239, "name": "aed", "type": "aed", "is_24h": false}, {"lat": 32.9454, "lon": 131.9562, "name": "aed", "type": "aed", "is_24h": false}, {"lat": 32.9698, "lon": 131.9121, "name": "aed", "type": "aed", "is_24h": false}, {"lat": 32.8707, "lon": 131.6279, "name": "aed", "type": "aed", "is_24h": false}, {"lat": 32.9559, "lon": 131.8935, "name": "aed", "type": "aed", "is_24h": false}, {"lat": 32.9784, "lon": 131.9021, "name": "aed", "type": "aed", "is_24h": false}, {"lat": 32.9681, "lon": 131.9106, "name": "aed", "type": "aed", "is_24h": false}, {"lat": 32.9643, "lon": 131.3865, "name": "aed", "type": "aed", "is_24h": false}, {"lat": 32.9732, "lon": 131.3972, "name": "aed", "type": "aed", "is_24h": false}, {"lat": 32.968, "lon": 131.3983, "name": "aed", "type": "aed", "is_24h": false}, {"lat": 32.9501, "lon": 131.3709, "name": "aed", "type": "aed", "is_24h": false}, {"lat": 32.9612, "lon": 131.3826, "name": "aed", "type": "aed", "is_24h": false}, {"lat": 32.9732, "lon": 131.3984, "name": "aed", "type": "aed", "is_24h": false}, {"lat": 32.924, "lon": 131.3142, "name": "aed", "type": "aed", "is_24h": false}, {"lat": 32.9731, "lon": 131.3984, "name": "aed", "type": "aed", "is_24h": false}, {"lat": 32.9736, "lon": 131.3874, "name": "aed", "type": "aed", "is_24h": false}, {"lat": 32.9822, "lon": 131.3888, "name": "aed", "type": "aed", "is_24h": false}, {"lat": 32.9739, "lon": 131.3995, "name": "aed", "type": "aed", "is_24h": false}, {"lat": 32.9679, "lon": 131.3839, "name": "aed", "type": "aed", "is_24h": false}, {"lat": 32.9358, "lon": 131.3843, "name": "aed", "type": "aed", "is_24h": false}, {"lat": 32.956, "lon": 131.2861, "name": "aed", "type": "aed", "is_24h": false}, {"lat": 32.9916, "lon": 131.3374, "name": "aed", "type": "aed", "is_24h": false}, {"lat": 32.9219, "lon": 131.2957, "name": "aed", "type": "aed", "is_24h": false}, {"lat": 32.9743, "lon": 131.4002, "name": "aed", "type": "aed", "is_24h": false}, {"lat": 32.9218, "lon": 131.2977, "name": "aed", "type": "aed", "is_24h": false}, {"lat": 32.9677, "lon": 131.3952, "name": "aed", "type": "aed", "is_24h": false}, {"lat": 32.9284, "lon": 131.2921, "name": "aed", "type": "aed", "is_24h": false}, {"lat": 32.8977, "lon": 131.3646, "name": "aed", "type": "aed", "is_24h": false}, {"lat": 32.895, "lon": 131.3306, "name": "aed", "type": "aed", "is_24h": false}, {"lat": 32.9657, "lon": 131.3936, "name": "aed", "type": "aed", "is_24h": false}, {"lat": 32.9716, "lon": 131.3914, "name": "aed", "type": "aed", "is_24h": false}, {"lat": 32.9679, "lon": 131.396, "name": "aed", "type": "aed", "is_24h": false}, {"lat": 32.96, "lon": 131.3843, "name": "aed", "type": "aed", "is_24h": false}, {"lat": 32.9803, "lon": 131.3885, "name": "aed", "type": "aed", "is_24h": false}, {"lat": 32.9608, "lon": 131.3881, "name": "aed", "type": "aed", "is_24h": false}, {"lat": 32.9566, "lon": 131.2941, "name": "aed", "type": "aed", "is_24h": false}, {"lat": 32.9856, "lon": 131.3405, "name": "aed", "type": "aed", "is_24h": false}, {"lat": 32.9646, "lon": 131.3869, "name": "aed", "type": "aed", "is_24h": false}, {"lat": 32.9672, "lon": 131.4031, "name": "aed", "type": "aed", "is_24h": false}, {"lat": 32.8685, "lon": 131.364, "name": "aed", "type": "aed", "is_24h": false}, {"lat": 32.9568, "lon": 131.2872, "name": "aed", "type": "aed", "is_24h": false}, {"lat": 32.9471, "lon": 131.3625, "name": "aed", "type": "aed", "is_24h": false}, {"lat": 32.9734, "lon": 131.3968, "name": "aed", "type": "aed", "is_24h": false}, {"lat": 32.9658, "lon": 131.3941, "name": "aed", "type": "aed", "is_24h": false}, {"lat": 32.9733, "lon": 131.3954, "name": "aed", "type": "aed", "is_24h": false}, {"lat": 32.9757, "lon": 131.581, "name": "aed", "type": "aed", "is_24h": false}, {"lat": 32.9782, "lon": 131.5839, "name": "aed", "type": "aed", "is_24h": false}, {"lat": 32.9897, "lon": 131.5931, "name": "aed", "type": "aed", "is_24h": false}, {"lat": 32.9732, "lon": 131.5812, "name": "aed", "type": "aed", "is_24h": false}, {"lat": 32.9771, "lon": 131.5881, "name": "aed", "type": "aed", "is_24h": false}, {"lat": 32.9783, "lon": 131.5852, "name": "aed", "type": "aed", "is_24h": false}, {"lat": 32.9719, "lon": 131.5163, "name": "aed", "type": "aed", "is_24h": false}, {"lat": 32.9688, "lon": 131.4892, "name": "aed", "type": "aed", "is_24h": false}, {"lat": 32.9775, "lon": 131.5841, "name": "aed", "type": "aed", "is_24h": false}, {"lat": 32.9698, "lon": 131.4538, "name": "aed", "type": "aed", "is_24h": false}, {"lat": 32.9761, "lon": 131.5848, "name": "aed", "type": "aed", "is_24h": false}, {"lat": 32.9778, "lon": 131.5899, "name": "aed", "type": "aed", "is_24h": false}, {"lat": 32.9529, "lon": 131.5116, "name": "aed", "type": "aed", "is_24h": false}, {"lat": 32.9792, "lon": 131.4631, "name": "aed", "type": "aed", "is_24h": false}, {"lat": 32.9779, "lon": 131.5798, "name": "aed", "type": "aed", "is_24h": false}, {"lat": 32.9897, "lon": 131.6098, "name": "aed", "type": "aed", "is_24h": false}, {"lat": 32.9703, "lon": 131.5587, "name": "aed", "type": "aed", "is_24h": false}, {"lat": 32.9675, "lon": 131.5141, "name": "aed", "type": "aed", "is_24h": false}, {"lat": 32.9726, "lon": 131.4734, "name": "aed", "type": "aed", "is_24h": false}, {"lat": 32.9719, "lon": 131.5163, "name": "aed", "type": "aed", "is_24h": false}, {"lat": 32.9717, "lon": 131.4705, "name": "aed", "type": "aed", "is_24h": false}, {"lat": 32.9759, "lon": 131.5841, "name": "aed", "type": "aed", "is_24h": false}, {"lat": 32.9766, "lon": 131.5849, "name": "aed", "type": "aed", "is_24h": false}, {"lat": 32.9898, "lon": 131.5854, "name": "aed", "type": "aed", "is_24h": false}, {"lat": 32.9885, "lon": 131.5885, "name": "aed", "type": "aed", "is_24h": false}, {"lat": 32.9905, "lon": 131.5827, "name": "aed", "type": "aed", "is_24h": false}, {"lat": 32.9543, "lon": 131.5083, "name": "aed", "type": "aed", "is_24h": false}, {"lat": 32.9762, "lon": 131.4684, "name": "aed", "type": "aed", "is_24h": false}, {"lat": 32.9716, "lon": 131.518, "name": "aed", "type": "aed", "is_24h": false}, {"lat": 32.9657, "lon": 131.4522, "name": "aed", "type": "aed", "is_24h": false}, {"lat": 32.8254, "lon": 131.3918, "name": "aed", "type": "aed", "is_24h": false}, {"lat": 32.9768, "lon": 131.5853, "name": "aed", "type": "aed", "is_24h": false}, {"lat": 32.97, "lon": 131.4759, "name": "aed", "type": "aed", "is_24h": false}, {"lat": 32.9776, "lon": 131.5841, "name": "aed", "type": "aed", "is_24h": false}, {"lat": 32.9631, "lon": 131.5205, "name": "aed", "type": "aed", "is_24h": false}, {"lat": 32.9861, "lon": 131.5885, "name": "aed", "type": "aed", "is_24h": false}, {"lat": 32.9679, "lon": 131.3839, "name": "aed", "type": "aed", "is_24h": false}, {"lat": 32.9577, "lon": 131.899, "name": "\u5357\u90e8\u4fdd\u5065\u6240", "type": "aed", "is_24h": false}, {"lat": 32.9648, "lon": 131.9045, "name": "\u5927\u5206\u770c\u5357\u90e8\u632f\u8208\u5c40", "type": "aed", "is_24h": false}, {"lat": 32.9625, "lon": 131.9175, "name": "\u4f50\u4f2f\u9ad8\u7b49\u6280\u8853\u5c02\u9580\u6821", "type": "aed", "is_24h": false}, {"lat": 32.961, "lon": 131.8951, "name": "\u4f50\u4f2f\u9db4\u57ce\u9ad8\u7b49\u5b66\u6821", "type": "aed", "is_24h": false}, {"lat": 32.9557, "lon": 131.884, "name": "\u4f50\u4f2f\u8c4a\u5357\u9ad8\u7b49\u5b66\u6821", "type": "aed", "is_24h": false}, {"lat": 32.9244, "lon": 131.9269, "name": "\u4f50\u4f2f\u652f\u63f4\u5b66\u6821", "type": "aed", "is_24h": false}, {"lat": 32.9649, "lon": 131.903, "name": "\u4f50\u4f2f\u8b66\u5bdf\u7f72", "type": "aed", "is_24h": false}, {"lat": 32.9602, "lon": 131.8995, "name": "\u4f50\u4f2f\u5e02\u5f79\u6240\u3000\u672c\u5e81", "type": "aed", "is_24h": false}, {"lat": 32.9685, "lon": 131.8375, "name": "\u4f50\u4f2f\u5e02\u5f25\u751f\u632f\u8208\u5c40", "type": "aed", "is_24h": false}, {"lat": 32.9511, "lon": 131.7885, "name": "\u4f50\u4f2f\u5e02\u672c\u5320\u632f\u8208\u5c40", "type": "aed", "is_24h": false}, {"lat": 32.9282, "lon": 131.7129, "name": "\u4f50\u4f2f\u5e02\u672c\u5320\u632f\u8208\u5c40\u3000\u56e0\u5c3e\u51fa\u5f35\u6240", "type": "aed", "is_24h": false}, {"lat": 32.858, "lon": 131.6565, "name": "\u4f50\u4f2f\u5e02\u5b87\u76ee\u632f\u8208\u5c40", "type": "aed", "is_24h": false}, {"lat": 32.8963, "lon": 131.7785, "name": "\u4f50\u4f2f\u5e02\u76f4\u5ddd\u632f\u8208\u5c40", "type": "aed", "is_24h": false}, {"lat": 32.945, "lon": 131.9607, "name": "\u4f50\u4f2f\u5e02\u9db4\u898b\u632f\u8208\u5c40", "type": "aed", "is_24h": false}, {"lat": 32.9212, "lon": 131.9758, "name": "\u4f50\u4f2f\u5e02\u7c73\u6c34\u6d25\u632f\u8208\u5c40", "type": "aed", "is_24h": false}, {"lat": 32.7979, "lon": 131.9262, "name": "\u4f50\u4f2f\u5e02\u84b2\u6c5f\u632f\u8208\u5c40", "type": "aed", "is_24h": false}, {"lat": 32.8186, "lon": 131.9634, "name": "\u4f50\u4f2f\u5e02\u84b2\u6c5f\u632f\u8208\u5c40\u3000\u4e0b\u5165\u6d25\u51fa\u5f35\u6240", "type": "aed", "is_24h": false}, {"lat": 32.7927, "lon": 131.8741, "name": "\u4f50\u4f2f\u5e02\u84b2\u6c5f\u632f\u8208\u5c40\u3000\u540d\u8b77\u5c4b\u51fa\u5f35\u6240", "type": "aed", "is_24h": false}, {"lat": 32.8248, "lon": 131.9822, "name": "\u4f50\u4f2f\u5e02\u84b2\u6c5f\u632f\u8208\u5c40\u3000\u897f\u91ce\u6d66\u51fa\u5f35\u6240", "type": "aed", "is_24h": false}, {"lat": 32.9582, "lon": 131.8996, "name": "\u4fdd\u5065\u798f\u7949\u30bb\u30f3\u30bf\u30fc\u3000\u548c\u697d", "type": "aed", "is_24h": false}, {"lat": 32.9708, "lon": 131.834, "name": "\u5f25\u751f\u4fdd\u5065\u30bb\u30f3\u30bf\u30fc", "type": "aed", "is_24h": false}, {"lat": 32.8079, "lon": 131.9285, "name": "\u84b2\u6c5f\u4fdd\u5065\u30bb\u30f3\u30bf\u30fc", "type": "aed", "is_24h": false}, {"lat": 32.919, "lon": 131.9659, "name": "\u7c73\u6c34\u6d25\u6e29\u6c34\u30d7\u30fc\u30eb\u548c", "type": "aed", "is_24h": false}, {"lat": 32.9681, "lon": 131.9039, "name": "\u4f50\u4f2f\u5e02\u6d88\u9632\u672c\u90e8", "type": "aed", "is_24h": false}, {"lat": 32.9608, "lon": 131.8937, "name": "\u4f50\u4f2f\u5e02\u57ce\u4e0b\u753a\u89b3\u5149\u4ea4\u6d41\u9928", "type": "aed", "is_24h": false}, {"lat": 32.9518, "lon": 131.9011, "name": "\u4f50\u4f2f\u5e02\u4f50\u4f2f\u5150\u7ae5\u9928", "type": "aed", "is_24h": false}, {"lat": 32.9687, "lon": 131.8409, "name": "\u4f50\u4f2f\u5e02\u5f25\u751f\u5150\u7ae5\u9928", "type": "aed", "is_24h": false}, {"lat": 32.8079, "lon": 131.9285, "name": "\u4f50\u4f2f\u5e02\u84b2\u6c5f\u5150\u7ae5\u9928", "type": "aed", "is_24h": false}, {"lat": 32.955, "lon": 131.9088, "name": "\u4f50\u4f2f\u5e02\u793e\u4f1a\u798f\u7949\u30bb\u30f3\u30bf\u30fc", "type": "aed", "is_24h": false}, {"lat": 32.9627, "lon": 131.9044, "name": "\u9db4\u8c37\u4e2d\u5b66\u6821", "type": "aed", "is_24h": false}, {"lat": 32.955, "lon": 131.889, "name": "\u4f50\u4f2f\u57ce\u5357\u4e2d\u5b66\u6821", "type": "aed", "is_24h": false}, {"lat": 32.9367, "lon": 131.8873, "name": "\u4f50\u4f2f\u5357\u4e2d\u5b66\u6821", "type": "aed", "is_24h": false}, {"lat": 32.9689, "lon": 131.8421, "name": "\u662d\u548c\u4e2d\u5b66\u6821", "type": "aed", "is_24h": false}, {"lat": 32.9546, "lon": 131.8017, "name": "\u672c\u5320\u4e2d\u5b66\u6821", "type": "aed", "is_24h": false}, {"lat": 32.8584, "lon": 131.6707, "name": "\u5b87\u76ee\u7dd1\u8c4a\u4e2d\u5b66\u6821", "type": "aed", "is_24h": false}, {"lat": 32.897, "lon": 131.7761, "name": "\u76f4\u5ddd\u4e2d\u5b66\u6821", "type": "aed", "is_24h": false}, {"lat": 32.9415, "lon": 131.9654, "name": "\u9db4\u898b\u4e2d\u5b66\u6821", "type": "aed", "is_24h": false}, {"lat": 32.9167, "lon": 131.9806, "name": "\u7c73\u6c34\u6d25\u4e2d\u5b66\u6821", "type": "aed", "is_24h": false}, {"lat": 32.8028, "lon": 131.9423, "name": "\u84b2\u6c5f\u7fd4\u5357\u4e2d\u5b66\u6821", "type": "aed", "is_24h": false}, {"lat": 32.9535, "lon": 131.8055, "name": "\u307b\u3093\u3058\u3087\u3046\u3053\u3069\u3082\u5712", "type": "aed", "is_24h": false}, {"lat": 32.896, "lon": 131.8002, "name": "\u306a\u304a\u304b\u308f\u3053\u3069\u3082\u5712", "type": "aed", "is_24h": false}, {"lat": 32.8636, "lon": 131.6738, "name": "\u3046\u3081\u3053\u3069\u3082\u5712", "type": "aed", "is_24h": false}, {"lat": 32.8079, "lon": 131.9285, "name": "\u304b\u307e\u3048\u3053\u3069\u3082\u5712", "type": "aed", "is_24h": false}, {"lat": 32.9577, "lon": 131.8931, "name": "\u4f50\u4f2f\u5c0f\u5b66\u6821", "type": "aed", "is_24h": false}, {"lat": 32.9647, "lon": 131.8983, "name": "\u4f50\u4f2f\u6771\u5c0f\u5b66\u6821", "type": "aed", "is_24h": false}, {"lat": 32.9584, "lon": 131.9084, "name": "\u6e21\u753a\u53f0\u5c0f\u5b66\u6821", "type": "aed", "is_24h": false}, {"lat": 32.9607, "lon": 131.8751, "name": "\u9db4\u5ca1\u5c0f\u5b66\u6821", "type": "aed", "is_24h": false}, {"lat": 32.9372, "lon": 131.8815, "name": "\u4e0a\u5805\u7530\u5c0f\u5b66\u6821", "type": "aed", "is_24h": false}, {"lat": 32.9248, "lon": 131.8764, "name": "\u4e0b\u5805\u7530\u5c0f\u5b66\u6821", "type": "aed", "is_24h": false}, {"lat": 32.8836, "lon": 131.8732, "name": "\u9752\u5c71\u5c0f\u5b66\u6821", "type": "aed", "is_24h": false}, {"lat": 32.9199, "lon": 131.9311, "name": "\u6728\u7acb\u5c0f\u5b66\u6821", "type": "aed", "is_24h": false}, {"lat": 32.9532, "lon": 131.8377, "name": "\u5207\u7551\u5c0f\u5b66\u6821", "type": "aed", "is_24h": false}, {"lat": 32.9701, "lon": 131.8343, "name": "\u4e0a\u91ce\u5c0f\u5b66\u6821", "type": "aed", "is_24h": false}, {"lat": 32.9546, "lon": 131.8017, "name": "\u672c\u5320\u5c0f\u5b66\u6821", "type": "aed", "is_24h": false}, {"lat": 32.8571, "lon": 131.6733, "name": "\u5b87\u76ee\u7dd1\u8c4a\u5c0f\u5b66\u6821", "type": "aed", "is_24h": false}, {"lat": 32.8976, "lon": 131.7768, "name": "\u76f4\u5ddd\u5c0f\u5b66\u6821", "type": "aed", "is_24h": false}, {"lat": 32.9453, "lon": 131.9617, "name": "\u677e\u6d66\u5c0f\u5b66\u6821", "type": "aed", "is_24h": false}, {"lat": 32.919, "lon": 131.9659, "name": "\u7c73\u6c34\u6d25\u5c0f\u5b66\u6821", "type": "aed", "is_24h": false}, {"lat": 32.8079, "lon": 131.9285, "name": "\u84b2\u6c5f\u7fd4\u5357\u5c0f\u5b66\u6821", "type": "aed", "is_24h": false}, {"lat": 32.8665, "lon": 131.9487, "name": "\u7551\u91ce\u6d66\u4fdd\u80b2\u6240", "type": "aed", "is_24h": false}, {"lat": 32.9556, "lon": 131.8829, "name": "\u3064\u308b\u304a\u304b\u4fdd\u80b2\u6240", "type": "aed", "is_24h": false}, {"lat": 32.9585, "lon": 131.8929, "name": "\u4f50\u4f2f\u5e7c\u7a1a\u5712", "type": "aed", "is_24h": false}, {"lat": 32.9584, "lon": 131.9078, "name": "\u6e21\u753a\u53f0\u5e7c\u7a1a\u5712", "type": "aed", "is_24h": false}, {"lat": 32.9603, "lon": 131.8751, "name": "\u9db4\u5ca1\u5e7c\u7a1a\u5712", "type": "aed", "is_24h": false}, {"lat": 32.9941, "lon": 131.9207, "name": "\u5927\u5165\u5cf6\u5730\u57df\u30b3\u30df\u30e5\u30cb\u30c6\u30a3\u30bb\u30f3\u30bf\u30fc", "type": "aed", "is_24h": false}, {"lat": 32.9519, "lon": 131.7895, "name": "\u672c\u5320\u5730\u57df\u30b3\u30df\u30e5\u30cb\u30c6\u30a3\u30bb\u30f3\u30bf\u30fc", "type": "aed", "is_24h": false}, {"lat": 32.858, "lon": 131.6565, "name": "\u5b87\u76ee\u5730\u57df\u30b3\u30df\u30e5\u30cb\u30c6\u30a3\u30bb\u30f3\u30bf\u30fc", "type": "aed", "is_24h": false}, {"lat": 32.8009, "lon": 131.9219, "name": "\u84b2\u6c5f\u5730\u533a\u516c\u6c11\u9928", "type": "aed", "is_24h": false}, {"lat": 32.9431, "lon": 131.9625, "name": "\u9db4\u898b\u5730\u57df\u30b3\u30df\u30e5\u30cb\u30c6\u30a3\u30bb\u30f3\u30bf\u30fc", "type": "aed", "is_24h": false}, {"lat": 32.9207, "lon": 131.9758, "name": "\u7c73\u6c34\u6d25\u5730\u57df\u30b3\u30df\u30e5\u30cb\u30c6\u30a3\u30bb\u30f3\u30bf\u30fc", "type": "aed", "is_24h": false}, {"lat": 32.7227, "lon": 131.928, "name": "\u6df1\u5cf6\u96c6\u4f1a\u6240", "type": "aed", "is_24h": false}, {"lat": 32.8079, "lon": 131.9285, "name": "\u5c4b\u5f62\u5cf6\u96c6\u4f1a\u6240", "type": "aed", "is_24h": false}, {"lat": 32.9678, "lon": 131.9097, "name": "\u6e21\u753a\u53f0\u5730\u57df\u30b3\u30df\u30e5\u30cb\u30c6\u30a3\u30bb\u30f3\u30bf\u30fc", "type": "aed", "is_24h": false}, {"lat": 32.9525, "lon": 131.8987, "name": "\u4f50\u4f2f\u5730\u533a\u516c\u6c11\u9928", "type": "aed", "is_24h": false}, {"lat": 32.9637, "lon": 131.8771, "name": "\u9db4\u5ca1\u5730\u533a\u516c\u6c11\u9928", "type": "aed", "is_24h": false}, {"lat": 32.924, "lon": 131.9293, "name": "\u6728\u7acb\u5730\u57df\u30b3\u30df\u30e5\u30cb\u30c6\u30a3\u30bb\u30f3\u30bf\u30fc", "type": "aed", "is_24h": false}, {"lat": 32.9382, "lon": 131.882, "name": "\u4e0a\u5805\u7530\u5730\u533a\u516c\u6c11\u9928", "type": "aed", "is_24h": false}, {"lat": 32.926, "lon": 131.8754, "name": "\u4e0b\u5805\u7530\u5730\u57df\u30b3\u30df\u30e5\u30cb\u30c6\u30a3\u30bb\u30f3\u30bf\u30fc", "type": "aed", "is_24h": false}, {"lat": 32.8834, "lon": 131.8719, "name": "\u9752\u5c71\u5730\u57df\u30b3\u30df\u30e5\u30cb\u30c6\u30a3\u30bb\u30f3\u30bf\u30fc", "type": "aed", "is_24h": false}, {"lat": 32.9679, "lon": 131.9036, "name": "\u4f50\u4f2f\u6771\u5730\u533a\u516c\u6c11\u9928", "type": "aed", "is_24h": false}, {"lat": 32.8683, "lon": 131.9731, "name": "\u5c3e\u6d66\u96c6\u4f1a\u6240", "type": "aed", "is_24h": false}, {"lat": 32.9675, "lon": 131.8399, "name": "\u5f25\u751f\u5730\u533a\u516c\u6c11\u9928", "type": "aed", "is_24h": false}, {"lat": 32.8962, "lon": 131.7784, "name": "\u76f4\u5ddd\u5730\u57df\u30b3\u30df\u30e5\u30cb\u30c6\u30a3\u30bb\u30f3\u30bf\u30fc", "type": "aed", "is_24h": false}, {"lat": 32.9526, "lon": 131.8981, "name": "\u4e09\u6d66\u9020\u8239\u4f50\u4f2f\u56f3\u66f8\u9928", "type": "aed", "is_24h": false}, {"lat": 32.9566, "lon": 131.8927, "name": "\u4f50\u4f2f\u5e02\u6b74\u53f2\u8cc7\u6599\u9928", "type": "aed", "is_24h": false}, {"lat": 32.9567, "lon": 131.8934, "name": "\u3055\u3044\u304d\u57ce\u5c71\u3055\u304f\u3089\u30db\u30fc\u30eb", "type": "aed", "is_24h": false}, {"lat": 32.9003, "lon": 131.8473, "name": "\u4f50\u4f2f\u7dcf\u5408\u904b\u52d5\u516c\u5712\u7dcf\u5408\u4f53\u80b2\u9928", "type": "aed", "is_24h": false}, {"lat": 32.9003, "lon": 131.8473, "name": "\u4f50\u4f2f\u7dcf\u5408\u904b\u52d5\u516c\u5712\u5e02\u6c11\u30d7\u30fc\u30eb", "type": "aed", "is_24h": false}, {"lat": 32.9509, "lon": 131.9004, "name": "\u756a\u5320\u4f53\u80b2\u9928", "type": "aed", "is_24h": false}, {"lat": 32.8588, "lon": 131.6982, "name": "\u5b87\u76ee\uff22\uff06\uff27\u6d77\u6d0b\u30bb\u30f3\u30bf\u30fc", "type": "aed", "is_24h": false}, {"lat": 32.8023, "lon": 131.905, "name": "\u84b2\u6c5f\uff22\uff06\uff27\u6d77\u6d0b\u30bb\u30f3\u30bf\u30fc", "type": "aed", "is_24h": false}, {"lat": 32.9375, "lon": 131.9818, "name": "\u9db4\u898b\uff22\uff06\uff27\u6d77\u6d0b\u30bb\u30f3\u30bf\u30fc", "type": "aed", "is_24h": false}, {"lat": 32.896, "lon": 131.8002, "name": "\u30b0\u30ea\u30fc\u30f3\u30d1\u30fc\u30af\u76f4\u5ddd", "type": "aed", "is_24h": false}, {"lat": 32.9003, "lon": 131.8473, "name": "\u4f50\u4f2f\u7403\u5834", "type": "aed", "is_24h": false}, {"lat": 32.9677, "lon": 131.9102, "name": "\u91ce\u5ca1\u4f53\u80b2\u9928", "type": "aed", "is_24h": false}, {"lat": 32.9003, "lon": 131.8473, "name": "\u4f50\u4f2f\u5e02\u7dcf\u5408\u904b\u52d5\u516c\u5712\u5c4b\u5185\u904b\u52d5\u5e83\u5834", "type": "aed", "is_24h": false}, {"lat": 32.8967, "lon": 131.7869, "name": "\u76f4\u5ddd\uff22\uff06\uff27\u6d77\u6d0b\u30bb\u30f3\u30bf\u30fc", "type": "aed", "is_24h": false}, {"lat": 32.8654, "lon": 131.7909, "name": "\u76f4\u5ddd\u9271\u6cc9\u30bb\u30f3\u30bf\u30fc", "type": "aed", "is_24h": false}, {"lat": 32.977, "lon": 131.9043, "name": "\u845b\u6e2f\u5e02\u5834", "type": "aed", "is_24h": false}, {"lat": 32.8018, "lon": 131.9243, "name": "\u9053\u306e\u99c5\u3000\u304b\u307e\u3048", "type": "aed", "is_24h": false}, {"lat": 32.9646, "lon": 131.8387, "name": "\u9053\u306e\u99c5\u3084\u3088\u3044", "type": "aed", "is_24h": false}, {"lat": 32.8035, "lon": 131.6104, "name": "\u9053\u306e\u99c5\u5b87\u76ee", "type": "aed", "is_24h": false}, {"lat": 32.9003, "lon": 131.8473, "name": "\u30bb\u30df\u30ca\u30fc\u30cf\u30a6\u30b9\u306f\u3050\u304f\u307f", "type": "aed", "is_24h": false}, {"lat": 32.8703, "lon": 131.7844, "name": "\u76f4\u5ddd\u61a9\u3044\u306e\u68ee\u516c\u5712", "type": "aed", "is_24h": false}, {"lat": 32.9212, "lon": 131.9761, "name": "\u56fd\u6c11\u5065\u5eb7\u4fdd\u967a\u7c73\u6c34\u6d25\u8a3a\u7642\u6240", "type": "aed", "is_24h": false}, {"lat": 32.9276, "lon": 131.7125, "name": "\u56fd\u6c11\u5065\u5eb7\u4fdd\u967a\u56e0\u5c3e\u8a3a\u7642\u6240", "type": "aed", "is_24h": false}, {"lat": 32.9423, "lon": 131.9627, "name": "\u56fd\u6c11\u5065\u5eb7\u4fdd\u967a\u9db4\u898b\u8a3a\u7642\u6240", "type": "aed", "is_24h": false}, {"lat": 32.9975, "lon": 131.9239, "name": "\u56fd\u6c11\u5065\u5eb7\u4fdd\u967a\u5927\u5165\u5cf6\u8a3a\u7642\u6240", "type": "aed", "is_24h": false}, {"lat": 32.9454, "lon": 131.9562, "name": "\u9db4\u898b\u6e2f\u5e02\u5834", "type": "aed", "is_24h": false}, {"lat": 32.9698, "lon": 131.9121, "name": "\u4f50\u4f2f\u5e02\u5e73\u548c\u7948\u5ff5\u9928\u3084\u308f\u3089\u304e", "type": "aed", "is_24h": false}, {"lat": 32.8707, "lon": 131.6279, "name": "\u3075\u308c\u3042\u3044\u30bb\u30f3\u30bf\u30fc\u5b87\u76ee", "type": "aed", "is_24h": false}, {"lat": 32.9559, "lon": 131.8935, "name": "\u4f50\u4f2f\u5927\u624b\u524d\u60c5\u5831\u767a\u4fe1\u9928", "type": "aed", "is_24h": false}, {"lat": 32.9784, "lon": 131.9021, "name": "\u304a\u304a\u3057\u307e\u2161", "type": "aed", "is_24h": false}, {"lat": 32.9681, "lon": 131.9106, "name": "\u5927\u5206\u5730\u65b9\u6cd5\u52d9\u5c40\u4f50\u4f2f\u652f\u5c40", "type": "aed", "is_24h": false}, {"lat": 32.9643, "lon": 131.3865, "name": "\u5927\u5206\u770c\u8c4a\u80a5\u632f\u8208\u5c40", "type": "aed", "is_24h": false}, {"lat": 32.9732, "lon": 131.3972, "name": "\u7389\u6765\u30c0\u30e0\u5efa\u8a2d\u4e8b\u52d9\u6240", "type": "aed", "is_24h": false}, {"lat": 32.968, "lon": 131.3983, "name": "\u7af9\u7530\u9ad8\u7b49\u5b66\u6821", "type": "aed", "is_24h": false}, {"lat": 32.9501, "lon": 131.3709, "name": "\u7af9\u7530\u652f\u63f4\u5b66\u6821", "type": "aed", "is_24h": false}, {"lat": 32.9612, "lon": 131.3826, "name": "\u7af9\u7530\u8b66\u5bdf\u7f72", "type": "aed", "is_24h": false}, {"lat": 32.9732, "lon": 131.3984, "name": "\u7af9\u7530\u5e02\u5f79\u6240\u3000\u672c\u5e81", "type": "aed", "is_24h": false}, {"lat": 32.924, "lon": 131.3142, "name": "\u7af9\u7530\u5e02\u5f79\u6240\u3000\u837b\u652f\u6240", "type": "aed", "is_24h": false}, {"lat": 32.9731, "lon": 131.3984, "name": "\u7af9\u7530\u5e02\u7dcf\u5408\u793e\u4f1a\u798f\u7949\u30bb\u30f3\u30bf\u30fc", "type": "aed", "is_24h": false}, {"lat": 32.9736, "lon": 131.3874, "name": "\u7af9\u7530\u5e02\u6d88\u9632\u672c\u90e8", "type": "aed", "is_24h": false}, {"lat": 32.9822, "lon": 131.3888, "name": "\u7af9\u7530\u4e2d\u5b66\u6821", "type": "aed", "is_24h": false}, {"lat": 32.9739, "lon": 131.3995, "name": "\u7af9\u7530\u5c0f\u5b66\u6821", "type": "aed", "is_24h": false}, {"lat": 32.9679, "lon": 131.3839, "name": "\u8c4a\u5ca1\u5c0f\u5b66\u6821", "type": "aed", "is_24h": false}, {"lat": 32.9358, "lon": 131.3843, "name": "\u7956\u5cf0\u5c0f\u5b66\u6821", "type": "aed", "is_24h": false}, {"lat": 32.956, "lon": 131.2861, "name": "\u83c5\u751f\u5c0f\u5b66\u6821", "type": "aed", "is_24h": false}, {"lat": 32.9916, "lon": 131.3374, "name": "\u57ce\u539f\u5c0f\u5b66\u6821", "type": "aed", "is_24h": false}, {"lat": 32.9219, "lon": 131.2957, "name": "\u837b\u5c0f\u5b66\u6821", "type": "aed", "is_24h": false}, {"lat": 32.9743, "lon": 131.4002, "name": "\u7af9\u7530\u4fdd\u80b2\u6240", "type": "aed", "is_24h": false}, {"lat": 32.9218, "lon": 131.2977, "name": "\u837b\u3052\u3093\u304d\u3053\u3069\u3082\u5712", "type": "aed", "is_24h": false}, {"lat": 32.9677, "lon": 131.3952, "name": "\u7af9\u7530\u5e7c\u7a1a\u5712", "type": "aed", "is_24h": false}, {"lat": 32.9284, "lon": 131.2921, "name": "\u837b\u4e2d\u592e\u516c\u6c11\u9928", "type": "aed", "is_24h": false}, {"lat": 32.8977, "lon": 131.3646, "name": "\u3042\u7956\u6bcd\u5b66\u820e", "type": "aed", "is_24h": false}, {"lat": 32.895, "lon": 131.3306, "name": "\u5bae\u7825\u5206\u9928", "type": "aed", "is_24h": false}, {"lat": 32.9657, "lon": 131.3936, "name": "\u7af9\u7530\u5e02\u6b74\u53f2\u6587\u5316\u9928", "type": "aed", "is_24h": false}, {"lat": 32.9716, "lon": 131.3914, "name": "\u7af9\u7530\u6e29\u6cc9\u300c\u82b1\u6c34\u6708\u300d", "type": "aed", "is_24h": false}, {"lat": 32.9679, "lon": 131.396, "name": "\u7af9\u7530\u5e02\u7acb\u56f3\u66f8\u9928", "type": "aed", "is_24h": false}, {"lat": 32.96, "lon": 131.3843, "name": "\u30b0\u30e9\u30f3\u30c4\u7af9\u7530", "type": "aed", "is_24h": false}, {"lat": 32.9803, "lon": 131.3885, "name": "\u7af9\u7530\u7dcf\u5408\u5b66\u9662", "type": "aed", "is_24h": false}, {"lat": 32.9608, "lon": 131.3881, "name": "\u7af9\u7530\u5e02\u7dcf\u5408\u904b\u52d5\u516c\u5712", "type": "aed", "is_24h": false}, {"lat": 32.9566, "lon": 131.2941, "name": "\u9053\u306e\u99c5\u3059\u3054\u3046", "type": "aed", "is_24h": false}, {"lat": 32.9856, "lon": 131.3405, "name": "\u9053\u306e\u99c5\u7af9\u7530", "type": "aed", "is_24h": false}, {"lat": 32.9646, "lon": 131.3869, "name": "\u7af9\u7530\u5e02\u7acb\u3053\u3069\u3082\u8a3a\u7642\u6240", "type": "aed", "is_24h": false}, {"lat": 32.9672, "lon": 131.4031, "name": "\u5ca1\u57ce\u962f\u6599\u91d1\u5fb4\u53ce\u6240", "type": "aed", "is_24h": false}, {"lat": 32.8685, "lon": 131.364, "name": "\u795e\u306e\u91cc\u4ea4\u6d41\u30bb\u30f3\u30bf\u30fc\u7dd2\u74b0", "type": "aed", "is_24h": false}, {"lat": 32.9568, "lon": 131.2872, "name": "\u83c5\u751f\u653e\u8ab2\u5f8c\u5150\u7ae5\u30af\u30e9\u30d6", "type": "aed", "is_24h": false}, {"lat": 32.9471, "lon": 131.3625, "name": "\u7af9\u7530\u5e02\u846c\u796d\u5834\u3000\u6d44\u5149\u5712", "type": "aed", "is_24h": false}, {"lat": 32.9734, "lon": 131.3968, "name": "\u7af9\u7530\u7a0e\u52d9\u7f72", "type": "aed", "is_24h": false}, {"lat": 32.9658, "lon": 131.3941, "name": "\u7af9\u7530\u7c21\u6613\u88c1\u5224\u6240", "type": "aed", "is_24h": false}, {"lat": 32.9733, "lon": 131.3954, "name": "\u5927\u5206\u5730\u65b9\u6cd5\u52d9\u5c40\u7af9\u7530\u652f\u5c40", "type": "aed", "is_24h": false}, {"lat": 32.9757, "lon": 131.581, "name": "\u8c4a\u80a5\u4fdd\u5065\u6240", "type": "aed", "is_24h": false}, {"lat": 32.9782, "lon": 131.5839, "name": "\u8c4a\u5f8c\u5927\u91ce\u571f\u6728\u4e8b\u52d9\u6240", "type": "aed", "is_24h": false}, {"lat": 32.9897, "lon": 131.5931, "name": "\u5927\u5206\u770c\u7acb\u8fb2\u696d\u5927\u5b66\u6821", "type": "aed", "is_24h": false}, {"lat": 32.9732, "lon": 131.5812, "name": "\u4e09\u91cd\u7dcf\u5408\u9ad8\u7b49\u5b66\u6821", "type": "aed", "is_24h": false}, {"lat": 32.9771, "lon": 131.5881, "name": "\u8c4a\u5f8c\u5927\u91ce\u8b66\u5bdf\u7f72", "type": "aed", "is_24h": false}, {"lat": 32.9783, "lon": 131.5852, "name": "\u8c4a\u5f8c\u5927\u91ce\u5e02\u5f79\u6240\u672c\u5e81\u820e\uff11\u968e", "type": "aed", "is_24h": false}, {"lat": 32.9719, "lon": 131.5163, "name": "\u8c4a\u5f8c\u5927\u91ce\u5e02\u5f79\u6240\u6e05\u5ddd\u652f\u6240", "type": "aed", "is_24h": false}, {"lat": 32.9688, "lon": 131.4892, "name": "\u8c4a\u5f8c\u5927\u91ce\u5e02\u5f79\u6240\u7dd2\u65b9\u652f\u6240", "type": "aed", "is_24h": false}, {"lat": 32.9775, "lon": 131.5841, "name": "\u6d88\u9632\u672c\u90e8", "type": "aed", "is_24h": false}, {"lat": 32.9698, "lon": 131.4538, "name": "\u6d88\u9632\u7f72\u5357\u5206\u7f72", "type": "aed", "is_24h": false}, {"lat": 32.9761, "lon": 131.5848, "name": "\u8c4a\u5f8c\u5927\u91ce\u5e02\u56f3\u66f8\u9928", "type": "aed", "is_24h": false}, {"lat": 32.9778, "lon": 131.5899, "name": "\u4e09\u91cd\u4e2d\u5b66\u6821", "type": "aed", "is_24h": false}, {"lat": 32.9529, "lon": 131.5116, "name": "\u6e05\u5ddd\u4e2d\u5b66\u6821", "type": "aed", "is_24h": false}, {"lat": 32.9792, "lon": 131.4631, "name": "\u7dd2\u65b9\u4e2d\u5b66\u6821", "type": "aed", "is_24h": false}, {"lat": 32.9779, "lon": 131.5798, "name": "\u4e09\u91cd\u7b2c\u4e00\u5c0f\u5b66\u6821", "type": "aed", "is_24h": false}, {"lat": 32.9897, "lon": 131.6098, "name": "\u4e09\u91cd\u6771\u5c0f\u5b66\u6821", "type": "aed", "is_24h": false}, {"lat": 32.9703, "lon": 131.5587, "name": "\u65b0\u7530\u5c0f\u5b66\u6821", "type": "aed", "is_24h": false}, {"lat": 32.9675, "lon": 131.5141, "name": "\u6e05\u5ddd\u5c0f\u5b66\u6821", "type": "aed", "is_24h": false}, {"lat": 32.9726, "lon": 131.4734, "name": "\u7dd2\u65b9\u5c0f\u5b66\u6821", "type": "aed", "is_24h": false}, {"lat": 32.9719, "lon": 131.5163, "name": "\u8c4a\u5f8c\u5927\u91ce\u5e02\u795e\u697d\u4f1a\u9928", "type": "aed", "is_24h": false}, {"lat": 32.9717, "lon": 131.4705, "name": "\u7dd2\u65b9\u516c\u6c11\u9928", "type": "aed", "is_24h": false}, {"lat": 32.9759, "lon": 131.5841, "name": "\u30a8\u30a4\u30c8\u30d4\u30a2\u304a\u304a\u306e", "type": "aed", "is_24h": false}, {"lat": 32.9766, "lon": 131.5849, "name": "\u4e09\u91cd\u4f53\u80b2\u9928", "type": "aed", "is_24h": false}, {"lat": 32.9898, "lon": 131.5854, "name": "\u5927\u539f\u7dcf\u5408\u4f53\u80b2\u9928", "type": "aed", "is_24h": false}, {"lat": 32.9885, "lon": 131.5885, "name": "\u4e09\u91cd\u7dcf\u5408\u30b0\u30e9\u30a6\u30f3\u30c9\u7ba1\u7406\u68df", "type": "aed", "is_24h": false}, {"lat": 32.9905, "lon": 131.5827, "name": "\u30b5\u30f3\u30b9\u30dd\u30fc\u30c4\u30e9\u30f3\u30c9\u307f\u3048\u7ba1\u7406\u68df", "type": "aed", "is_24h": false}, {"lat": 32.9543, "lon": 131.5083, "name": "\u6e05\u5ddd\u7dcf\u5408\u30b0\u30e9\u30f3\u30c9", "type": "aed", "is_24h": false}, {"lat": 32.9762, "lon": 131.4684, "name": "\u7dd2\u65b9\u7dcf\u5408\u904b\u52d5\u516c\u5712\u7ba1\u7406\u5ba4", "type": "aed", "is_24h": false}, {"lat": 32.9716, "lon": 131.518, "name": "\u9053\u306e\u99c5\u304d\u3088\u304b\u308f", "type": "aed", "is_24h": false}, {"lat": 32.9657, "lon": 131.4522, "name": "\u9053\u306e\u99c5\u539f\u5c3b\u306e\u6edd", "type": "aed", "is_24h": false}, {"lat": 32.8254, "lon": 131.3918, "name": "\u7956\u6bcd\u5c71\u9e93\u5c3e\u5e73\u9752\u5c11\u5e74\u65c5\u884c\u6751", "type": "aed", "is_24h": false}, {"lat": 32.9768, "lon": 131.5853, "name": "\u8c4a\u5f8c\u5927\u91ce\u5e02\u8cc7\u6599\u9928(\u30b8\u30aa\u30d1\u30fc\u30af\u30df\u30e5\u30fc\u30b8\u30a2\u30e0)", "type": "aed", "is_24h": false}, {"lat": 32.97, "lon": 131.4759, "name": "\u8c4a\u5f8c\u5927\u91ce\u5e02\u6c11\u75c5\u9662", "type": "aed", "is_24h": false}, {"lat": 32.9776, "lon": 131.5841, "name": "\u5730\u57df\u5305\u62ec\u30b1\u30a2\u62e0\u70b9\u65bd\u8a2d\u3072\u306a\u305f\u307c\u3063\u3053", "type": "aed", "is_24h": false}, {"lat": 32.9631, "lon": 131.5205, "name": "\u4e95\u5d0e\u6cb3\u5ddd\u516c\u5712\u30ad\u30e3\u30f3\u30d7\u5834", "type": "aed", "is_24h": false}, {"lat": 32.9861, "lon": 131.5885, "name": "\u4e09\u91cd\u5168\u5929\u5019\u578b\u904b\u52d5\u5834", "type": "aed", "is_24h": false}, {"lat": 32.9679, "lon": 131.3839, "name": "\u65e5\u51fa\u753a\u7acb\u8c4a\u5ca1\u5c0f\u5b66\u6821", "type": "aed", "is_24h": false}, {"lat": 32.4229, "lon": 131.6245, "name": "aed", "type": "aed", "is_24h": false}, {"lat": 32.4227, "lon": 131.6237, "name": "aed", "type": "aed", "is_24h": false}, {"lat": 32.4276, "lon": 131.6009, "name": "aed", "type": "aed", "is_24h": false}, {"lat": 32.4225, "lon": 131.6246, "name": "aed", "type": "aed", "is_24h": false}, {"lat": 32.4225, "lon": 131.6244, "name": "aed", "type": "aed", "is_24h": false}, {"lat": 32.4267, "lon": 131.6278, "name": "aed", "type": "aed", "is_24h": false}, {"lat": 32.4302, "lon": 131.6234, "name": "aed", "type": "aed", "is_24h": false}, {"lat": 32.4252, "lon": 131.628, "name": "aed", "type": "aed", "is_24h": false}, {"lat": 32.4291, "lon": 131.6229, "name": "aed", "type": "aed", "is_24h": false}, {"lat": 32.4221, "lon": 131.6237, "name": "aed", "type": "aed", "is_24h": false}, {"lat": 32.4219, "lon": 131.6235, "name": "aed", "type": "aed", "is_24h": false}, {"lat": 32.42, "lon": 131.6271, "name": "aed", "type": "aed", "is_24h": false}, {"lat": 32.42, "lon": 131.627, "name": "aed", "type": "aed", "is_24h": false}, {"lat": 32.4228, "lon": 131.6226, "name": "aed", "type": "aed", "is_24h": false}, {"lat": 32.4224, "lon": 131.6245, "name": "aed", "type": "aed", "is_24h": false}, {"lat": 32.4224, "lon": 131.6244, "name": "aed", "type": "aed", "is_24h": false}, {"lat": 32.4221, "lon": 131.6163, "name": "aed", "type": "aed", "is_24h": false}, {"lat": 32.429, "lon": 131.6025, "name": "aed", "type": "aed", "is_24h": false}, {"lat": 32.4089, "lon": 131.6046, "name": "aed", "type": "aed", "is_24h": false}, {"lat": 32.4183, "lon": 131.6024, "name": "aed", "type": "aed", "is_24h": false}, {"lat": 32.4197, "lon": 131.5995, "name": "aed", "type": "aed", "is_24h": false}, {"lat": 32.4136, "lon": 131.6032, "name": "aed", "type": "aed", "is_24h": false}, {"lat": 32.4045, "lon": 131.6171, "name": "aed", "type": "aed", "is_24h": false}, {"lat": 32.3785, "lon": 131.6305, "name": "aed", "type": "aed", "is_24h": false}, {"lat": 32.3996, "lon": 131.626, "name": "aed", "type": "aed", "is_24h": false}, {"lat": 32.4062, "lon": 131.6162, "name": "aed", "type": "aed", "is_24h": false}, {"lat": 32.4124, "lon": 131.6232, "name": "aed", "type": "aed", "is_24h": false}, {"lat": 32.3957, "lon": 131.6323, "name": "aed", "type": "aed", "is_24h": false}, {"lat": 32.3971, "lon": 131.6343, "name": "aed", "type": "aed", "is_24h": false}, {"lat": 32.419, "lon": 131.669, "name": "aed", "type": "aed", "is_24h": false}, {"lat": 32.4142, "lon": 131.6525, "name": "aed", "type": "aed", "is_24h": false}, {"lat": 32.4248, "lon": 131.6511, "name": "aed", "type": "aed", "is_24h": false}, {"lat": 32.4189, "lon": 131.6388, "name": "aed", "type": "aed", "is_24h": false}, {"lat": 32.4191, "lon": 131.6362, "name": "aed", "type": "aed", "is_24h": false}, {"lat": 32.4244, "lon": 131.6433, "name": "aed", "type": "aed", "is_24h": false}, {"lat": 32.4384, "lon": 131.6345, "name": "aed", "type": "aed", "is_24h": false}, {"lat": 32.4383, "lon": 131.6325, "name": "aed", "type": "aed", "is_24h": false}, {"lat": 32.4192, "lon": 131.6409, "name": "aed", "type": "aed", "is_24h": false}, {"lat": 32.4371, "lon": 131.6365, "name": "aed", "type": "aed", "is_24h": false}, {"lat": 32.4448, "lon": 131.6353, "name": "aed", "type": "aed", "is_24h": false}, {"lat": 32.4445, "lon": 131.6372, "name": "aed", "type": "aed", "is_24h": false}, {"lat": 32.4256, "lon": 131.6532, "name": "aed", "type": "aed", "is_24h": false}, {"lat": 32.4269, "lon": 131.6614, "name": "aed", "type": "aed", "is_24h": false}, {"lat": 32.4228, "lon": 131.6842, "name": "aed", "type": "aed", "is_24h": false}, {"lat": 32.4275, "lon": 131.6632, "name": "aed", "type": "aed", "is_24h": false}, {"lat": 32.4212, "lon": 131.6766, "name": "aed", "type": "aed", "is_24h": false}, {"lat": 32.4245, "lon": 131.6596, "name": "aed", "type": "aed", "is_24h": false}, {"lat": 32.3698, "lon": 131.6281, "name": "aed", "type": "aed", "is_24h": false}, {"lat": 32.3699, "lon": 131.6295, "name": "aed", "type": "aed", "is_24h": false}, {"lat": 32.3563, "lon": 131.6216, "name": "aed", "type": "aed", "is_24h": false}, {"lat": 32.3732, "lon": 131.6336, "name": "aed", "type": "aed", "is_24h": false}, {"lat": 32.3434, "lon": 131.6243, "name": "aed", "type": "aed", "is_24h": false}, {"lat": 32.3474, "lon": 131.6251, "name": "aed", "type": "aed", "is_24h": false}, {"lat": 32.3428, "lon": 131.627, "name": "aed", "type": "aed", "is_24h": false}, {"lat": 32.3373, "lon": 131.6112, "name": "aed", "type": "aed", "is_24h": false}, {"lat": 32.3301, "lon": 131.6088, "name": "aed", "type": "aed", "is_24h": false}, {"lat": 32.3302, "lon": 131.5912, "name": "aed", "type": "aed", "is_24h": false}, {"lat": 32.3284, "lon": 131.6048, "name": "aed", "type": "aed", "is_24h": false}, {"lat": 32.3367, "lon": 131.6092, "name": "aed", "type": "aed", "is_24h": false}, {"lat": 32.3387, "lon": 131.5549, "name": "aed", "type": "aed", "is_24h": false}, {"lat": 32.3957, "lon": 131.6323, "name": "aed", "type": "aed", "is_24h": false}, {"lat": 32.3935, "lon": 131.5319, "name": "aed", "type": "aed", "is_24h": false}, {"lat": 32.3907, "lon": 131.5205, "name": "aed", "type": "aed", "is_24h": false}, {"lat": 32.3912, "lon": 131.5134, "name": "aed", "type": "aed", "is_24h": false}, {"lat": 32.361, "lon": 131.4625, "name": "aed", "type": "aed", "is_24h": false}, {"lat": 32.393, "lon": 131.5151, "name": "aed", "type": "aed", "is_24h": false}, {"lat": 32.3158, "lon": 131.5832, "name": "aed", "type": "aed", "is_24h": false}, {"lat": 32.3914, "lon": 131.5194, "name": "aed", "type": "aed", "is_24h": false}, {"lat": 32.3635, "lon": 131.4508, "name": "aed", "type": "aed", "is_24h": false}, {"lat": 32.3147, "lon": 131.5816, "name": "aed", "type": "aed", "is_24h": false}, {"lat": 32.3919, "lon": 131.5304, "name": "aed", "type": "aed", "is_24h": false}, {"lat": 32.3909, "lon": 131.5124, "name": "aed", "type": "aed", "is_24h": false}, {"lat": 32.3959, "lon": 131.5414, "name": "aed", "type": "aed", "is_24h": false}, {"lat": 32.3485, "lon": 131.387, "name": "aed", "type": "aed", "is_24h": false}, {"lat": 32.8154, "lon": 131.0512, "name": "aed", "type": "aed", "is_24h": false}, {"lat": 32.8191, "lon": 131.0413, "name": "aed", "type": "aed", "is_24h": false}, {"lat": 32.8188, "lon": 131.0415, "name": "aed", "type": "aed", "is_24h": false}, {"lat": 32.8207, "lon": 131.0363, "name": "aed", "type": "aed", "is_24h": false}, {"lat": 32.8143, "lon": 131.0283, "name": "aed", "type": "aed", "is_24h": false}, {"lat": 32.8197, "lon": 131.0316, "name": "aed", "type": "aed", "is_24h": false}, {"lat": 32.8199, "lon": 131.0316, "name": "aed", "type": "aed", "is_24h": false}, {"lat": 32.8208, "lon": 131.0317, "name": "aed", "type": "aed", "is_24h": false}, {"lat": 32.8221, "lon": 131.0317, "name": "aed", "type": "aed", "is_24h": false}, {"lat": 32.8236, "lon": 131.0943, "name": "aed", "type": "aed", "is_24h": false}, {"lat": 32.8246, "lon": 131.0819, "name": "aed", "type": "aed", "is_24h": false}, {"lat": 32.8271, "lon": 131.0829, "name": "aed", "type": "aed", "is_24h": false}, {"lat": 32.8611, "lon": 131.0046, "name": "aed", "type": "aed", "is_24h": false}, {"lat": 32.8268, "lon": 131.0814, "name": "aed", "type": "aed", "is_24h": false}, {"lat": 32.8268, "lon": 131.0814, "name": "aed", "type": "aed", "is_24h": false}, {"lat": 32.8271, "lon": 131.0729, "name": "aed", "type": "aed", "is_24h": false}, {"lat": 32.8269, "lon": 131.0729, "name": "aed", "type": "aed", "is_24h": false}, {"lat": 32.8203, "lon": 131.0715, "name": "aed", "type": "aed", "is_24h": false}, {"lat": 32.8581, "lon": 131.0009, "name": "aed", "type": "aed", "is_24h": false}, {"lat": 32.8588, "lon": 131.0013, "name": "aed", "type": "aed", "is_24h": false}, {"lat": 32.8353, "lon": 131.0694, "name": "aed", "type": "aed", "is_24h": false}, {"lat": 32.858, "lon": 131.0018, "name": "aed", "type": "aed", "is_24h": false}, {"lat": 32.8487, "lon": 131.0124, "name": "aed", "type": "aed", "is_24h": false}, {"lat": 32.849, "lon": 131.0114, "name": "aed", "type": "aed", "is_24h": false}, {"lat": 32.8451, "lon": 131.0177, "name": "aed", "type": "aed", "is_24h": false}, {"lat": 32.8451, "lon": 131.0176, "name": "aed", "type": "aed", "is_24h": false}, {"lat": 32.7077, "lon": 131.306, "name": "aed", "type": "aed", "is_24h": false}, {"lat": 32.6661, "lon": 131.7046, "name": "aed", "type": "aed", "is_24h": false}, {"lat": 32.7147, "lon": 131.3068, "name": "aed", "type": "aed", "is_24h": false}, {"lat": 32.9278, "lon": 131.8074, "name": "\u76f4\u898b", "type": "station", "is_24h": false}, {"lat": 32.6641, "lon": 131.6999, "name": "\u65e5\u5411\u9577\u4e95", "type": "station", "is_24h": false}, {"lat": 32.6903, "lon": 131.6976, "name": "\u5317\u5ddd", "type": "station", "is_24h": false}, {"lat": 32.728, "lon": 131.7102, "name": "\u5e02\u68da", "type": "station", "is_24h": false}, {"lat": 32.6307, "lon": 131.69, "name": "\u5317\u5ef6\u5ca1", "type": "station", "is_24h": false}, {"lat": 32.8986, "lon": 131.7794, "name": "\u76f4\u5ddd", "type": "station", "is_24h": false}, {"lat": 32.8404, "lon": 131.7157, "name": "\u91cd\u5ca1", "type": "station", "is_24h": false}, {"lat": 32.9728, "lon": 131.5234, "name": "\u8c4a\u5f8c\u6e05\u5ddd", "type": "station", "is_24h": false}, {"lat": 32.9422, "lon": 131.0437, "name": "\u5185\u7267", "type": "station", "is_24h": false}, {"lat": 32.9371, "lon": 131.1178, "name": "\u5bae\u5730", "type": "station", "is_24h": false}, {"lat": 32.9367, "lon": 131.0949, "name": "\u3044\u3053\u3044\u306e\u6751", "type": "station", "is_24h": false}, {"lat": 32.9282, "lon": 131.008, "name": "\u5e02\u30ce\u5ddd", "type": "station", "is_24h": false}, {"lat": 32.9374, "lon": 131.0801, "name": "\u963f\u8607", "type": "station", "is_24h": false}, {"lat": 32.7147, "lon": 131.3066, "name": "\u9ad8\u5343\u7a42", "type": "station", "is_24h": false}, {"lat": 32.8342, "lon": 131.0402, "name": "\u5357\u963f\u8607\u6c34\u306e\u751f\u307e\u308c\u308b\u91cc\u767d\u6c34\u9ad8\u539f", "type": "station", "is_24h": false}, {"lat": 32.8542, "lon": 131.004, "name": "\u9577\u967d", "type": "station", "is_24h": false}, {"lat": 32.8443, "lon": 131.0246, "name": "\u963f\u8607\u4e0b\u7530\u57ce\u3075\u308c\u3042\u3044\u6e29\u6cc9", "type": "station", "is_24h": false}, {"lat": 32.8223, "lon": 131.0842, "name": "\u963f\u8607\u767d\u5ddd", "type": "station", "is_24h": false}, {"lat": 32.8275, "lon": 131.0535, "name": "\u4e2d\u677e", "type": "station", "is_24h": false}, {"lat": 32.8475, "lon": 131.0102, "name": "\u52a0\u52e2", "type": "station", "is_24h": false}, {"lat": 32.8193, "lon": 131.1225, "name": "\u9ad8\u68ee", "type": "station", "is_24h": false}, {"lat": 32.8175, "lon": 131.1098, "name": "\u898b\u6674\u53f0", "type": "station", "is_24h": false}, {"lat": 32.8222, "lon": 131.0916, "name": "\u5357\u963f\u8607\u767d\u5ddd\u6c34\u6e90", "type": "station", "is_24h": false}, {"lat": 32.0723, "lon": 131.5015, "name": "\u65e5\u5411\u65b0\u5bcc", "type": "station", "is_24h": false}, {"lat": 32.5595, "lon": 131.6769, "name": "\u5357\u5ef6\u5ca1", "type": "station", "is_24h": false}, {"lat": 32.9838, "lon": 131.5843, "name": "\u4e09\u91cd\u753a", "type": "station", "is_24h": false}, {"lat": 32.5898, "lon": 131.6723, "name": "\u5ef6\u5ca1", "type": "station", "is_24h": false}, {"lat": 32.786, "lon": 131.7069, "name": "\u5b97\u592a\u90ce", "type": "station", "is_24h": false}, {"lat": 32.5078, "lon": 131.675, "name": "\u571f\u3005\u5442", "type": "station", "is_24h": false},