[{"lat": 34.9462, "lon": 127.5015, "name": "\uc21c\ucc9c\uacbd\ucc30\uc11c \uc5ed\uc804\ud30c\ucd9c\uc18c", "type": "police_station", "is_24h": true}, {"lat": 34.9708, "lon": 127.5911, "name": "\uad11\uc591\uacbd\ucc30\uc11c \uc74d\ub0b4\uc9c0\uad6c\ub300", "type": "police_station", "is_24h": true}, {"lat": 34.9493, "lon": 127.8601, "name": "\ud558\ub3d9\uacbd\ucc30\uc11c \uae08\ub0a8\ud30c\ucd9c\uc18c", "type": "police_station", "is_24h": true}, {"lat": 34.966, "lon": 127.7932, "name": "\ud558\ub3d9\uacbd\ucc30\uc11c \uae08\uc131\ud30c\ucd9c\uc18c", "type": "police_station", "is_24h": true}, {"lat": 34.8398, "lon": 127.8971, "name": "\ub0a8\ud574\uacbd\ucc30\uc11c \uc911\uc559\uc9c0\uad6c\ub300", "type": "police_station", "is_24h": true}, {"lat": 34.7248, "lon": 127.9849, "name": "\uc0c1\uc8fc\uce58\uc548\uc13c\ud130", "type": "police_station", "is_24h": true}, {"lat": 34.7993, "lon": 127.9557, "name": "\uc774\ub3d9\uce58\uc548\uc13c\ud130", "type": "police_station", "is_24h": true}, {"lat": 34.8704, "lon": 127.1863, "name": "\uacb8\ubc31\ud30c\ucd9c\uc18c \uc728\uc5b4\uce58\uc548\uc13c\ud130", "type": "police_station", "is_24h": true}, {"lat": 34.9293, "lon": 127.1716, "name": "\ubcf5\ub0b4\ud30c\ucd9c\uc18c \ubb38\ub355\uce58\uc548\uc13c\ud130", "type": "police_station", "is_24h": true}, {"lat": 34.7802, "lon": 127.2008, "name": "\ubcf4\uc131\uacbd\ucc30\uc11c \uc608\ub2f9\ud30c\ucd9c\uc18c", "type": "police_station", "is_24h": true}, {"lat": 34.8924, "lon": 127.1323, "name": "\ubcf4\uc131\uacbd\ucc30\uc11c \ubcf5\ub0b4\ud30c\ucd9c\uc18c", "type": "police_station", "is_24h": true}, {"lat": 34.7983, "lon": 127.0711, "name": "\ubbf8\ub825\ud30c\ucd9c\uc18c \ub178\ub3d9\uce58\uc548\uc13c\ud130", "type": "police_station", "is_24h": true}, {"lat": 34.8772, "lon": 127.3098, "name": "\ubc8c\uad50\ud30c\ucd9c\uc18c \ub099\uc131\uce58\uc548\uc13c\ud130", "type": "police_station", "is_24h": true}, {"lat": 34.6773, "lon": 127.3617, "name": "\uace0\ud765\uacbd\ucc30\uc11c \uacfc\uc5ed\ud30c\ucd9c\uc18c", "type": "police_station", "is_24h": true}, {"lat": 34.528, "lon": 127.1356, "name": "\uace0\ud765\uacbd\ucc30\uc11c \ub179\ub3d9\ud30c\ucd9c\uc18c", "type": "police_station", "is_24h": true}, {"lat": 34.7281, "lon": 127.3387, "name": "\ub0a8\uc591\uce58\uc548\uc13c\ud130", "type": "police_station", "is_24h": true}, {"lat": 34.5659, "lon": 127.1761, "name": "\ub3c4\ub355\uce58\uc548\uc13c\ud130", "type": "police_station", "is_24h": true}, {"lat": 34.9732, "lon": 127.2642, "name": "\uc21c\ucc9c\uacbd\ucc30\uc11c \uc1a1\uad11\ud30c\ucd9c\uc18c", "type": "police_station", "is_24h": true}, {"lat": 34.6729, "lon": 127.0918, "name": "\ubcf4\uc131\uacbd\ucc30\uc11c \ud68c\ucc9c\ud30c\ucd9c\uc18c", "type": "police_station", "is_24h": true}, {"lat": 34.9472, "lon": 127.5181, "name": "\uc21c\ucc9c\uacbd\ucc30\uc11c \uc5f0\ud5a5\ud30c\ucd9c\uc18c", "type": "police_station", "is_24h": true}, {"lat": 34.9471, "lon": 127.4882, "name": "\uc21c\ucc9c\uacbd\ucc30\uc11c \ub0a8\ubb38\ud30c\ucd9c\uc18c", "type": "police_station", "is_24h": true}, {"lat": 34.9774, "lon": 127.0006, "name": "\ud55c\ucc9c\uce58\uc548\uc13c\ud130", "type": "police_station", "is_24h": true}, {"lat": 34.5698, "lon": 127.3411, "name": "\uace0\ud765\uacbd\ucc30\uc11c \ud3ec\ub450\ud30c\ucd9c\uc18c", "type": "police_station", "is_24h": true}, {"lat": 34.6542, "lon": 127.3797, "name": "\uace0\ud765\uacbd\ucc30\uc11c \uc810\uc554\ud30c\ucd9c\uc18c", "type": "police_station", "is_24h": true}, {"lat": 34.6087, "lon": 127.2878, "name": "\uace0\ud765\uacbd\ucc30\uc11c \uc74d\ub0b4\ud30c\ucd9c\uc18c", "type": "police_station", "is_24h": true}, {"lat": 34.6026, "lon": 127.4525, "name": "\uace0\ud765\uacbd\ucc30\uc11c \uc601\ub0a8\ud30c\ucd9c\uc18c", "type": "police_station", "is_24h": true}, {"lat": 34.7806, "lon": 127.3332, "name": "\uace0\ud765\uacbd\ucc30\uc11c \ub3d9\uac15\ud30c\ucd9c\uc18c", "type": "police_station", "is_24h": true}, {"lat": 34.51, "lon": 127.3195, "name": "\uace0\ud765\uacbd\ucc30\uc11c \ub3c4\ud654\ud30c\ucd9c\uc18c", "type": "police_station", "is_24h": true}, {"lat": 34.7712, "lon": 127.2838, "name": "\uace0\ud765\uacbd\ucc30\uc11c \ub300\uc11c\ud30c\ucd9c\uc18c", "type": "police_station", "is_24h": true}, {"lat": 34.4569, "lon": 127.1229, "name": "\uace0\ud765\uacbd\ucc30\uc11c \uae08\uc0b0\ud30c\ucd9c\uc18c", "type": "police_station", "is_24h": true}, {"lat": 34.5761, "lon": 127.2436, "name": "\uace0\ud765\uacbd\ucc30\uc11c \ud48d\uc591\ud30c\ucd9c\uc18c", "type": "police_station", "is_24h": true}, {"lat": 34.9896, "lon": 127.6983, "name": "\uad11\uc591\uacbd\ucc30\uc11c \uc625\uace1\ud30c\ucd9c\uc18c", "type": "police_station", "is_24h": true}, {"lat": 34.8074, "lon": 127.2451, "name": "\ubcf4\uc131\uacbd\ucc30\uc11c \uc870\uc131\ud30c\ucd9c\uc18c", "type": "police_station", "is_24h": true}, {"lat": 34.7764, "lon": 127.0892, "name": "\ubcf4\uc131\uacbd\ucc30\uc11c \uc74d\ub0b4\ud30c\ucd9c\uc18c", "type": "police_station", "is_24h": true}, {"lat": 34.8002, "lon": 127.0875, "name": "\ubcf4\uc131\uacbd\ucc30\uc11c \ubbf8\ub825\ud30c\ucd9c\uc18c", "type": "police_station", "is_24h": true}, {"lat": 34.8289, "lon": 127.1529, "name": "\ubcf4\uc131\uacbd\ucc30\uc11c \uacb8\ubc31\ud30c\ucd9c\uc18c", "type": "police_station", "is_24h": true}, {"lat": 34.6194, "lon": 127.6405, "name": "\uc5ec\uc218\uacbd\ucc30\uc11c \ud654\uc815\ud30c\ucd9c\uc18c", "type": "police_station", "is_24h": true}, {"lat": 34.7084, "lon": 127.6136, "name": "\uc5ec\uc218\uacbd\ucc30\uc11c \ud654\uc591\ud30c\ucd9c\uc18c", "type": "police_station", "is_24h": true}, {"lat": 34.8836, "lon": 127.5778, "name": "\uc5ec\uc218\uacbd\ucc30\uc11c \uc728\ucd0c\ud30c\ucd9c\uc18c", "type": "police_station", "is_24h": true}, {"lat": 34.617, "lon": 127.7218, "name": "\uc5ec\uc218\uacbd\ucc30\uc11c \ub3cc\uc0b0\ud30c\ucd9c\uc18c", "type": "police_station", "is_24h": true}, {"lat": 34.5087, "lon": 127.7684, "name": "\uc5ec\uc218\uacbd\ucc30\uc11c \ub0a8\uba74\ud30c\ucd9c\uc18c", "type": "police_station", "is_24h": true}, {"lat": 34.9148, "lon": 127.5368, "name": "\uc21c\ucc9c\uacbd\ucc30\uc11c \ud574\ub8e1\ud30c\ucd9c\uc18c", "type": "police_station", "is_24h": true}, {"lat": 34.3486, "lon": 127.0296, "name": "\uc644\ub3c4\uacbd\ucc30\uc11c \uae08\uc77c\ud30c\ucd9c\uc18c", "type": "police_station", "is_24h": true}, {"lat": 34.4296, "lon": 127.072, "name": "\uc644\ub3c4\uacbd\ucc30\uc11c \uae08\ub2f9\ud30c\ucd9c\uc18c", "type": "police_station", "is_24h": true}, {"lat": 34.9722, "lon": 127.4829, "name": "\uc21c\ucc9c\uacbd\ucc30\uc11c \uc0bc\uc0b0\ud30c\ucd9c\uc18c", "type": "police_station", "is_24h": true}, {"lat": 34.9648, "lon": 127.485, "name": "\uc21c\ucc9c\uacbd\ucc30\uc11c \ubd81\ubb38\ud30c\ucd9c\uc18c", "type": "police_station", "is_24h": true}, {"lat": 34.8757, "lon": 127.4542, "name": "\uc21c\ucc9c\uacbd\ucc30\uc11c \ubcc4\ub7c9\ud30c\ucd9c\uc18c", "type": "police_station", "is_24h": true}, {"lat": 34.9069, "lon": 127.3447, "name": "\uc21c\ucc9c\uacbd\ucc30\uc11c \ub099\uc548\ud30c\ucd9c\uc18c", "type": "police_station", "is_24h": true}, {"lat": 34.7712, "lon": 127.8872, "name": "\ub0a8\ud574\uacbd\ucc30\uc11c \ub0a8\uba74\ud30c\ucd9c\uc18c", "type": "police_station", "is_24h": true}, {"lat": 34.8979, "lon": 127.8721, "name": "\ub0a8\ud574\uacbd\ucc30\uc11c \uace0\ud604\ud30c\ucd9c\uc18c", "type": "police_station", "is_24h": true}, {"lat": 34.8394, "lon": 127.8933, "name": "\uacbd\ub0a8 \ub0a8\ud574\uacbd\ucc30\uc11c", "type": "police_station", "is_24h": true}, {"lat": 34.7963, "lon": 127.7362, "name": "\ud574\uc591\uacbd\ucc30\uad50\uc721\uc6d0", "type": "police_station", "is_24h": true}, {"lat": 34.7179, "lon": 127.992, "name": "police_station", "type": "police_station", "is_24h": true}, {"lat": 34.7555, "lon": 127.7064, "name": "\uc5ec\uc218\ud574\uc591\uacbd\ucc30\uc11c", "type": "police_station", "is_24h": true}, {"lat": 34.7538, "lon": 127.7275, "name": "\uad11\ubb34\ud30c\ucd9c\uc18c", "type": "police_station", "is_24h": true}, {"lat": 34.0256, "lon": 127.3114, "name": "\uc5ec\uc218\uacbd\ucc30\uc11c \uc0bc\uc0b0\ud30c\ucd9c\uc18c", "type": "police_station", "is_24h": true}, {"lat": 34.4638, "lon": 127.4579, "name": "\uace0\ud765\uacbd\ucc30\uc11c \ubd09\ub798\ud30c\ucd9c\uc18c", "type": "police_station", "is_24h": true}, {"lat": 34.4662, "lon": 127.4536, "name": "\ud574\uacbd", "type": "police_station", "is_24h": true}, {"lat": 34.6112, "lon": 127.2845, "name": "\uc804\ub0a8 \uace0\ud765\uacbd\ucc30\uc11c", "type": "police_station", "is_24h": true}, {"lat": 34.9471, "lon": 127.5272, "name": "\uc21c\ucc9c\uacbd\ucc30\uc11c \uae08\ub2f9\uc9c0\uad6c\ub300", "type": "police_station", "is_24h": true}, {"lat": 34.9356, "lon": 127.4902, "name": "\uc21c\ucc9c\uacbd\ucc30\uc11c \ub0a8\ub3c4\ud30c\ucd9c\uc18c", "type": "police_station", "is_24h": true}, {"lat": 34.8448, "lon": 127.3444, "name": "\ubcf4\uc131\uacbd\ucc30\uc11c \ubc8c\uad50\ud30c\ucd9c\uc18c", "type": "police_station", "is_24h": true}, {"lat": 34.9691, "lon": 127.5227, "name": "\uc21c\ucc9c\uacbd\ucc30\uc11c \uc655\uc870\uc9c0\uad6c\ub300", "type": "police_station", "is_24h": true}, {"lat": 34.7409, "lon": 127.7405, "name": "\uc804\ub0a8 \uc5ec\uc218\uacbd\ucc30\uc11c", "type": "police_station", "is_24h": true}, {"lat": 34.759, "lon": 127.656, "name": "\ud30c\ucd9c\uc18c \uc548\uc0b0\uce58\uc548\uc13c\ud130", "type": "police_station", "is_24h": true}, {"lat": 34.8148, "lon": 127.4108, "name": "\uc5ec\uc218\ud574\uc591\uacbd\ucc30\uc11c \ubc8c\uad50\ucd9c\uc7a5\uc18c", "type": "police_station", "is_24h": true}, {"lat": 34.7662, "lon": 127.7021, "name": "\ubbf8\ud3c9\ud30c\ucd9c\uc18c", "type": "police_station", "is_24h": true}, {"lat": 34.9394, "lon": 127.6941, "name": "\uad11\uc591\uacbd\ucc30\uc11c \uc911\ub9c8\uc9c0\uad6c\ub300", "type": "police_station", "is_24h": true}, {"lat": 34.9622, "lon": 127.7192, "name": "\uad11\uc591\uacbd\ucc30\uc11c \uad11\uc601\ud30c\ucd9c\uc18c", "type": "police_station", "is_24h": true}, {"lat": 34.9418, "lon": 127.7511, "name": "\uad11\uc591\uacbd\ucc30\uc11c \ud0dc\uae08\ud30c\ucd9c\uc18c", "type": "police_station", "is_24h": true}, {"lat": 34.7515, "lon": 127.7052, "name": "\uc5ec\ubb38\ud30c\ucd9c\uc18c", "type": "police_station", "is_24h": true}, {"lat": 34.9632, "lon": 127.6019, "name": "\uc804\ub0a8 \uad11\uc591\uacbd\ucc30\uc11c", "type": "police_station", "is_24h": true}, {"lat": 34.7701, "lon": 127.082, "name": "\uc804\ub0a8 \ubcf4\uc131\uacbd\ucc30\uc11c", "type": "police_station", "is_24h": true}, {"lat": 34.9718, "lon": 127.4819, "name": "\uc804\ub0a8 \uc21c\ucc9c\uacbd\ucc30\uc11c", "type": "police_station", "is_24h": true}, {"lat": 34.8394, "lon": 127.8933, "name": "\uacbd\ub0a8 \ub0a8\ud574\uacbd\ucc30\uc11c", "type": "police_station", "is_24h": true}, {"lat": 34.7595, "lon": 127.6753, "name": "\uc2e0\uae30\ud30c\ucd9c\uc18c", "type": "police_station", "is_24h": true}, {"lat": 34.7472, "lon": 127.6582, "name": "\uc5ec\uc218\ud574\uc591\uacbd\ucc30\uc11c \uc18c\ud638\ucd9c\uc7a5\uc18c", "type": "police_station", "is_24h": true}, {"lat": 34.7637, "lon": 127.6649, "name": "\uc30d\ubd09\uc9c0\uad6c\ub300", "type": "police_station", "is_24h": true}, {"lat": 34.7276, "lon": 127.5613, "name": "\uc5ec\uc218\ud574\uc591\uacbd\ucc30\uc11c \uac10\ub3c4\ucd9c\uc7a5\uc18c", "type": "police_station", "is_24h": true}, {"lat": 34.7747, "lon": 127.6421, "name": "\ubb34\uc120\uce58\uc548\uc13c\ud130", "type": "police_station", "is_24h": true}, {"lat": 34.7211, "lon": 127.7045, "name": "\uc5ec\uc218\ud574\uc591\uacbd\ucc30\uc11c \uc2e0\uc6d4\ucd9c\uc7a5\uc18c", "type": "police_station", "is_24h": true}, {"lat": 34.7247, "lon": 127.7121, "name": "\uc5ec\uc218\ud574\uc591\uacbd\ucc30\uc11c \uad6d\ub3d9\ucd9c\uc7a5\uc18c", "type": "police_station", "is_24h": true}, {"lat": 34.7292, "lon": 127.7168, "name": "\uc5ec\uc218\ud574\uc591\uacbd\ucc30\uc11c \uc784\uc2dc\uccad\uc0ac", "type": "police_station", "is_24h": true}, {"lat": 34.7263, "lon": 127.7213, "name": "\ud574\uc591\uacbd\ucc30\uc11c \uc5ec\uc218\ubc14\ub2e4\ud30c\ucd9c\uc18c", "type": "police_station", "is_24h": true}, {"lat": 34.7277, "lon": 127.7138, "name": "\uad6d\ub3d9\uce58\uc548\uc13c\ud130", "type": "police_station", "is_24h": true}, {"lat": 34.7311, "lon": 127.7228, "name": "\ubd09\uc0b0\ud30c\ucd9c\uc18c", "type": "police_station", "is_24h": true}, {"lat": 34.7373, "lon": 127.7306, "name": "\ub0a8\uc0b0\ud30c\ucd9c\uc18c", "type": "police_station", "is_24h": true}, {"lat": 34.7378, "lon": 127.7439, "name": "\uc5ec\uc218\ud574\uc591\uacbd\ucc30\uc11c \uc911\uc559\ucd9c\uc7a5\uc18c", "type": "police_station", "is_24h": true}, {"lat": 34.7406, "lon": 127.7426, "name": "\ub3d9\ubb38\ud30c\ucd9c\uc18c", "type": "police_station", "is_24h": true}, {"lat": 34.7452, "lon": 127.7479, "name": "\uc911\uc559\ud30c\ucd9c\uc18c", "type": "police_station", "is_24h": true}, {"lat": 34.7745, "lon": 127.7448, "name": "\ub9cc\ud765\ud30c\ucd9c\uc18c", "type": "police_station", "is_24h": true}, {"lat": 34.7981, "lon": 127.6311, "name": "\uc18c\ub77c\ud30c\ucd9c\uc18c", "type": "police_station", "is_24h": true}, {"lat": 34.8266, "lon": 127.6872, "name": "\uc0bc\uc77c\ud30c\ucd9c\uc18c", "type": "police_station", "is_24h": true}, {"lat": 34.7308, "lon": 127.7372, "name": "\ub300\uad50\uce58\uc548\uc13c\ud130", "type": "police_station", "is_24h": true}, {"lat": 34.7305, "lon": 127.7373, "name": "\ub300\uad50\uce58\uc548\uc13c\ud130", "type": "police_station", "is_24h": true}, {"lat": 34.7178, "lon": 127.7234, "name": "\ub300\uacbd\uce58\uc548\uc13c\ud130", "type": "police_station", "is_24h": true}, {"lat": 34.7282, "lon": 127.3387, "name": "police_station", "type": "police_station", "is_24h": true}, {"lat": 34.576, "lon": 127.2436, "name": "police_station", "type": "police_station", "is_24h": true}, {"lat": 34.913, "lon": 127.3246, "name": "\uc21c\ucc9c\uc740\ubcd1\uc6d0", "type": "hospital", "is_24h": false}, {"lat": 34.9547, "lon": 127.5234, "name": "\ubc31\ub450\ud55c\uc758\uc6d0", "type": "hospital", "is_24h": false}, {"lat": 34.9515, "lon": 127.4844, "name": "\uc21c\ucc9c\uc911\uc559\ubcd1\uc6d0", "type": "hospital", "is_24h": false}, {"lat": 34.9531, "lon": 127.5195, "name": "\ud568\uc18c\uc544\ud55c\uc758\uc6d0", "type": "hospital", "is_24h": false}, {"lat": 34.9607, "lon": 127.5254, "name": "\uc21c\ucc9c\uc7ac\ud65c\uacf5\ud559\uc5f0\uad6c\uc18c", "type": "hospital", "is_24h": false}, {"lat": 34.9542, "lon": 127.5264, "name": "\uc81c\uc77c\ube44\ub1e8\uae30\uacfc", "type": "hospital", "is_24h": false}, {"lat": 34.9534, "lon": 127.4841, "name": "\uc1a1\ube44\ub1e8\uae30\uacfc\uc758\uc6d0", "type": "hospital", "is_24h": false}, {"lat": 34.9524, "lon": 127.5173, "name": "\uc138\ub780\uc758\uc6d0", "type": "hospital", "is_24h": false}, {"lat": 34.9514, "lon": 127.4833, "name": "\ubc15\uc740\uc9c4\uc131\ud615\uc678\uacfc\uc758\uc6d0", "type": "hospital", "is_24h": false}, {"lat": 34.9606, "lon": 127.5182, "name": "\ubbf8\ub798\ub85c\uc5f0\ud569\uc18c\uc544\uacfc", "type": "hospital", "is_24h": false}, {"lat": 34.9604, "lon": 127.5208, "name": "\ud64d\ubb38\uc678\uacfc\uc758\uc6d0", "type": "hospital", "is_24h": false}, {"lat": 34.946, "lon": 127.5246, "name": "\uc11c\uc6b8\uc815\ud615\uc678\uacfc\uc758\uc6d0", "type": "hospital", "is_24h": false}, {"lat": 34.9477, "lon": 127.4876, "name": "\ud55c\uc804\uad6d\ub9c8\ucde8\ud1b5\uc99d\uc758\ud559\uacfc\uc758\uc6d0", "type": "hospital", "is_24h": false}, {"lat": 34.9538, "lon": 127.5184, "name": "\uc131\ubaa8\uc548\uacfc\uc758\uc6d0", "type": "hospital", "is_24h": false}, {"lat": 34.9505, "lon": 127.4845, "name": "\uc21c\ucc9c\uc548\uacfc\uc758\uc6d0", "type": "hospital", "is_24h": false}, {"lat": 34.9566, "lon": 127.4844, "name": "\uc11c\uc548\uacfc", "type": "hospital", "is_24h": false}, {"lat": 34.9475, "lon": 127.4877, "name": "\uad7f\ubaa8\ub2dd\ub77c\uc2dd\uc218\uc220\uc13c\ud130", "type": "hospital", "is_24h": false}, {"lat": 34.9452, "lon": 127.4908, "name": "\uc21c\ucc9c\uc131\ubaa8\uc758\uc6d0", "type": "hospital", "is_24h": false}, {"lat": 34.9716, "lon": 127.5212, "name": "\uc5f4\ub9b0\uc758\uc6d0", "type": "hospital", "is_24h": false}, {"lat": 34.9443, "lon": 127.4938, "name": "\uc784\ub0b4\uacfc\uc758\uc6d0", "type": "hospital", "is_24h": false}, {"lat": 34.9479, "lon": 127.4863, "name": "\uc21c\ucc9c\uc2e0\uacbd\uc678\uacfc", "type": "hospital", "is_24h": false}, {"lat": 34.9537, "lon": 127.5182, "name": "\ud30c\ud2f0\ub9c8\uc131\ud615\uc678\uacfc\uc758\uc6d0", "type": "hospital", "is_24h": false}, {"lat": 34.9528, "lon": 127.5176, "name": "\uc138\ube0c\ub780\uc2a4\uc131\ud615\uc678\uacfc", "type": "hospital", "is_24h": false}, {"lat": 34.9526, "lon": 127.4842, "name": "\uae40\uc885\uc601\uc774\ube44\uc778\ud6c4\uacfc", "type": "hospital", "is_24h": false}, {"lat": 34.9541, "lon": 127.5192, "name": "\uc870\uc724\ud5a5\ud53c\ubd80\uacfc", "type": "hospital", "is_24h": false}, {"lat": 34.9568, "lon": 127.4832, "name": "\ubb38\uc678\uacfc", "type": "hospital", "is_24h": false}, {"lat": 34.9518, "lon": 127.4835, "name": "\ubc15\uacbd\ucca0\uc678\uacfc", "type": "hospital", "is_24h": false}, {"lat": 34.94, "lon": 127.504, "name": "\uc0ac\ub791\uc758\uc6d0", "type": "hospital", "is_24h": false}, {"lat": 34.9511, "lon": 127.5215, "name": "\ucd5c\uc601\uc8fc\uc0b0\ubd80\uc778\uacfc", "type": "hospital", "is_24h": false}, {"lat": 34.9552, "lon": 127.4837, "name": "\ubc15\uc21c\ud658\uc0b0\ubd80\uc778\uacfc", "type": "hospital", "is_24h": false}, {"lat": 34.946, "lon": 127.5001, "name": "\uac15\ub0a8\uc0b0\ubd80\uc778\uacfc", "type": "hospital", "is_24h": false}, {"lat": 34.952, "lon": 127.5169, "name": "\uc624\ubcd1\uc6d0\uc885\ud569\uac80\uc9c4\uc13c\ud0c0", "type": "hospital", "is_24h": false}, {"lat": 34.9475, "lon": 127.4877, "name": "\uae40\ud53c\ubd80\uacfc\uc758\uc6d0", "type": "hospital", "is_24h": false}, {"lat": 34.9605, "lon": 127.5204, "name": "\ud50c\ub7ec\uc2a4\uc18c\uc544\uccad\uc18c\ub144\uacfc\uc758\uc6d0", "type": "hospital", "is_24h": false}, {"lat": 34.9518, "lon": 127.4836, "name": "\ub9c8\ub514\ucc99\uc564\ucf54\ubc30\ud55c\uc758\uc6d0", "type": "hospital", "is_24h": false}, {"lat": 34.9507, "lon": 127.4842, "name": "\ucd5c\ub3d9\uc900\ub0b4\uacfc\uc758\uc6d0", "type": "hospital", "is_24h": false}, {"lat": 34.9589, "lon": 127.4838, "name": "\uc131\ub0b4\uacfc\uc758\uc6d0", "type": "hospital", "is_24h": false}, {"lat": 34.9433, "lon": 127.5029, "name": "\ud55c\uad6d\ud65c\ubc95", "type": "hospital", "is_24h": false}, {"lat": 34.9477, "lon": 127.4875, "name": "\ub0a8\uc21c\ucc9c\uc758\uc6d0", "type": "hospital", "is_24h": false}, {"lat": 34.9524, "lon": 127.517, "name": "\ub3d9\uc21c\ucc9c\ub0b4\uacfc", "type": "hospital", "is_24h": false}, {"lat": 34.9552, "lon": 127.4842, "name": "\uac15\ub0b4\uacfc\uc758\uc6d0", "type": "hospital", "is_24h": false}, {"lat": 34.948, "lon": 127.4872, "name": "\uc6b0\ub9ac\ub0b4\uacfc", "type": "hospital", "is_24h": false}, {"lat": 34.961, "lon": 127.5182, "name": "\uc724\ucda9\ud604\uc18c\uc544\uacfc", "type": "hospital", "is_24h": false}, {"lat": 34.9417, "lon": 127.5034, "name": "\uc911\uc559\uac00\uc815\uc758\ud559\uacfc\uc758\uc6d0", "type": "hospital", "is_24h": false}, {"lat": 34.9575, "lon": 127.4844, "name": "\uc870\uac15\ud638\uc774\ube44\uc778\ud6c4\uacfc", "type": "hospital", "is_24h": false}, {"lat": 34.9518, "lon": 127.4834, "name": "\uc9c0\uac01\uc6b4\ub3d9\ud559\uc2b5\uc388\ud0c0", "type": "hospital", "is_24h": false}, {"lat": 34.9738, "lon": 127.4938, "name": "\ud55c\uc0ac\ub791\uc758\uc6d0", "type": "hospital", "is_24h": false}, {"lat": 34.9545, "lon": 127.4842, "name": "\uc131\ubbf8\uc758\uc6d0", "type": "hospital", "is_24h": false}, {"lat": 34.9481, "lon": 127.4896, "name": "\uc870\uc720\uc9c4\uc0b0\ubd80\uc778\uacfc\uc758\uc6d0", "type": "hospital", "is_24h": false}, {"lat": 34.9493, "lon": 127.4921, "name": "\uc815\uc6a9\ud638\ub0b4\uacfc\uc758\uc6d0", "type": "hospital", "is_24h": false}, {"lat": 34.9462, "lon": 127.4898, "name": "\uc2e0\ub0b4\uacfc\uc758\uc6d0", "type": "hospital", "is_24h": false}, {"lat": 34.9372, "lon": 127.4887, "name": "\uc815\uc885\uc2b9\uac00\uc815\uc758\ud559\uacfc\uc758\uc6d0", "type": "hospital", "is_24h": false}, {"lat": 34.9541, "lon": 127.5193, "name": "\ud558\ube44\uc131\ud615\uc678\uacfc", "type": "hospital", "is_24h": false}, {"lat": 34.9504, "lon": 127.485, "name": "\uace0\ub824\uc758\uc6d0", "type": "hospital", "is_24h": false}, {"lat": 34.9633, "lon": 127.4843, "name": "\ud55c\ub9c8\uc74c\uc2e0\uacbd\uc678\uacfc\uc758\uc6d0", "type": "hospital", "is_24h": false}, {"lat": 34.9605, "lon": 127.5201, "name": "\uc608\uc2a4\uc774\ube44\uc778\ud6c4\uacfc", "type": "hospital", "is_24h": false}, {"lat": 34.9538, "lon": 127.518, "name": "\uace0\uae08\uc11d\uc774\ube44\uc778\ud6c4\uacfc", "type": "hospital", "is_24h": false}, {"lat": 34.9534, "lon": 127.532, "name": "\ub958\uc774\ube44\uc778\ud6c4\uacfc", "type": "hospital", "is_24h": false}, {"lat": 34.9461, "lon": 127.4906, "name": "\uc5f0\uc138\ub9c8\ucde8\ud1b5\uc99d\uc758\ud559\uacfc\uc758\uc6d0", "type": "hospital", "is_24h": false}, {"lat": 34.9497, "lon": 127.5281, "name": "\ub298\ud478\ub978\uc758\uc6d0", "type": "hospital", "is_24h": false}, {"lat": 34.9516, "lon": 127.4841, "name": "\uc774\ubc31\ud604\uc2e0\uacbd\uc678\uacfc\uc758\uc6d0", "type": "hospital", "is_24h": false}, {"lat": 34.9561, "lon": 127.4839, "name": "\uc21c\ucc9c\uc2e0\uacbd\uc815\uc2e0\uacfc", "type": "hospital", "is_24h": false}, {"lat": 34.9514, "lon": 127.4833, "name": "\uc774\uc9c0\uc131\uc0b0\ubd80\uc778\uacfc", "type": "hospital", "is_24h": false}, {"lat": 34.9542, "lon": 127.5193, "name": "\ud669\uc778\uc6a9\uc2e0\uacbd\uacfc\uc758\uc6d0", "type": "hospital", "is_24h": false}, {"lat": 34.9603, "lon": 127.5208, "name": "\ubaa8\ub450\ud3b8\ud55c\ub0b4\uacfc\ubc29\uc0ac\uc120\uacfc", "type": "hospital", "is_24h": false}, {"lat": 34.954, "lon": 127.5192, "name": "\ud669\uc778\uc6a9\uc2e0\uacbd\uc678\uacfc\uc758\uc6d0", "type": "hospital", "is_24h": false}, {"lat": 34.9372, "lon": 127.4887, "name": "\ud604\ub300\uc758\uc6d0", "type": "hospital", "is_24h": false}, {"lat": 34.9442, "lon": 127.502, "name": "(\uc758\ub8cc\ubc95\uc778)\uc544\uc2dc\uc544\uc758\ub8cc\uc7ac\ub2e8", "type": "hospital", "is_24h": false}, {"lat": 34.9524, "lon": 127.4841, "name": "\uc21c\ucc9c\ubc29\uc0ac\uc120\uacfc", "type": "hospital", "is_24h": false}, {"lat": 34.9552, "lon": 127.4844, "name": "\uc131\uc2ec\uc774\ube44\uc778\ud6c4\uacfc\uc758\uc6d0", "type": "hospital", "is_24h": false}, {"lat": 34.9576, "lon": 127.4844, "name": "\uae40\ud559\uc120\ud53c\ubd80\ube44\ub1e8\uae30\uacfc\uc758\uc6d0", "type": "hospital", "is_24h": false}, {"lat": 34.9522, "lon": 127.5153, "name": "\uae40\uc6a9\uc8fc\uc815\ud615\uc678\uacfc", "type": "hospital", "is_24h": false}, {"lat": 34.9541, "lon": 127.5265, "name": "\ucd5c\uc885\uc625\uc815\ud615\uc678\uacfc", "type": "hospital", "is_24h": false}, {"lat": 34.9547, "lon": 127.5183, "name": "\ubc1d\uc740\ub9c8\uc744\uc815\uc2e0\uacfc\uc758\uc6d0", "type": "hospital", "is_24h": false}, {"lat": 34.9448, "lon": 127.5023, "name": "\uc815\ud68c\uc815\uc678\uacfc\uc758\uc6d0", "type": "hospital", "is_24h": false}, {"lat": 34.9453, "lon": 127.5243, "name": "\ucd5c\uc885\uc601\uc2e0\uacbd\uc815\uc2e0\uacfc\uc758\uc6d0", "type": "hospital", "is_24h": false}, {"lat": 34.946, "lon": 127.5, "name": "\ub3d9\ubd80\uc678\uacfc\uc758\uc6d0", "type": "hospital", "is_24h": false}, {"lat": 34.9604, "lon": 127.5208, "name": "\uc784\uc8fc\uc601\ud53c\ubd80\uacfc\uc758\uc6d0", "type": "hospital", "is_24h": false}, {"lat": 34.9513, "lon": 127.5095, "name": "\ucc38\uc0ac\ub791\uc758\uc6d0", "type": "hospital", "is_24h": false}, {"lat": 34.9429, "lon": 127.4487, "name": "\uc0c1\uc0ac\ubcf4\uac74\uc9c0\uc18c", "type": "hospital", "is_24h": false}, {"lat": 34.962, "lon": 127.4841, "name": "\uc21c\ucc9c\ub3d9\uac15\uc758\uc6d0", "type": "hospital", "is_24h": false}, {"lat": 34.9401, "lon": 127.504, "name": "\uc18c\ub098\ubb34\ud55c\uc758\uc6d0", "type": "hospital", "is_24h": false}, {"lat": 34.9493, "lon": 127.4859, "name": "\ucd5c\ud55c\uc758\uc6d0", "type": "hospital", "is_24h": false}, {"lat": 34.9734, "lon": 127.2646, "name": "\uc1a1\uad11\ubcf4\uac74\uc9c0\uc18c", "type": "hospital", "is_24h": false}, {"lat": 34.9589, "lon": 127.5177, "name": "\uc218\uc0dd\ub2f9\ud55c\uc758\uc6d0", "type": "hospital", "is_24h": false}, {"lat": 34.9771, "lon": 127.4825, "name": "\ud55c\uc0ac\ub791\ud55c\uc758\uc6d0", "type": "hospital", "is_24h": false}, {"lat": 34.9535, "lon": 127.5271, "name": "\ubcf5\uc74c\uc758\uc6d0", "type": "hospital", "is_24h": false}, {"lat": 34.9527, "lon": 127.5164, "name": "\uace0\ub824\ud55c\uc758\uc6d0", "type": "hospital", "is_24h": false}, {"lat": 34.8713, "lon": 127.4506, "name": "\ub0a8\ubd80\uc758\uc6d0", "type": "hospital", "is_24h": false}, {"lat": 34.9435, "lon": 127.5028, "name": "\uae40\ud55c\uc758\uc6d0", "type": "hospital", "is_24h": false}, {"lat": 34.9525, "lon": 127.5171, "name": "\ubb38\uaddc\uc900\ud55c\uc758\uc6d0", "type": "hospital", "is_24h": false}, {"lat": 34.9585, "lon": 127.4845, "name": "\uc790\uba85\ud55c\uc758\uc6d0", "type": "hospital", "is_24h": false}, {"lat": 34.9617, "lon": 127.5179, "name": "\uc0bc\uc131\uc758\uc6d0", "type": "hospital", "is_24h": false}, {"lat": 34.9549, "lon": 127.5259, "name": "\uc774\uac00\ud55c\uc57d\uad6d", "type": "hospital", "is_24h": false}, {"lat": 34.9462, "lon": 127.4898, "name": "\ud3c9\uac15\ud55c\uc758\uc6d0", "type": "hospital", "is_24h": false}, {"lat": 34.9471, "lon": 127.5285, "name": "\ub3d9\uc758\ubcf4\uac10", "type": "hospital", "is_24h": false}, {"lat": 34.9705, "lon": 127.5213, "name": "\uc774\uc6d0\uc784\uc0c1\uac80\uc0ac\uc13c\ud130", "type": "hospital", "is_24h": false}, {"lat": 34.874, "lon": 127.4524, "name": "\ubcc4\ub7c9\ubcf4\uac74\uc9c0\uc18c", "type": "hospital", "is_24h": false}, {"lat": 34.9584, "lon": 127.4845, "name": "\uc6b0\ub9ac\ud55c\uc758\uc6d0", "type": "hospital", "is_24h": false}, {"lat": 34.9405, "lon": 127.5092, "name": "\uccad\ub2f4\ud55c\uc758\uc6d0", "type": "hospital", "is_24h": false}, {"lat": 34.9444, "lon": 127.5018, "name": "\uae40\uc9c4\ub9cc\ud55c\uc758\uc6d0", "type": "hospital", "is_24h": false}, {"lat": 34.9462, "lon": 127.4935, "name": "\uc870\ud55c\uc758\uc6d0", "type": "hospital", "is_24h": false}, {"lat": 34.944, "lon": 127.5251, "name": "\ud61c\uc6d0\ub9d0\uc5b8\uc5b4\uc5f0\uad6c\uc18c", "type": "hospital", "is_24h": false}, {"lat": 34.9456, "lon": 127.5269, "name": "\uc911\uc559\ud55c\uc758\uc6d0", "type": "hospital", "is_24h": false}, {"lat": 34.951, "lon": 127.4827, "name": "\uc601\uc77c\ud55c\uc758\uc6d0", "type": "hospital", "is_24h": false}, {"lat": 34.953, "lon": 127.4815, "name": "\ubc31\ucd08\ub2f9\ud55c\uc758\uc6d0", "type": "hospital", "is_24h": false}, {"lat": 34.9535, "lon": 127.4863, "name": "\uacbd\ud76c\ud55c\uc758\uc6d0", "type": "hospital", "is_24h": false}, {"lat": 34.8574, "lon": 127.4854, "name": "\ud559\uc0b0\ubcf4\uac74\uc9c4\ub8cc", "type": "hospital", "is_24h": false}, {"lat": 34.9427, "lon": 127.5064, "name": "\ub355\uc778\ub2f9\ud55c\uc57d\uad6d", "type": "hospital", "is_24h": false}, {"lat": 34.9944, "lon": 127.4887, "name": "\uc11c\uba74\ubcf4\uac74\uc9c0\uc18c", "type": "hospital", "is_24h": false}, {"lat": 34.9485, "lon": 127.5245, "name": "\ud55c\ub9c8\uc74c\ud55c\uc57d\uad6d", "type": "hospital", "is_24h": false}, {"lat": 34.9082, "lon": 127.3391, "name": "\ub099\uc548\ubcf4\uac74\uc9c0\uc18c", "type": "hospital", "is_24h": false}, {"lat": 34.9524, "lon": 127.4841, "name": "\ud604\ub300\ud55c\uc758\uc6d0", "type": "hospital", "is_24h": false}, {"lat": 34.9398, "lon": 127.5041, "name": "\ub300\uba85\ud55c\ubc29\ud55c\uc57d\uad6d", "type": "hospital", "is_24h": false}, {"lat": 34.9466, "lon": 127.4922, "name": "\uad11\uba85\ub2f9\ud55c\uc57d\uad6d", "type": "hospital", "is_24h": false}, {"lat": 34.9612, "lon": 127.5178, "name": "\ub2e4\uc19c\ud55c\uc758\uc6d0", "type": "hospital", "is_24h": false}, {"lat": 34.9564, "lon": 127.4843, "name": "\uc21c\ucc9c\ud55c\uc758\uc6d0", "type": "hospital", "is_24h": false}, {"lat": 34.9556, "lon": 127.5321, "name": "\uc11c\uc218\ud658\ud55c\uc758\uc6d0", "type": "hospital", "is_24h": false}, {"lat": 34.9473, "lon": 127.4879, "name": "\uae08\uac15\ud55c\uc758\uc6d0", "type": "hospital", "is_24h": false}, {"lat": 34.939, "lon": 127.5268, "name": "\ub098\uc740\ud55c\uc758\uc6d0", "type": "hospital", "is_24h": false}, {"lat": 34.9501, "lon": 127.5281, "name": "\ub3d9\uc591\ub2f9\ud55c\uc57d\uad6d", "type": "hospital", "is_24h": false}, {"lat": 34.9735, "lon": 127.4944, "name": "\uc784\ud55c\uc758\uc6d0", "type": "hospital", "is_24h": false}, {"lat": 34.9524, "lon": 127.4841, "name": "\uac70\ubd81\ud55c\uc758\uc6d0", "type": "hospital", "is_24h": false}, {"lat": 34.9136, "lon": 127.2776, "name": "\uc678\uc11c\ubcf4\uac74\uc9c0\uc18c", "type": "hospital", "is_24h": false}, {"lat": 34.9475, "lon": 127.498, "name": "\uad11\uc591\ub2f9\ud55c\uc57d\uad6d", "type": "hospital", "is_24h": false}, {"lat": 34.9598, "lon": 127.4846, "name": "\ubcf8\ucd08\ub2f9\ud55c\uc57d\uad6d", "type": "hospital", "is_24h": false}, {"lat": 34.962, "lon": 127.4848, "name": "\uc138\ud654\ub2f9\uc815\ud55c\uc57d\uad6d", "type": "hospital", "is_24h": false}, {"lat": 34.9519, "lon": 127.4897, "name": "\uc0bc\uad11\uc758\ub8cc\uc7ac\ub2e8\uc21c\ucc9c\uc601\uc5c5\uc18c", "type": "hospital", "is_24h": false}, {"lat": 34.949, "lon": 127.5151, "name": "\ub179\uc2ed\uc790\uac80\uc0ac\uc388\ud0c0", "type": "hospital", "is_24h": false}, {"lat": 34.9577, "lon": 127.4823, "name": "\uc21c\ucc9c\uae30\ub3c5\uc9c4\ub8cc\uc18c", "type": "hospital", "is_24h": false}, {"lat": 34.9531, "lon": 127.5274, "name": "\uc21c\ucc9c\ud55c\uc57d\uad6d", "type": "hospital", "is_24h": false}, {"lat": 34.9052, "lon": 127.3441, "name": "\ub099\uc548\uc81c\uc77c\uc758\uc6d0", "type": "hospital", "is_24h": false}, {"lat": 34.948, "lon": 127.5007, "name": "\ub0a8\ub3c4\uae4c\uc6b4", "type": "hospital", "is_24h": false}, {"lat": 34.9173, "lon": 127.5305, "name": "\uc21c\ucc9c\ud6a8\uc0ac\ub791\ubcd1\uc6d0", "type": "hospital", "is_24h": false}, {"lat": 34.9646, "lon": 127.5434, "name": "\ud574\ub3d9\uae30\uae30\uc21c\ucc9c\uc131\uac00\ub864\ub85c\ubcd1\uc6d0\uc810", "type": "hospital", "is_24h": false}, {"lat": 34.9407, "lon": 127.4886, "name": "\ubbf8\ub798\ucc28\ubcd1\uc6d0", "type": "hospital", "is_24h": false}, {"lat": 34.956, "lon": 127.5203, "name": "\uc6b0\ub4dc\uc2a4\ud2f8\uc0ac\ubb34\uc6a9\uac00\uad6c", "type": "hospital", "is_24h": false}, {"lat": 34.9511, "lon": 127.4845, "name": "\ub3d9\ubd80\uc758\ub8cc\uae30", "type": "hospital", "is_24h": false}, {"lat": 34.9756, "lon": 127.587, "name": "\uc6d0\uad11\ud55c\uc758\uc6d0", "type": "hospital", "is_24h": false}, {"lat": 34.9635, "lon": 127.7175, "name": "\ud55c\ub3c5\uc5f0\ud569\uc758\uc6d0", "type": "hospital", "is_24h": false}, {"lat": 34.9886, "lon": 127.7011, "name": "\uad11\uc591\uc625\uace1\ud604\ub300\uc758\uc6d0", "type": "hospital", "is_24h": false}, {"lat": 34.9356, "lon": 127.696, "name": "\ubc31\ub450\ud55c\uc758\uc6d0", "type": "hospital", "is_24h": false}, {"lat": 34.9359, "lon": 127.6958, "name": "\ub3d9\uc758\ubcf4\uac10\ud55c\uc758\uc6d0", "type": "hospital", "is_24h": false}, {"lat": 34.9361, "lon": 127.6958, "name": "\uac10\ucd08\ud55c\uc758\uc6d0", "type": "hospital", "is_24h": false}, {"lat": 34.9399, "lon": 127.6893, "name": "\ubcf4\uba85\ub2f9\ud55c\uc758\uc6d0", "type": "hospital", "is_24h": false}, {"lat": 34.9752, "lon": 127.5877, "name": "\ud55c\uacb0\ud55c\uc758\uc6d0", "type": "hospital", "is_24h": false}, {"lat": 34.9445, "lon": 127.6888, "name": "\ud64d\ud55c\uc758\uc6d0", "type": "hospital", "is_24h": false}, {"lat": 34.9754, "lon": 127.5884, "name": "\uc2dc\ubbfc\ud55c\uc758\uc6d0", "type": "hospital", "is_24h": false}, {"lat": 34.9408, "lon": 127.6934, "name": "\uc911\ub9c8\ubcf4\uac74\uc9c0\uc18c", "type": "hospital", "is_24h": false}, {"lat": 34.9891, "lon": 127.7011, "name": "\ub298\ud478\ub978\uc758\uc6d0", "type": "hospital", "is_24h": false}, {"lat": 34.9751, "lon": 127.585, "name": "\uc77c\uc2ec\ub2f9\ud55c\uc57d\uad6d", "type": "hospital", "is_24h": false}, {"lat": 34.9791, "lon": 127.5846, "name": "\uc11c\uc6b8\uc758\uc6d0", "type": "hospital", "is_24h": false}, {"lat": 34.9784, "lon": 127.5851, "name": "\ub4e4\ud480\ud55c\uc758\uc6d0", "type": "hospital", "is_24h": false}, {"lat": 34.9616, "lon": 127.7215, "name": "\ub3d9\uad11\uc591\ud55c\uc758\uc6d0", "type": "hospital", "is_24h": false}, {"lat": 34.938, "lon": 127.6977, "name": "\uacbd\ud76c\ud55c\uc758\uc6d0", "type": "hospital", "is_24h": false}, {"lat": 34.9779, "lon": 127.7579, "name": "\uc9c4\uc6d4\ubcf4\uac74\uc9c0\uc18c", "type": "hospital", "is_24h": false}, {"lat": 34.9809, "lon": 127.5836, "name": "\uad11\uc591\ubcf4\uac74\uc18c", "type": "hospital", "is_24h": false}, {"lat": 34.9621, "lon": 127.7237, "name": "\uc911\uc559\uc758\uc6d0", "type": "hospital", "is_24h": false}, {"lat": 34.936, "lon": 127.6962, "name": "\ud604\ub300\uacbd\ud76c\ud55c\uc758\uc6d0", "type": "hospital", "is_24h": false}, {"lat": 34.9876, "lon": 127.7022, "name": "\uc0dd\uc0dd\ub2f9\ud55c\uc57d\uad6d", "type": "hospital", "is_24h": false}, {"lat": 34.9356, "lon": 127.6953, "name": "\ub2e4\uc19c\ud55c\uc758\uc6d0", "type": "hospital", "is_24h": false}, {"lat": 34.9615, "lon": 127.7195, "name": "\ucc9c\uc9c0\uc778\ud55c\uc57d\uad6d", "type": "hospital", "is_24h": false}, {"lat": 34.9782, "lon": 127.758, "name": "\uc9c4\uc6d4\ubcf4\uac74\uc9c0\uc18c", "type": "hospital", "is_24h": false}, {"lat": 34.9888, "lon": 127.7006, "name": "\uc218\uc601\ud55c\uc758\uc6d0", "type": "hospital", "is_24h": false}, {"lat": 34.9575, "lon": 127.6901, "name": "\uacf5\ub9bd\uad11\uc591\ub178\uc778\uc804\ubb38\uc694\uc591\ubcd1\uc6d0", "type": "hospital", "is_24h": false}, {"lat": 34.6166, "lon": 127.7288, "name": "\ub3cc\uc0b0\uc131\uc2ec\uc758\uc6d0", "type": "hospital", "is_24h": false}, {"lat": 34.7591, "lon": 127.668, "name": "\ubbfc\uc18c\uc544\uccad\uc18c\ub144\uacfc\uc758\uc6d0", "type": "hospital", "is_24h": false}, {"lat": 34.6152, "lon": 127.7232, "name": "\ud604\ub300\ud1b5\uc99d\uc758\uc6d0", "type": "hospital", "is_24h": false}, {"lat": 34.6166, "lon": 127.7225, "name": "\ub3cc\uc0b0\ubcf4\uac74\uc9c0\uc18c", "type": "hospital", "is_24h": false}, {"lat": 34.6174, "lon": 127.6432, "name": "\ud654\uc815\ubcf4\uac74\uc9c0\uc18c", "type": "hospital", "is_24h": false}, {"lat": 34.8219, "lon": 127.5545, "name": "\uc0c1\ubd09\ubcf4\uac74\uc9c4\ub8cc", "type": "hospital", "is_24h": false}, {"lat": 34.5715, "lon": 127.6638, "name": "\uac1c\ub3c4\ubcf4\uac74\uc9c0\uc18c", "type": "hospital", "is_24h": false}, {"lat": 34.8814, "lon": 127.5795, "name": "\ud604\ub300\uc758\uc6d0", "type": "hospital", "is_24h": false}, {"lat": 34.2386, "lon": 127.2478, "name": "\ucd08\ub3c4\ubcf4\uac74\uc9c0\uc18c", "type": "hospital", "is_24h": false}, {"lat": 34.6181, "lon": 127.6413, "name": "\ud654\uc815\ubcf4\uac74\uc9c0\uc18c", "type": "hospital", "is_24h": false}, {"lat": 34.8828, "lon": 127.579, "name": "\uc728\ucd0c\ud55c\uc758\uc6d0", "type": "hospital", "is_24h": false}, {"lat": 34.4327, "lon": 127.8016, "name": "\uc5f0\ub3c4\ubcf4\uac74\uc9c0\uc18c", "type": "hospital", "is_24h": false}, {"lat": 34.5092, "lon": 127.7673, "name": "\ub0a8\uba74\ubcf4\uac74\uc9c0\uc18c", "type": "hospital", "is_24h": false}, {"lat": 34.8828, "lon": 127.5794, "name": "\uc628\ub204\ub9ac\uc758\uc6d0(\uc728\ucd0c) (Onnuriuiwon ( Yulch", "type": "hospital", "is_24h": false}, {"lat": 34.7077, "lon": 127.612, "name": "\ud654\uc591\ubcf4\uac74\uc9c0\uc18c", "type": "hospital", "is_24h": false}, {"lat": 34.8817, "lon": 127.5787, "name": "\uc728\ucd0c\ubcf4\uac74\uc9c0\uc18c", "type": "hospital", "is_24h": false}, {"lat": 34.6493, "lon": 127.6069, "name": "\uc5ec\uc218\uc694\uc591\ubcd1\uc6d0", "type": "hospital", "is_24h": false}, {"lat": 34.9957, "lon": 127.8103, "name": "\ud558\ub3d9\uc6b0\ub9ac\ub4e4\ubcd1\uc6d0", "type": "hospital", "is_24h": false}, {"lat": 34.8466, "lon": 127.8921, "name": "\ub0a8\ud574\uad70\ub9bd\ub178\uc778\uc804\ubb38\ubcd1\uc6d0", "type": "hospital", "is_24h": false}, {"lat": 34.8459, "lon": 127.8943, "name": "\ud5c8\ubc29\uc758\ub8cc\uc7ac\ub2e8\ub0a8\ud574\ubcd1\uc6d0", "type": "hospital", "is_24h": false}, {"lat": 34.8337, "lon": 127.3457, "name": "\ubc8c\uad50\uc0bc\ud638\ubcd1\uc6d0", "type": "hospital", "is_24h": true}, {"lat": 34.7702, "lon": 127.079, "name": "\ubcf4\uc131\uad70\ubcf4\uac74\uc18c", "type": "hospital", "is_24h": false}, {"lat": 34.9296, "lon": 127.1659, "name": "\uc9c0\ubcf8\ud55c\uc758\uc6d0", "type": "hospital", "is_24h": false}, {"lat": 34.6066, "lon": 127.2816, "name": "\uc724\ud63821\ubcd1\uc6d0", "type": "hospital", "is_24h": false}, {"lat": 34.6212, "lon": 127.2942, "name": "\uc601\uc131\uc758\ub8cc\uc7ac\ub2e8 \uace0\ud765\uc885\ud569\ubcd1\uc6d0", "type": "hospital", "is_24h": false}, {"lat": 34.6083, "lon": 127.2849, "name": "\ud64d\uc774\ube44\uc778\ud6c4\uacfc", "type": "hospital", "is_24h": false}, {"lat": 34.6208, "lon": 127.294, "name": "\uace0\ud765\ud55c\ubc29\ubcd1\uc6d0", "type": "hospital", "is_24h": false}, {"lat": 34.5921, "lon": 127.2686, "name": "\uace0\ud765\uad70\ubcf4\uac74\uc18c", "type": "hospital", "is_24h": false}, {"lat": 34.4589, "lon": 127.1253, "name": "\uae08\uc0b0\ubcf4\uac74\uc9c0\uc18c", "type": "hospital", "is_24h": false}, {"lat": 34.5293, "lon": 127.1391, "name": "\ub3c4\uc591\ubcf4\uac74\uc9c0\uc18c", "type": "hospital", "is_24h": false}, {"lat": 34.7725, "lon": 127.2854, "name": "\ub300\uc11c\uc131\uc2ec\uc758\uc6d0", "type": "hospital", "is_24h": false}, {"lat": 34.5028, "lon": 127.4682, "name": "\ub3d9\uc77c\ubcf4\uac74\uc9c0\uc18c", "type": "hospital", "is_24h": false}, {"lat": 34.6207, "lon": 127.2934, "name": "\uace0\ud765\uc7a5\ub840\uc2dd\uc7a5(\uace0\ud765\uc885\ud569\ubcd1\uc6d0)", "type": "hospital", "is_24h": false}, {"lat": 34.6223, "lon": 127.2941, "name": "\uace0\ud765\uad70\uacf5\ub9bd\ub178\uc778\uc804\ubb38\uc694\uc591\ubcd1\uc6d0", "type": "hospital", "is_24h": false}, {"lat": 34.946, "lon": 127.5269, "name": "\ud55c\uc18c\uc544\uacfc\uc758\uc6d0\uc55e", "type": "hospital", "is_24h": false}, {"lat": 34.8407, "lon": 127.8941, "name": "\ub0a8\ud574\uc0bc\uc131\uc678\uacfc\uc758\uc6d0", "type": "hospital", "is_24h": false}, {"lat": 34.9328, "lon": 127.7248, "name": "\uc5f0\uc138\uc758\uc6d0", "type": "hospital", "is_24h": false}, {"lat": 34.8014, "lon": 127.9532, "name": "\uae08\uc0b0\uc73c\uc6d0", "type": "hospital", "is_24h": false}, {"lat": 34.971, "lon": 127.5888, "name": "\ud55c\uc194\uc758\uc6d0", "type": "hospital", "is_24h": false}, {"lat": 34.97, "lon": 127.5893, "name": "\uc131\uc2ec\ub0b4\uacfc\uc758\uc6d0", "type": "hospital", "is_24h": false}, {"lat": 34.971, "lon": 127.5821, "name": "\ub290\ud2f0\ub098\ubb34 \uc694\uc591\uc6d0", "type": "hospital", "is_24h": false}, {"lat": 34.8474, "lon": 127.3504, "name": "\ubcf4\uad11\uc694\uc591\ubcd1\uc6d0", "type": "hospital", "is_24h": false}, {"lat": 34.8468, "lon": 127.3511, "name": "\ud55c\uad6d\uc5f0\ud569\uc758\uc6d0", "type": "hospital", "is_24h": false}, {"lat": 34.9482, "lon": 127.5231, "name": "\uc21c\ucc9c\ud5a5\ub3c4\uc678\uacfc\uc758\uc6d0", "type": "hospital", "is_24h": false}, {"lat": 34.7998, "lon": 127.9531, "name": "\uc774\ub3d9\ubcf4\uac74\uc9c0\uc18c", "type": "hospital", "is_24h": false}, {"lat": 34.8336, "lon": 127.345, "name": "\ubcf4\uc131\uad70\ub9bd\ub178\uc778\uc804\ubb38\uc694\uc591\ubcd1\uc6d0", "type": "hospital", "is_24h": false}, {"lat": 34.9712, "lon": 127.5821, "name": "\uad11\uc591\ubcd1\uc6d0", "type": "hospital", "is_24h": false}, {"lat": 34.8469, "lon": 127.894, "name": "\ub0a8\ud574\ubcd1\uc6d0 \uc7a5\ub840\uc2dd\uc7a5", "type": "hospital", "is_24h": false}, {"lat": 34.8371, "lon": 127.342, "name": "\uc804\ub0a8\uc5f0\ud569\uc758\uc6d0", "type": "hospital", "is_24h": false}, {"lat": 34.8424, "lon": 127.3435, "name": "\ud604\ub300\uc758\uc6d0", "type": "hospital", "is_24h": false}, {"lat": 34.7284, "lon": 127.3418, "name": "\ub0a8\uc591\uba74 \ubcf4\uac74\uc9c0\uc18c", "type": "hospital", "is_24h": false}, {"lat": 34.6726, "lon": 127.0916, "name": "\ud68c\ucc9c\ubcf4\uac74\uc9c0\uc18c", "type": "hospital", "is_24h": false}, {"lat": 34.9405, "lon": 127.5098, "name": "\uc21c\ucc9c\ud558\ub098\ubcd1\uc6d0", "type": "hospital", "is_24h": false}, {"lat": 34.9525, "lon": 127.5175, "name": "\ubb38\uaddc\uc900\ud55c\uc758\uc6d0", "type": "hospital", "is_24h": false}, {"lat": 34.9526, "lon": 127.5159, "name": "\uc21c\ucc9c\uc6b0\ub9ac\ubcd1\uc6d0", "type": "hospital", "is_24h": false}, {"lat": 34.9443, "lon": 127.504, "name": "\ubc14\ub978\uc758\uc6d0", "type": "hospital", "is_24h": false}, {"lat": 34.8433, "lon": 127.3469, "name": "\uae40\ub0b4\uacfc\uc758\uc6d0", "type": "hospital", "is_24h": false}, {"lat": 34.8422, "lon": 127.344, "name": "\uc544\ub984\ub2e4\uc6b4\ud55c\uc758\uc6d0", "type": "hospital", "is_24h": false}, {"lat": 34.8423, "lon": 127.3434, "name": "\ud558\ub098\uc758\uc6d0", "type": "hospital", "is_24h": false}, {"lat": 34.9604, "lon": 127.5206, "name": "\ud50c\ub7ec\uc2a4\uc544\uc774\ubbf8\ucf54\ubcd1\uc6d0", "type": "hospital", "is_24h": false}, {"lat": 34.955, "lon": 127.525, "name": "\uc0ac\ub791\ud55c\ubc29\ubcd1\uc6d0", "type": "hospital", "is_24h": false}, {"lat": 34.4298, "lon": 127.0709, "name": "\uae08\ub2f9\ubcf4\uac74\uc9c0\uc18c", "type": "hospital", "is_24h": false}, {"lat": 34.9415, "lon": 127.5094, "name": "\ucc99\ubcd1\uc6d0", "type": "hospital", "is_24h": false}, {"lat": 34.8432, "lon": 127.6247, "name": "\uc5ec\uc218\uc560\uc591\ubcd1\uc6d0", "type": "hospital", "is_24h": false}, {"lat": 34.6043, "lon": 127.1821, "name": "\uac00\uc57c\ubcf4\uac74\uc9c4\ub8cc\uc18c", "type": "hospital", "is_24h": false}, {"lat": 34.9535, "lon": 127.5323, "name": "\uc21c\ucc9c\uc13c\ud140\ubcd1\uc6d0", "type": "hospital", "is_24h": false}, {"lat": 34.947, "lon": 127.534, "name": "\uc21c\uc815\ubcd1\uc6d0", "type": "hospital", "is_24h": false}, {"lat": 34.8071, "lon": 127.2474, "name": "\uc870\uc131\ubcf4\uac74\uc9c0\uc18c", "type": "hospital", "is_24h": false}, {"lat": 34.9279, "lon": 127.1715, "name": "\ubb38\ub355\ubcf4\uac74\uc9c0\uc18c", "type": "hospital", "is_24h": false}, {"lat": 34.7982, "lon": 127.0703, "name": "\ub178\ub3d9\uba74\ubcf4\uac74\uc9c0\uc18c", "type": "hospital", "is_24h": false}, {"lat": 34.9132, "lon": 127.3268, "name": "\uc21c\ucc9c\uc740\ubcd1\uc6d0 \ubcc4\uad00", "type": "hospital", "is_24h": false}, {"lat": 34.9338, "lon": 127.5521, "name": "\ubca0\ub2e4\ub0b4\uacfc", "type": "hospital", "is_24h": false}, {"lat": 34.6782, "lon": 127.2617, "name": "\uc131\ub450\ubcf4\uac74\uc9c4\ub8cc\uc18c", "type": "hospital", "is_24h": false}, {"lat": 34.7693, "lon": 127.6541, "name": "\uc5ec\ucc9c\uc804\ub0a8\ubcd1\uc6d0", "type": "hospital", "is_24h": false}, {"lat": 34.7654, "lon": 127.6989, "name": "\uc5ec\uc218\uc131\uc2ec\ubcd1\uc6d0", "type": "hospital", "is_24h": false}, {"lat": 34.7071, "lon": 127.7847, "name": "\ub0a8\uc0b0\uc694\uc591\uc6d0 (Namsan Sanitarium)", "type": "hospital", "is_24h": false}, {"lat": 34.8434, "lon": 127.6247, "name": "\uc5ec\uc218\uc560\uc591\ubcd1\uc6d0", "type": "hospital", "is_24h": false}, {"lat": 34.9326, "lon": 127.7249, "name": "\ud3ec\uc2a4\ucf54\ud734\uba3c\uc13c\ud130", "type": "hospital", "is_24h": false}, {"lat": 34.4646, "lon": 127.4593, "name": "\ubcd1\uc6d0", "type": "hospital", "is_24h": false}, {"lat": 34.4644, "lon": 127.4594, "name": "\uc57d\uad6d", "type": "hospital", "is_24h": false}, {"lat": 34.8458, "lon": 127.3486, "name": "\ubc8c\uad50\uc74d \ubcf4\uac74\uc9c0\uc18c", "type": "hospital", "is_24h": false}, {"lat": 34.9549, "lon": 127.5245, "name": "\uc21c\ucc9c\uc81c\uc77c\ubcd1\uc6d0", "type": "hospital", "is_24h": false}, {"lat": 34.9534, "lon": 127.5227, "name": "\ud604\ub300\ubcd1\uc6d0 (Hyeondae Hospital)", "type": "hospital", "is_24h": false}, {"lat": 34.9643, "lon": 127.5431, "name": "\uc131\uac00\ub864\ub85c\ubcd1\uc6d0", "type": "hospital", "is_24h": true}, {"lat": 34.9474, "lon": 127.5122, "name": "\uc21c\ucc9c\ud55c\uad6d\ubcd1\uc6d0 (Suncheon Korea Hospita", "type": "hospital", "is_24h": false}, {"lat": 34.961, "lon": 127.5251, "name": "\uadfc\ub85c\ubcf5\uc9c0\uacf5\ub2e8 \uc21c\ucc9c\ubcd1\uc6d0", "type": "hospital", "is_24h": false}, {"lat": 34.9073, "lon": 127.4832, "name": "\uc21c\ucc9c\ud3c9\ud654\ubcd1\uc6d0", "type": "hospital", "is_24h": false}, {"lat": 34.958, "lon": 127.4833, "name": "\uc21c\ucc9c\uc758\ub8cc\uc6d0", "type": "hospital", "is_24h": true}, {"lat": 34.9604, "lon": 127.5199, "name": "\ud50c\ub7ec\uc2a4\uba54\ub514\ud0c0\uc6b4", "type": "hospital", "is_24h": false}, {"lat": 34.7759, "lon": 127.1047, "name": "\ubcf4\uc131\uc544\uc0b0\ubcd1\uc6d0", "type": "hospital", "is_24h": false}, {"lat": 34.5464, "lon": 127.1462, "name": "\ub179\ub3d9\ud604\ub300\ubcd1\uc6d0", "type": "hospital", "is_24h": false}, {"lat": 34.9563, "lon": 127.4972, "name": "\uc21c\ucc9c\uc0dd\ud611\ubcd1\uc6d0", "type": "hospital", "is_24h": true}, {"lat": 34.9361, "lon": 127.6969, "name": "\uad11\uc591\uc0ac\ub791\ubcd1\uc6d0", "type": "hospital", "is_24h": false}, {"lat": 34.9579, "lon": 127.6906, "name": "GSH\uad11\uc591\uc11c\uc6b8\ubcd1\uc6d0", "type": "hospital", "is_24h": false}, {"lat": 34.8974, "lon": 127.4783, "name": "\ub9e4\ub514\ud31c\uc694\uc591\ubcd1\uc6d0", "type": "hospital", "is_24h": false}, {"lat": 34.9601, "lon": 127.5221, "name": "\ubbf8\uc988\uc5ec\uc131\uc544\ub3d9\ubcd1\uc6d0", "type": "hospital", "is_24h": false}, {"lat": 34.8906, "lon": 127.4626, "name": "\uc21c\ucc9c\ub9cc\uc694\uc591\ubcd1\uc6d0", "type": "hospital", "is_24h": false}, {"lat": 34.5107, "lon": 127.1204, "name": "\uad6d\ub9bd\uc18c\ub85d\ub3c4\ubcd1\uc6d0", "type": "hospital", "is_24h": false}, {"lat": 34.7507, "lon": 127.679, "name": "hospital", "type": "hospital", "is_24h": false}, {"lat": 34.7521, "lon": 127.6799, "name": "hospital", "type": "hospital", "is_24h": false}, {"lat": 34.9452, "lon": 127.4992, "name": "\uc21c\ucc9c\uc815\uc6d0\uc694\uc591\ubcd1\uc6d0", "type": "hospital", "is_24h": false}, {"lat": 34.623, "lon": 127.2945, "name": "\uace0\ud765\uad70\uce58\ub9e4\uc548\uc2ec\uc694\uc591\ubcd1\uc6d0", "type": "hospital", "is_24h": false}, {"lat": 34.7449, "lon": 127.728, "name": "\uc5ec\uc218\uc804\ub0a8\ubcd1\uc6d0", "type": "hospital", "is_24h": false}, {"lat": 34.7432, "lon": 127.73, "name": "\uc5ec\uc218\uac15\ub0a8\uc694\uc591\ubcd1\uc6d0", "type": "hospital", "is_24h": false}, {"lat": 34.6212, "lon": 127.2939, "name": "\uc758\ub8cc\ubc95\uc778 \uc601\uc131\uc758\ub8cc\uc7ac\ub2e8", "type": "hospital", "is_24h": true}, {"lat": 34.7837, "lon": 127.6689, "name": "\uc88c\uc218\uc601\uc694\uc591\ubcd1\uc6d0", "type": "hospital", "is_24h": false}, {"lat": 34.7185, "lon": 127.722, "name": "\uacbd\ud638\ubcf4\uac74\uc9c4\ub8cc\uc18c", "type": "hospital", "is_24h": false}, {"lat": 34.9728, "lon": 127.49, "name": "\uc21c\ucc9c\uc5d0\uc2a4\ubcd1\uc6d0", "type": "hospital", "is_24h": false}]