[{"lat": 37.5504, "lon": 129.1072, "name": "\ub3d9\ud574\uacbd\ucc30\uc11c \ubb35\ud638\uc9c0\uad6c\ub300", "type": "police_station", "is_24h": true}, {"lat": 37.5411, "lon": 129.1129, "name": "\ub3d9\ud574\ud574\uc591\uacbd\ucc30\uc11c", "type": "police_station", "is_24h": true}, {"lat": 37.4179, "lon": 129.1131, "name": "\uc0bc\ucc99\uacbd\ucc30\uc11c \ubbf8\ub85c\ud30c\ucd9c\uc18c", "type": "police_station", "is_24h": true}, {"lat": 37.3807, "lon": 129.2257, "name": "\uc0bc\ucc99\uacbd\ucc30\uc11c \uadfc\ub355\ud30c\ucd9c\uc18c", "type": "police_station", "is_24h": true}, {"lat": 37.4374, "lon": 129.1868, "name": "\uc0bc\ucc99\uacbd\ucc30\uc11c \uc815\ub77c\uc9c0\uad6c\ub300", "type": "police_station", "is_24h": true}, {"lat": 37.2326, "lon": 129.0456, "name": "\uc0bc\ucc99\uacbd\ucc30\uc11c \ub3c4\uacc4\ud30c\ucd9c\uc18c", "type": "police_station", "is_24h": true}, {"lat": 37.1749, "lon": 129.3376, "name": "\uc0bc\ucc99\uacbd\ucc30\uc11c \uc6d0\ub355\ud30c\ucd9c\uc18c", "type": "police_station", "is_24h": true}, {"lat": 37.1723, "lon": 129.0388, "name": "\ud0dc\ubc31\uacbd\ucc30\uc11c \ud1b5\ub9ac\ud30c\ucd9c\uc18c", "type": "police_station", "is_24h": true}, {"lat": 37.1024, "lon": 129.0091, "name": "\ud0dc\ubc31\uacbd\ucc30\uc11c \uc7a5\uc131\ud30c\ucd9c\uc18c", "type": "police_station", "is_24h": true}, {"lat": 37.2328, "lon": 129.3433, "name": "\uc0bc\ucc99\uacbd\ucc30\uc11c \uc784\uc6d0\ud30c\ucd9c\uc18c", "type": "police_station", "is_24h": true}, {"lat": 37.4433, "lon": 129.1642, "name": "\uc0bc\ucc99\uacbd\ucc30\uc11c \uc131\ub0b4\ud30c\ucd9c\uc18c", "type": "police_station", "is_24h": true}, {"lat": 37.5249, "lon": 129.107, "name": "\ub3d9\ud574\uacbd\ucc30\uc11c \ucc9c\uace1\uc9c0\uad6c\ub300", "type": "police_station", "is_24h": true}, {"lat": 37.4836, "lon": 129.1264, "name": "\ub3d9\ud574\uacbd\ucc30\uc11c \ubd81\ud3c9\ud30c\ucd9c\uc18c", "type": "police_station", "is_24h": true}, {"lat": 37.4896, "lon": 129.107, "name": "\ub3d9\ud574\uacbd\ucc30\uc11c \ubd81\uc0bc\uc9c0\uad6c\ub300", "type": "police_station", "is_24h": true}, {"lat": 37.6127, "lon": 129.0385, "name": "\uac15\ub989\uacbd\ucc30\uc11c \uc625\uacc4\ud30c\ucd9c\uc18c", "type": "police_station", "is_24h": true}, {"lat": 37.0449, "lon": 129.0621, "name": "\ubd09\ud654\uacbd\ucc30\uc11c \uc11d\ud3ec\ud30c\ucd9c\uc18c", "type": "police_station", "is_24h": true}, {"lat": 37.0596, "lon": 129.4217, "name": "\uc6b8\uc9c4\uacbd\ucc30\uc11c \uc8fd\ubcc0\ud30c\ucd9c\uc18c", "type": "police_station", "is_24h": true}, {"lat": 37.4752, "lon": 129.1081, "name": "\ub3d9\ud574\uc9c0\ubc29\ud574\uc591\uacbd\ucc30\uccad", "type": "police_station", "is_24h": true}, {"lat": 37.3474, "lon": 129.1629, "name": "\ub178\uace1\uce58\uc548\uc13c\ud130", "type": "police_station", "is_24h": true}, {"lat": 37.1517, "lon": 129.3561, "name": "\ub3c4\uacbd\uacc4\uce58\uc548\uc13c\ud130", "type": "police_station", "is_24h": true}, {"lat": 37.1254, "lon": 129.0456, "name": "\ud0dc\ubc31\uacbd\ucc30\uc11c \ucca0\uc554\ud30c\ucd9c\uc18c", "type": "police_station", "is_24h": true}, {"lat": 37.4463, "lon": 129.1741, "name": "\uac15\uc6d0 \uc0bc\ucc99\uacbd\ucc30\uc11c", "type": "police_station", "is_24h": true}, {"lat": 37.5392, "lon": 129.1062, "name": "\ub3d9\ud574\ud574\uc591\uacbd\ucc30\uc11c", "type": "police_station", "is_24h": true}, {"lat": 37.1024, "lon": 129.0084, "name": "\uac15\uc6d0 \ud0dc\ubc31\uacbd\ucc30\uc11c", "type": "police_station", "is_24h": true}, {"lat": 37.525, "lon": 129.1165, "name": "\uac15\uc6d0 \ub3d9\ud574\uacbd\ucc30\uc11c", "type": "police_station", "is_24h": true}, {"lat": 37.1021, "lon": 129.3733, "name": "\uc6b8\uc9c4\uacbd\ucc30\uc11c \ubd81\uba74\ud30c\ucd9c\uc18c", "type": "police_station", "is_24h": true}, {"lat": 37.4752, "lon": 129.1083, "name": "\ub3d9\ud574\uc9c0\ubc29\ud574\uc591\uacbd\ucc30\uccad", "type": "police_station", "is_24h": true}, {"lat": 37.3474, "lon": 129.163, "name": "\ub178\uace1\uce58\uc548\uc13c\ud130", "type": "police_station", "is_24h": true}, {"lat": 37.3807, "lon": 129.2257, "name": "\uadfc\ub355\ud30c\ucd9c\uc18c", "type": "police_station", "is_24h": true}, {"lat": 37.4374, "lon": 129.1868, "name": "\uc815\ub77c\uc9c0\uad6c\ub300", "type": "police_station", "is_24h": true}, {"lat": 37.2328, "lon": 129.3433, "name": "\uc784\uc6d0\ud30c\ucd9c\uc18c", "type": "police_station", "is_24h": true}, {"lat": 37.1749, "lon": 129.3376, "name": "\uc6d0\ub355\ud30c\ucd9c\uc18c", "type": "police_station", "is_24h": true}, {"lat": 37.0596, "lon": 129.4217, "name": "\uc8fd\ubcc0\ud30c\ucd9c\uc18c", "type": "police_station", "is_24h": true}, {"lat": 37.6086, "lon": 129.0352, "name": "\uc6b0\ub9ac\uc608\uc218\uc758\uc6d0", "type": "hospital", "is_24h": false}, {"lat": 37.6121, "lon": 129.0378, "name": "\uc758\ub8cc\ubc95\uc778\ub77c\ud30c\uc758\ub8cc\uc7ac\ub2e8", "type": "hospital", "is_24h": false}, {"lat": 37.6121, "lon": 129.0378, "name": "\uc608\uc218\uc694\uc591\ubcd1\uc6d0", "type": "hospital", "is_24h": false}, {"lat": 37.5232, "lon": 129.113, "name": "\ub204\ub2c8\ubd80\uc2e0\ud53c\ubd80\uacfc\uc758\uc6d0", "type": "hospital", "is_24h": false}, {"lat": 37.5198, "lon": 129.116, "name": "\ud55c\ub9c8\uc74c\ubcd1\uc6d0", "type": "hospital", "is_24h": false}, {"lat": 37.5031, "lon": 129.1066, "name": "\ub3d9\ud574\uae08\uac15\ubcd1\uc6d0", "type": "hospital", "is_24h": false}, {"lat": 37.5203, "lon": 129.1158, "name": "\ud574\ub78c\ubcd1\uc6d0", "type": "hospital", "is_24h": false}, {"lat": 37.5166, "lon": 129.1171, "name": "\uc775\uc218\ub2f9\ud55c\uc758\uc6d0", "type": "hospital", "is_24h": false}, {"lat": 37.4709, "lon": 129.1414, "name": "\ubc15\uc6d0\uc77c\ub9c8\ucde8\ud1b5\uc99d\uc758\ud559\uacfc\uc758\uc6d0", "type": "hospital", "is_24h": false}, {"lat": 37.5179, "lon": 129.0971, "name": "\ub3d9\ud574\uc774\ub808\uc694\uc591\ubcd1\uc6d0", "type": "hospital", "is_24h": false}, {"lat": 37.5188, "lon": 129.1144, "name": "\uc528\uc564\uc528\uc544\uc774\ub514\uc790\uc778", "type": "hospital", "is_24h": false}, {"lat": 37.5031, "lon": 129.1066, "name": "\uae08\uac15\ubcd1\uc6d0\uc7a5\ub840\uc2dd\uc7a5", "type": "hospital", "is_24h": false}, {"lat": 37.4415, "lon": 129.1645, "name": "\uc2e0\uc900\ud638\uc758\uc6d0", "type": "hospital", "is_24h": false}, {"lat": 37.4488, "lon": 129.1754, "name": "\uc11c\uc6b8\uc5f0\uc138\uc758\uc6d0", "type": "hospital", "is_24h": false}, {"lat": 37.4371, "lon": 129.1723, "name": "\uc0bc\ucc99\ubcd1\uc6d0 (Samcheok Hospital)", "type": "hospital", "is_24h": false}, {"lat": 37.4924, "lon": 129.109, "name": "\ub3d9\ud574\uc815\ud615\uc678\uacfc\uc758\uc6d0", "type": "hospital", "is_24h": false}, {"lat": 37.4871, "lon": 129.1055, "name": "\ud30c\ud2f0\ub9c8\uc758\uc6d0", "type": "hospital", "is_24h": false}, {"lat": 37.4404, "lon": 129.1635, "name": "\uac15\uc6d0\ub3c4 \uc0bc\ucc99\uc758\ub8cc\uc6d0", "type": "hospital", "is_24h": false}, {"lat": 37.1039, "lon": 129.0044, "name": "\uadfc\ub85c\ubcf5\uc9c0\uacf5\ub2e8\ud0dc\ubc31\ubcd1\uc6d0", "type": "hospital", "is_24h": false}, {"lat": 37.532, "lon": 129.1065, "name": "\uadfc\ub85c\ubcf5\uc9c0\uacf5\ub2e8\ub3d9\ud574\ubcd1\uc6d0", "type": "hospital", "is_24h": false}, {"lat": 37.5302, "lon": 129.1072, "name": "\ub3d9\ud574\ub3d9\uc778\ubcd1\uc6d0", "type": "hospital", "is_24h": false}, {"lat": 37.1826, "lon": 129.0393, "name": "aed", "type": "aed", "is_24h": false}]