[{"lat": 35.1492, "lon": 126.9199, "name": "\uad11\uc8fc\ub3d9\ubd80\uacbd\ucc30\uc11c", "type": "police_station", "is_24h": true}, {"lat": 35.9662, "lon": 126.6216, "name": "\uad70\uc0b0\ud574\uc591\uacbd\ucc30\uc11c", "type": "police_station", "is_24h": true}, {"lat": 35.9672, "lon": 126.696, "name": "\uad70\uc0b0\uacbd\ucc30\uc11c \ub098\uc6b4\uc9c0\uad6c\ub300", "type": "police_station", "is_24h": true}, {"lat": 35.9587, "lon": 126.9846, "name": "\uc775\uc0b0\uacbd\ucc30\uc11c \ubd80\uc1a1\ud314\ubd09\uc9c0\uad6c\ub300", "type": "police_station", "is_24h": true}, {"lat": 35.9308, "lon": 126.9468, "name": "\uc775\uc0b0\uacbd\ucc30\uc11c \ud3c9\ud654\uc9c0\uad6c\ub300", "type": "police_station", "is_24h": true}, {"lat": 35.9145, "lon": 126.9307, "name": "\ubaa9\ucc9c\uce58\uc548\uc13c\ud130", "type": "police_station", "is_24h": true}, {"lat": 35.7163, "lon": 126.9941, "name": "\uae40\uc81c\uacbd\ucc30\uc11c \uae08\uc0b0\ud30c\ucd9c\uc18c", "type": "police_station", "is_24h": true}, {"lat": 35.7854, "lon": 126.873, "name": "\uae40\uc81c\uacbd\ucc30\uc11c \uc6d4\ucd0c\uc9c0\uad6c\ub300", "type": "police_station", "is_24h": true}, {"lat": 35.8035, "lon": 126.8972, "name": "\uae40\uc81c\uacbd\ucc30\uc11c \uc2e0\ud48d\uc9c0\uad6c\ub300", "type": "police_station", "is_24h": true}, {"lat": 35.8541, "lon": 126.8194, "name": "\uae40\uc81c\uacbd\ucc30\uc11c \ub9cc\uacbd\ud30c\ucd9c\uc18c", "type": "police_station", "is_24h": true}, {"lat": 35.8773, "lon": 126.9506, "name": "\ubd80\uc6a9\uce58\uc548\uc13c\ud130", "type": "police_station", "is_24h": true}, {"lat": 35.5847, "lon": 126.8616, "name": "\uc815\uc74d\uacbd\ucc30\uc11c \uc911\uc559\uc9c0\uad6c\ub300", "type": "police_station", "is_24h": true}, {"lat": 35.6189, "lon": 126.773, "name": "\uc815\uc74d\uacbd\ucc30\uc11c \uace0\ubd80\ud30c\ucd9c\uc18c", "type": "police_station", "is_24h": true}, {"lat": 35.0281, "lon": 126.7213, "name": "\ub098\uc8fc\uacbd\ucc30\uc11c \uae08\uc131\uc9c0\uad6c\ub300", "type": "police_station", "is_24h": true}, {"lat": 35.027, "lon": 126.7138, "name": "\uc1a1\uc6d4\uc8fc\uacf5\ubc29\ubc94\ucd08\uc18c", "type": "police_station", "is_24h": true}, {"lat": 35.0373, "lon": 126.8016, "name": "\ub098\uc8fc\uacbd\ucc30\uc11c \uc0b0\ud3ec\ud30c\ucd9c\uc18c", "type": "police_station", "is_24h": true}, {"lat": 35.2756, "lon": 126.5065, "name": "\uc601\uad11\uacbd\ucc30\uc11c \uc74d\ub0b4\uc9c0\uad6c\ub300", "type": "police_station", "is_24h": true}, {"lat": 35.2188, "lon": 126.3761, "name": "\uc601\uad11\uacbd\ucc30\uc11c \uc5fc\uc0b0\ud30c\ucd9c\uc18c", "type": "police_station", "is_24h": true}, {"lat": 35.2417, "lon": 126.4513, "name": "\uc601\uad11\uacbd\ucc30\uc11c \uad70\ub0a8\ud30c\ucd9c\uc18c", "type": "police_station", "is_24h": true}, {"lat": 35.6857, "lon": 126.6775, "name": "\ubd80\uc548\uacbd\ucc30\uc11c \uc0c1\uc11c\ud30c\ucd9c\uc18c", "type": "police_station", "is_24h": true}, {"lat": 35.5212, "lon": 126.702, "name": "\uace0\ucc3d\uacbd\ucc30\uc11c \ud765\ub355\ud30c\ucd9c\uc18c", "type": "police_station", "is_24h": true}, {"lat": 35.4399, "lon": 126.6358, "name": "\uace0\ucc3d\uacbd\ucc30\uc11c \uc544\uc0b0\ud30c\ucd9c\uc18c", "type": "police_station", "is_24h": true}, {"lat": 35.5404, "lon": 126.7418, "name": "\uc131\ub0b4\uce58\uc548\uc13c\ud130", "type": "police_station", "is_24h": true}, {"lat": 35.4314, "lon": 126.9307, "name": "\uc21c\ucc3d\uacbd\ucc30\uc11c \ubcf5\ud765\ud30c\ucd9c\uc18c", "type": "police_station", "is_24h": true}, {"lat": 35.3322, "lon": 126.7669, "name": "\uc11c\uc0bc\uce58\uc548\uc13c\ud130", "type": "police_station", "is_24h": true}, {"lat": 35.4123, "lon": 126.8511, "name": "\ubd81\uc0c1\uce58\uc548\uc13c\ud130", "type": "police_station", "is_24h": true}, {"lat": 35.3197, "lon": 126.9824, "name": "\uc804\ub0a8\ub2f4\uc591\uacbd\ucc30\uc11c \uc911\uc559\ud30c\ucd9c\uc18c", "type": "police_station", "is_24h": true}, {"lat": 35.364, "lon": 126.9867, "name": "\uc6a9\uba74\uce58\uc548\uc13c\ud130", "type": "police_station", "is_24h": true}, {"lat": 35.1821, "lon": 126.6011, "name": "\ud568\ud3c9\uacbd\ucc30\uc11c \ud574\ubcf4\ud30c\ucd9c\uc18c", "type": "police_station", "is_24h": true}, {"lat": 35.0929, "lon": 126.4648, "name": "\uc8fc\ud3ec\uce58\uc548\uc13c\ud130", "type": "police_station", "is_24h": true}, {"lat": 35.1131, "lon": 126.6097, "name": "\ud568\ud3c9\uacbd\ucc30\uc11c \ub098\uc0b0\ud30c\ucd9c\uc18c", "type": "police_station", "is_24h": true}, {"lat": 35.0685, "lon": 126.5312, "name": "\ud568\ud3c9\uacbd\ucc30\uc11c \ub300\ub3d9\ud30c\ucd9c\uc18c", "type": "police_station", "is_24h": true}, {"lat": 35.1791, "lon": 126.6319, "name": "\ud568\ud3c9\uacbd\ucc30\uc11c \uc6d4\uc57c\ud30c\ucd9c\uc18c", "type": "police_station", "is_24h": true}, {"lat": 35.1531, "lon": 126.4962, "name": "\uc2e0\uad11\uce58\uc548\uc13c\ud130", "type": "police_station", "is_24h": true}, {"lat": 35.0216, "lon": 126.4098, "name": "\ubb34\uc548\uacbd\ucc30\uc11c \ud604\uacbd\ud30c\ucd9c\uc18c", "type": "police_station", "is_24h": true}, {"lat": 35.112, "lon": 126.896, "name": "\ubc29\ubc94\uc18c", "type": "police_station", "is_24h": true}, {"lat": 35.1353, "lon": 126.8594, "name": "\uae08\ud638\uc9c0\uad6c\ub300", "type": "police_station", "is_24h": true}, {"lat": 35.1382, "lon": 126.1442, "name": "\ubaa9\ud3ec\ud574\uc591\uacbd\ucc30\uc11c \uc784\uc790\ucd9c\uc7a5\uc18c", "type": "police_station", "is_24h": true}, {"lat": 35.0584, "lon": 126.5265, "name": "\ud568\ud3c9\uacbd\ucc30\uc11c \uc74d\ub0b4\ud30c\ucd9c\uc18c", "type": "police_station", "is_24h": true}, {"lat": 35.0556, "lon": 126.6037, "name": "\ubb38\ud3c9\uce58\uc548\uc13c\ud130", "type": "police_station", "is_24h": true}, {"lat": 35.3954, "lon": 126.4453, "name": "\uc601\uad11\uacbd\ucc30\uc11c \ud64d\ub18d\ud30c\ucd9c\uc18c", "type": "police_station", "is_24h": true}, {"lat": 35.2454, "lon": 126.812, "name": "\uc7a5\uc131\uacbd\ucc30\uc11c \uc9c4\ub0a8\ud30c\ucd9c\uc18c", "type": "police_station", "is_24h": true}, {"lat": 35.2768, "lon": 126.8883, "name": "\ub2f4\uc591\uacbd\ucc30\uc11c \ub300\uc804\ud30c\ucd9c\uc18c", "type": "police_station", "is_24h": true}, {"lat": 35.3021, "lon": 126.9298, "name": "\ub2f4\uc591\uacbd\ucc30\uc11c \uc218\ubd81\ud30c\ucd9c\uc18c", "type": "police_station", "is_24h": true}, {"lat": 35.1874, "lon": 126.8996, "name": "police_station", "type": "police_station", "is_24h": true}, {"lat": 35.2541, "lon": 126.4798, "name": "\uad70\uc11c\uce58\uc548\uc13c\ud130", "type": "police_station", "is_24h": true}, {"lat": 35.201, "lon": 126.1438, "name": "\ub099\uc6d4\ucd9c\uc7a5\uc18c", "type": "police_station", "is_24h": true}, {"lat": 35.3015, "lon": 126.5787, "name": "\uc601\uad11\uacbd\ucc30\uc11c \ub300\ub9c8\ud30c\ucd9c\uc18c", "type": "police_station", "is_24h": true}, {"lat": 35.2533, "lon": 126.5421, "name": "\ubb18\ub7c9\uce58\uc548\uc13c\ud130", "type": "police_station", "is_24h": true}, {"lat": 35.2123, "lon": 126.5067, "name": "\ubd88\uac11\uce58\uc548\uc13c\ud130", "type": "police_station", "is_24h": true}, {"lat": 35.8079, "lon": 126.4124, "name": "\uad70\uc0b0\ud574\uc591\uacbd\ucc30\uc11c \uc120\uc720\ub3c4\ucd9c\uc7a5\uc18c", "type": "police_station", "is_24h": true}, {"lat": 35.1531, "lon": 126.8769, "name": "\uad11\uc8fc\uc11c\ubd80\uacbd\ucc30\uc11c \ud654\uc815\uc9c0\uad6c\ub300", "type": "police_station", "is_24h": true}, {"lat": 35.0019, "lon": 126.1381, "name": "\ubaa9\ud3ec\uacbd\ucc30\uc11c \uc99d\ub3c4\ud30c\ucd9c\uc18c", "type": "police_station", "is_24h": true}, {"lat": 35.4452, "lon": 126.4944, "name": "\uc0c1\ud558\uce58\uc548\uc13c\ud130", "type": "police_station", "is_24h": true}, {"lat": 35.3782, "lon": 126.5124, "name": "\uace0\ucc3d\uacbd\ucc30\uc11c \uacf5\uc74c\ud30c\ucd9c\uc18c", "type": "police_station", "is_24h": true}, {"lat": 35.3392, "lon": 126.6008, "name": "\uace0\ucc3d\uacbd\ucc30\uc11c \ub300\uc0b0\ud30c\ucd9c\uc18c", "type": "police_station", "is_24h": true}, {"lat": 35.1783, "lon": 126.9199, "name": "\uc6b0\uc0b0 \uc9c0\uad6c\ub300", "type": "police_station", "is_24h": true}, {"lat": 35.9749, "lon": 126.7349, "name": "\uad70\uc0b0\uacbd\ucc30\uc11c \uacbd\uc7a5\ud30c\ucd9c\uc18c", "type": "police_station", "is_24h": true}, {"lat": 35.9628, "lon": 126.7677, "name": "\uad70\uc0b0\uacbd\ucc30\uc11c \uac1c\uc815\ud30c\ucd9c\uc18c", "type": "police_station", "is_24h": true}, {"lat": 35.985, "lon": 126.713, "name": "\uad70\uc0b0\uacbd\ucc30\uc11c \uac1c\ubcf5\ud30c\ucd9c\uc18c", "type": "police_station", "is_24h": true}, {"lat": 35.4569, "lon": 126.5419, "name": "\uace0\ucc3d\uacbd\ucc30\uc11c \ud574\ub9ac\ud30c\ucd9c\uc18c", "type": "police_station", "is_24h": true}, {"lat": 35.5133, "lon": 126.671, "name": "\uace0\ucc3d\uacbd\ucc30\uc11c \ubd80\uc548\ud30c\ucd9c\uc18c", "type": "police_station", "is_24h": true}, {"lat": 35.4166, "lon": 126.5619, "name": "\uace0\ucc3d\uacbd\ucc30\uc11c \ubb34\uc7a5\ud30c\ucd9c\uc18c", "type": "police_station", "is_24h": true}, {"lat": 35.4275, "lon": 126.6954, "name": "\uace0\ucc3d\uacbd\ucc30\uc11c \ubaa8\uc591\uc9c0\uad6c\ub300", "type": "police_station", "is_24h": true}, {"lat": 35.8583, "lon": 126.7655, "name": "\uae40\uc81c\uacbd\ucc30\uc11c \uc9c4\ubd09\ud30c\ucd9c\uc18c", "type": "police_station", "is_24h": true}, {"lat": 35.769, "lon": 126.8144, "name": "\uae40\uc81c\uacbd\ucc30\uc11c \uc8fd\uc0b0\ud30c\ucd9c\uc18c", "type": "police_station", "is_24h": true}, {"lat": 35.8531, "lon": 126.9549, "name": "\uae40\uc81c\uacbd\ucc30\uc11c \uc6a9\uc9c0\ud30c\ucd9c\uc18c", "type": "police_station", "is_24h": true}, {"lat": 35.7533, "lon": 126.9627, "name": "\uae40\uc81c\uacbd\ucc30\uc11c \ubd09\ub0a8\ud30c\ucd9c\uc18c", "type": "police_station", "is_24h": true}, {"lat": 35.8284, "lon": 126.8932, "name": "\uae40\uc81c\uacbd\ucc30\uc11c \ubc31\uc0b0\ud30c\ucd9c\uc18c", "type": "police_station", "is_24h": true}, {"lat": 35.8935, "lon": 126.9679, "name": "\uae40\uc81c\uacbd\ucc30\uc11c \ubc31\uad6c\ud30c\ucd9c\uc18c", "type": "police_station", "is_24h": true}, {"lat": 35.8748, "lon": 126.9298, "name": "\uae40\uc81c\uacbd\ucc30\uc11c \uacf5\ub355\ud30c\ucd9c\uc18c", "type": "police_station", "is_24h": true}, {"lat": 35.9135, "lon": 126.7562, "name": "\uad70\uc0b0\uacbd\ucc30\uc11c \ud68c\ud604\ud30c\ucd9c\uc18c", "type": "police_station", "is_24h": true}, {"lat": 35.9836, "lon": 126.7265, "name": "\uad70\uc0b0\uacbd\ucc30\uc11c \uc911\uc559\ud30c\ucd9c\uc18c", "type": "police_station", "is_24h": true}, {"lat": 35.9841, "lon": 126.8512, "name": "\uad70\uc0b0\uacbd\ucc30\uc11c \uc784\ud53c\ud30c\ucd9c\uc18c", "type": "police_station", "is_24h": true}, {"lat": 35.9266, "lon": 126.6467, "name": "\uad70\uc0b0\uacbd\ucc30\uc11c \uc625\uc11c\ud30c\ucd9c\uc18c", "type": "police_station", "is_24h": true}, {"lat": 35.9421, "lon": 126.7488, "name": "\uad70\uc0b0\uacbd\ucc30\uc11c \uc625\uc0b0\ud30c\ucd9c\uc18c", "type": "police_station", "is_24h": true}, {"lat": 35.9235, "lon": 126.6858, "name": "\uad70\uc0b0\uacbd\ucc30\uc11c \uc625\uad6c\ud30c\ucd9c\uc18c", "type": "police_station", "is_24h": true}, {"lat": 35.9648, "lon": 126.727, "name": "\uad70\uc0b0\uacbd\ucc30\uc11c \uc218\uc1a1\uc9c0\uad6c\ub300", "type": "police_station", "is_24h": true}, {"lat": 35.9905, "lon": 126.7843, "name": "\uad70\uc0b0\uacbd\ucc30\uc11c \uc131\uc0b0\ud30c\ucd9c\uc18c", "type": "police_station", "is_24h": true}, {"lat": 35.9573, "lon": 126.6576, "name": "\uad70\uc0b0\uacbd\ucc30\uc11c \uc11c\ud574\uc9c0\uad6c\ub300", "type": "police_station", "is_24h": true}, {"lat": 35.983, "lon": 126.8753, "name": "\uad70\uc0b0\uacbd\ucc30\uc11c \uc11c\uc218\ud30c\ucd9c\uc18c", "type": "police_station", "is_24h": true}, {"lat": 35.9639, "lon": 126.5662, "name": "\uad70\uc0b0\uacbd\ucc30\uc11c \ube44\uc751\ud30c\ucd9c\uc18c", "type": "police_station", "is_24h": true}, {"lat": 35.9458, "lon": 126.8098, "name": "\uad70\uc0b0\uacbd\ucc30\uc11c \ub300\uc57c\ud30c\ucd9c\uc18c", "type": "police_station", "is_24h": true}, {"lat": 35.5889, "lon": 126.6134, "name": "\ubd80\uc548\uacbd\ucc30\uc11c \uc9c4\uc11c\ud30c\ucd9c\uc18c", "type": "police_station", "is_24h": true}, {"lat": 35.5894, "lon": 126.6761, "name": "\ubd80\uc548\uacbd\ucc30\uc11c \uc904\ud3ec\ud30c\ucd9c\uc18c", "type": "police_station", "is_24h": true}, {"lat": 35.6749, "lon": 126.715, "name": "\ubd80\uc548\uacbd\ucc30\uc11c \uc8fc\uc0b0\ud30c\ucd9c\uc18c", "type": "police_station", "is_24h": true}, {"lat": 35.6115, "lon": 126.6686, "name": "\ubd80\uc548\uacbd\ucc30\uc11c \ubcf4\uc548\ud30c\ucd9c\uc18c", "type": "police_station", "is_24h": true}, {"lat": 35.7615, "lon": 126.6987, "name": "\ubd80\uc548\uacbd\ucc30\uc11c \uacc4\ud654\ud30c\ucd9c\uc18c", "type": "police_station", "is_24h": true}, {"lat": 35.6261, "lon": 126.4723, "name": "\ubd80\uc548\uacbd\ucc30\uc11c \uaca9\ud3ec\ud30c\ucd9c\uc18c", "type": "police_station", "is_24h": true}, {"lat": 35.6518, "lon": 126.9434, "name": "\uc815\uc74d\uacbd\ucc30\uc11c \ud0dc\uc778\ud30c\ucd9c\uc18c", "type": "police_station", "is_24h": true}, {"lat": 35.6044, "lon": 126.991, "name": "\uc815\uc74d\uacbd\ucc30\uc11c \uce60\ubcf4\ud30c\ucd9c\uc18c", "type": "police_station", "is_24h": true}, {"lat": 35.6637, "lon": 126.8385, "name": "\uc815\uc74d\uacbd\ucc30\uc11c \uc774\ud3c9\ud30c\ucd9c\uc18c", "type": "police_station", "is_24h": true}, {"lat": 35.6888, "lon": 126.8883, "name": "\uc815\uc74d\uacbd\ucc30\uc11c \uc2e0\ud0dc\uc778\ud30c\ucd9c\uc18c", "type": "police_station", "is_24h": true}, {"lat": 35.5596, "lon": 126.8647, "name": "\uc815\uc74d\uacbd\ucc30\uc11c \uc0c1\ub3d9\uc9c0\uad6c\ub300", "type": "police_station", "is_24h": true}, {"lat": 35.6077, "lon": 126.8909, "name": "\uc815\uc74d\uacbd\ucc30\uc11c \ubd81\uba74\ud30c\ucd9c\uc18c", "type": "police_station", "is_24h": true}, {"lat": 35.5835, "lon": 126.828, "name": "\uc815\uc74d\uacbd\ucc30\uc11c \ub18d\uc18c\ud30c\ucd9c\uc18c", "type": "police_station", "is_24h": true}, {"lat": 35.5237, "lon": 126.8472, "name": "\uc815\uc74d\uacbd\ucc30\uc11c \uacfc\uad50\ud30c\ucd9c\uc18c", "type": "police_station", "is_24h": true}, {"lat": 35.7144, "lon": 126.9281, "name": "\uc815\uc74d\uacbd\ucc30\uc11c \uac10\uace1\ud30c\ucd9c\uc18c", "type": "police_station", "is_24h": true}, {"lat": 35.5753, "lon": 126.8433, "name": "\uc815\uc74d\uacbd\ucc30\uc11c \uc5ed\uc804\uc9c0\uad6c\ub300", "type": "police_station", "is_24h": true}, {"lat": 35.9419, "lon": 126.9548, "name": "\uc775\uc0b0\uacbd\ucc30\uc11c \uc911\uc559\uc9c0\uad6c\ub300", "type": "police_station", "is_24h": true}, {"lat": 35.9378, "lon": 126.914, "name": "\uc775\uc0b0\uacbd\ucc30\uc11c \uc624\uc0b0\ud30c\ucd9c\uc18c", "type": "police_station", "is_24h": true}, {"lat": 35.9644, "lon": 126.9542, "name": "\uc775\uc0b0\uacbd\ucc30\uc11c \uc2e0\ub3d9\uc9c0\uad6c\ub300", "type": "police_station", "is_24h": true}, {"lat": 35.0176, "lon": 126.6377, "name": "\ub098\uc8fc\uacbd\ucc30\uc11c \ub2e4\uc2dc\ud30c\ucd9c\uc18c", "type": "police_station", "is_24h": true}, {"lat": 35.0768, "lon": 126.7328, "name": "\ub098\uc8fc\uacbd\ucc30\uc11c \ub178\uc548\ud30c\ucd9c\uc18c", "type": "police_station", "is_24h": true}, {"lat": 35.0474, "lon": 126.8417, "name": "\ub098\uc8fc\uacbd\ucc30\uc11c \ub0a8\ud3c9\ud30c\ucd9c\uc18c", "type": "police_station", "is_24h": true}, {"lat": 35.0316, "lon": 126.7535, "name": "\ub098\uc8fc\uacbd\ucc30\uc11c \uae08\ucc9c\ud30c\ucd9c\uc18c", "type": "police_station", "is_24h": true}, {"lat": 35.1139, "lon": 126.2968, "name": "\ubb34\uc548\uacbd\ucc30\uc11c \ud574\uc81c\ud30c\ucd9c\uc18c", "type": "police_station", "is_24h": true}, {"lat": 35.0545, "lon": 126.993, "name": "\ud654\uc21c\uacbd\ucc30\uc11c \uc74d\ub0b4\uc9c0\uad6c\ub300", "type": "police_station", "is_24h": true}, {"lat": 35.0521, "lon": 126.9619, "name": "\ud654\uc21c\uacbd\ucc30\uc11c \uc5ed\uc804\ud30c\ucd9c\uc18c", "type": "police_station", "is_24h": true}, {"lat": 35.1419, "lon": 126.4332, "name": "\ud568\ud3c9\uacbd\ucc30\uc11c \uc11c\ubd80\ud30c\ucd9c\uc18c", "type": "police_station", "is_24h": true}, {"lat": 35.0165, "lon": 126.5378, "name": "\ud568\ud3c9\uacbd\ucc30\uc11c \ub0a8\ubd80\ud30c\ucd9c\uc18c", "type": "police_station", "is_24h": true}, {"lat": 35.2993, "lon": 126.7806, "name": "\uc7a5\uc131\uacbd\ucc30\uc11c \uc74d\ub0b4\ud30c\ucd9c\uc18c", "type": "police_station", "is_24h": true}, {"lat": 35.2591, "lon": 126.6656, "name": "\uc7a5\uc131\uacbd\ucc30\uc11c \uc0bc\uacc4\ud30c\ucd9c\uc18c", "type": "police_station", "is_24h": true}, {"lat": 35.4309, "lon": 126.8102, "name": "\uc7a5\uc131\uacbd\ucc30\uc11c \ubd81\uc774\ud30c\ucd9c\uc18c", "type": "police_station", "is_24h": true}, {"lat": 35.1815, "lon": 126.7304, "name": "\ubcf8\ub7c9\ud30c\ucd9c\uc18c", "type": "police_station", "is_24h": true}, {"lat": 35.1866, "lon": 126.899, "name": "\uad11\uc8fc\ubd81\ubd80\uacbd\ucc30\uc11c", "type": "police_station", "is_24h": true}, {"lat": 35.4414, "lon": 126.6952, "name": "\uc804\ubd81 \uace0\ucc3d\uacbd\ucc30\uc11c", "type": "police_station", "is_24h": true}, {"lat": 35.3098, "lon": 126.983, "name": "\uc804\ub0a8 \ub2f4\uc591\uacbd\ucc30\uc11c", "type": "police_station", "is_24h": true}, {"lat": 35.1493, "lon": 126.9146, "name": "\ucda9\uc7a5\uce58\uc548\uc13c\ud130", "type": "police_station", "is_24h": true}, {"lat": 35.1538, "lon": 126.8004, "name": "\uad11\uc8fc\uc9c0\ubc29\uacbd\ucc30\uccad", "type": "police_station", "is_24h": true}, {"lat": 35.1121, "lon": 126.8998, "name": "\ud6a8\ub355\ud30c\ucd9c\uc18c", "type": "police_station", "is_24h": true}, {"lat": 35.7319, "lon": 126.7362, "name": "\ubd80\uc548\uacbd\ucc30\uc11c \uc11c\ub9bc\uc9c0\uad6c\ub300", "type": "police_station", "is_24h": true}, {"lat": 35.0624, "lon": 126.9849, "name": "\uc804\ub0a8 \ud654\uc21c\uacbd\ucc30\uc11c", "type": "police_station", "is_24h": true}, {"lat": 35.1228, "lon": 126.9205, "name": "\uad11\uc8fc\ub0a8\ubd80\uacbd\ucc30\uc11c", "type": "police_station", "is_24h": true}, {"lat": 35.1231, "lon": 126.9213, "name": "\uad11\uc8fc\uc9c0\ubc29\uacbd\ucc30\uccad \uc81c1\uae30\ub3d9\ub300", "type": "police_station", "is_24h": true}, {"lat": 35.0609, "lon": 126.208, "name": "\ubaa9\ud3ec\uacbd\ucc30\uc11c \uc9c0\ub3c4\ud30c\ucd9c\uc18c", "type": "police_station", "is_24h": true}, {"lat": 35.2233, "lon": 126.9728, "name": "\ub2f4\uc591\uacbd\ucc30\uc11c \uace0\uc11c\ud30c\ucd9c\uc18c", "type": "police_station", "is_24h": true}, {"lat": 35.1909, "lon": 126.8285, "name": "\uad11\uc0b0\uacbd\ucc30\uc11c \uc218\uc644\uc9c0\uad6c\ub300", "type": "police_station", "is_24h": true}, {"lat": 35.4075, "lon": 126.882, "name": "\uc7a5\uc131\uacbd\ucc30\uc11c \ubd81\ud558\ud30c\ucd9c\uc18c", "type": "police_station", "is_24h": true}, {"lat": 35.3755, "lon": 126.8069, "name": "\uc7a5\uc131\uacbd\ucc30\uc11c \ubd81\uc77c\ud30c\ucd9c\uc18c", "type": "police_station", "is_24h": true}, {"lat": 35.235, "lon": 126.6472, "name": "\uc7a5\uc131\uacbd\ucc30\uc11c \uc0bc\uc11c\ud30c\ucd9c\uc18c", "type": "police_station", "is_24h": true}, {"lat": 35.2997, "lon": 126.7823, "name": "\uc804\ub0a8 \uc7a5\uc131\uacbd\ucc30\uc11c", "type": "police_station", "is_24h": true}, {"lat": 35.2726, "lon": 126.8344, "name": "\uc9c4\uc6d0\uce58\uc548\uc13c\ud130", "type": "police_station", "is_24h": true}, {"lat": 35.2018, "lon": 126.136, "name": "\uc601\uad11\uacbd\ucc30\uc11c \ub099\uc6d4\ud30c\ucd9c\uc18c", "type": "police_station", "is_24h": true}, {"lat": 35.3611, "lon": 126.442, "name": "\uc601\uad11\uacbd\ucc30\uc11c \ubc95\uc131\ud30c\ucd9c\uc18c", "type": "police_station", "is_24h": true}, {"lat": 35.2118, "lon": 126.3752, "name": "\ubaa9\ud3ec\ud574\uc591\uacbd\ucc30\uc11c \uc124\ub3c4\ucd9c\uc7a5\uc18c", "type": "police_station", "is_24h": true}, {"lat": 35.143, "lon": 126.9152, "name": "\uad11\uc8fc\ub0a8\ubd80\uacbd\ucc30\uc11c \uc591\ub9bc\ud30c\ucd9c\uc18c", "type": "police_station", "is_24h": true}, {"lat": 35.505, "lon": 126.7935, "name": "\uc815\uc74d\uacbd\ucc30\uc11c \uc785\uc554\ud30c\ucd9c\uc18c", "type": "police_station", "is_24h": true}, {"lat": 35.8178, "lon": 126.3705, "name": "\uad00\ub9ac\ub3c4\uce58\uc548\uc13c\ud130", "type": "police_station", "is_24h": true}, {"lat": 35.8135, "lon": 126.4146, "name": "\uad70\uc0b0\uacbd\ucc30\uc11c \uc120\uc720\ub3c4\ud30c\ucd9c\uc18c", "type": "police_station", "is_24h": true}, {"lat": 35.0847, "lon": 126.1112, "name": "\ubaa9\ud3ec\uacbd\ucc30\uc11c \uc784\uc790\ud30c\ucd9c\uc18c", "type": "police_station", "is_24h": true}, {"lat": 35.187, "lon": 126.9215, "name": "\ubb38\ud765 \uc9c0\uad6c\ub300", "type": "police_station", "is_24h": true}, {"lat": 35.1508, "lon": 126.842, "name": "\uad11\uc8fc\uc11c\ubd80\uacbd\ucc30\uc11c", "type": "police_station", "is_24h": true}, {"lat": 35.1511, "lon": 126.8427, "name": "\uad11\uc8fc\uc11c\ubd80\uacbd\ucc30\uc11c", "type": "police_station", "is_24h": true}, {"lat": 35.171, "lon": 126.8644, "name": "\ub3d9\ucc9c\ud30c\ucd9c\uc18c", "type": "police_station", "is_24h": true}, {"lat": 35.1578, "lon": 126.8505, "name": "\uc0c1\ubb34\uc9c0\uad6c\ub300", "type": "police_station", "is_24h": true}, {"lat": 35.1639, "lon": 126.884, "name": "\uad11\uc8fc\uc11c\ubd80\uccad\uc18c\ub144\uacbd\ucc30\ud559\uad50", "type": "police_station", "is_24h": true}, {"lat": 35.1665, "lon": 126.8548, "name": "\uc720\ub355\uce58\uc548\uc13c\ud130", "type": "police_station", "is_24h": true}, {"lat": 35.365, "lon": 126.646, "name": "\uace0\ucc3d\uacbd\ucc30\uc11c \uc131\uc1a1\ud30c\ucd9c\uc18c", "type": "police_station", "is_24h": true}, {"lat": 35.7318, "lon": 126.7213, "name": "\uc804\ubd81 \ubd80\uc548\uacbd\ucc30\uc11c", "type": "police_station", "is_24h": true}, {"lat": 35.798, "lon": 126.8969, "name": "\uc804\ubd81 \uae40\uc81c\uacbd\ucc30\uc11c", "type": "police_station", "is_24h": true}, {"lat": 35.9812, "lon": 126.7282, "name": "\uad70\uc0b0\uacbd\ucc30\uc11c", "type": "police_station", "is_24h": true}, {"lat": 35.5675, "lon": 126.8576, "name": "\uc804\ubd81 \uc815\uc74d\uacbd\ucc30\uc11c", "type": "police_station", "is_24h": true}, {"lat": 35.9539, "lon": 126.9399, "name": "\uc804\ubd81 \uc775\uc0b0\uacbd\ucc30\uc11c", "type": "police_station", "is_24h": true}, {"lat": 35.0386, "lon": 126.721, "name": "\ub098\uc8fc\uacbd\ucc30\uc11c", "type": "police_station", "is_24h": true}, {"lat": 35.0654, "lon": 126.5155, "name": "\uc804\ub0a8 \ud568\ud3c9\uacbd\ucc30\uc11c", "type": "police_station", "is_24h": true}, {"lat": 35.2778, "lon": 126.5124, "name": "\uc804\ub0a8 \uc601\uad11\uacbd\ucc30\uc11c", "type": "police_station", "is_24h": true}, {"lat": 35.729, "lon": 126.7367, "name": "\ubd80\uc548\ud574\uc591\uacbd\ucc30\uc11c", "type": "police_station", "is_24h": true}, {"lat": 35.6979, "lon": 126.5588, "name": "\ubd80\uc548\ud574\uc591\uacbd\ucc30\uc11c\ud574\uc591\uacbd\ucc30\uc9c0\uc6d0\uc13c\ud130", "type": "police_station", "is_24h": true}, {"lat": 35.7269, "lon": 126.5314, "name": "\ubd80\uc548\ud574\uc591\uacbd\ucc30\uc11c \uac00\ub825\ub3c4\ucd9c\uc7a5\uc18c", "type": "police_station", "is_24h": true}, {"lat": 35.7362, "lon": 126.4579, "name": "\ube44\uc548\ub3c4\uce58\uc548\uc13c\ud130", "type": "police_station", "is_24h": true}, {"lat": 35.8223, "lon": 126.4756, "name": "\uc0c8\ub9cc\uae08\ud574\uc591\ud30c\ucd9c\uc18c", "type": "police_station", "is_24h": true}, {"lat": 35.8165, "lon": 126.4503, "name": "\uc2e0\uc2dc\ub3c4\uce58\uc548\uc13c\ud130", "type": "police_station", "is_24h": true}, {"lat": 35.9593, "lon": 126.7047, "name": "\uad70\uc0b0\uacbd\ucc30\uc11c \uc740\ud30c\ud30c\ucd9c\uc18c", "type": "police_station", "is_24h": true}, {"lat": 35.6175, "lon": 126.3036, "name": "\ubd80\uc548\ud574\uc591\uacbd\ucc30\uc11c \uc704\ub3c4\ud30c\ucd9c\uc18c", "type": "police_station", "is_24h": true}, {"lat": 35.6046, "lon": 126.2953, "name": "\uc704\ub3c4\ud30c\ucd9c\uc18c", "type": "police_station", "is_24h": true}, {"lat": 35.6276, "lon": 126.2922, "name": "\uc2dd\ub3c4\uce58\uc548\uc13c\ud130", "type": "police_station", "is_24h": true}, {"lat": 35.7317, "lon": 126.7218, "name": "\ubd80\uc548\uacbd\ucc30\uc11c \ubbfc\uc6d0\ubd09\uc0ac\uc2e4", "type": "police_station", "is_24h": true}, {"lat": 35.1528, "lon": 126.7827, "name": "\uad11\uc0b0\uacbd\ucc30\uc11c", "type": "police_station", "is_24h": true}, {"lat": 35.014, "lon": 126.7961, "name": "\ube5b\uac00\ub78c\ud30c\ucd9c\uc18c", "type": "police_station", "is_24h": true}, {"lat": 35.129, "lon": 126.7855, "name": "\ub3c4\uc0b0\ud30c\ucd9c\uc18c", "type": "police_station", "is_24h": true}, {"lat": 35.7295, "lon": 126.7084, "name": "\ud589\uc548\uce58\uc548\uc13c\ud130", "type": "police_station", "is_24h": true}, {"lat": 35.7296, "lon": 126.7085, "name": "\ud589\uc548\uc790\uc728\ubc29\ubc94\ub300", "type": "police_station", "is_24h": true}, {"lat": 35.7158, "lon": 126.665, "name": "\ud558\uc11c\uc790\uc728\ubc29\ubc94\ub300", "type": "police_station", "is_24h": true}, {"lat": 35.7146, "lon": 126.6606, "name": "\ubd80\uc548\uacbd\ucc30\uc11c \ud558\uc11c\ud30c\ucd9c\uc18c", "type": "police_station", "is_24h": true}, {"lat": 35.0176, "lon": 126.6378, "name": "\ub2e4\uc2dc\ud30c\ucd9c\uc18c", "type": "police_station", "is_24h": true}, {"lat": 35.8004, "lon": 126.8988, "name": "\uc2e0\ud48d\uc9c0\uad6c\ub300", "type": "police_station", "is_24h": true}, {"lat": 35.8004, "lon": 126.8986, "name": "police_station", "type": "police_station", "is_24h": true}, {"lat": 35.7196, "lon": 126.7187, "name": "\ubd80\uc548\ud574\uc591\uacbd\ucc30\uccad", "type": "police_station", "is_24h": true}, {"lat": 35.7315, "lon": 126.7213, "name": "police_station", "type": "police_station", "is_24h": true}, {"lat": 35.7866, "lon": 126.6385, "name": "\ubcf8\uacc4\uc790\uc728\ubc29\ubc94\ub300", "type": "police_station", "is_24h": true}, {"lat": 35.1815, "lon": 126.7304, "name": "police_station", "type": "police_station", "is_24h": true}, {"lat": 35.281, "lon": 126.424, "name": "\uc601\uad11\uacbd\ucc30\uc11c \ubc31\uc218\ud30c\ucd9c\uc18c", "type": "police_station", "is_24h": true}, {"lat": 35.2163, "lon": 126.8465, "name": "\ucca8\ub2e8\uc9c0\uad6c\ub300", "type": "police_station", "is_24h": true}, {"lat": 35.2216, "lon": 126.8239, "name": "\ube44\uc544\ud30c\ucd9c\uc18c", "type": "police_station", "is_24h": true}, {"lat": 35.203, "lon": 126.8982, "name": "\uc77c\uace1 \uc9c0\uad6c\ub300", "type": "police_station", "is_24h": true}, {"lat": 35.5554, "lon": 126.7766, "name": "\uc815\uc74d\uacbd\ucc30\uc11c \uc18c\uc131\ud30c\ucd9c\uc18c", "type": "police_station", "is_24h": true}, {"lat": 35.1244, "lon": 126.8788, "name": "\ud48d\uc554\ud30c\ucd9c\uc18c", "type": "police_station", "is_24h": true}, {"lat": 35.1642, "lon": 126.8595, "name": "\ub3d9\ucc9c\ud30c\ucd9c\uc18c", "type": "police_station", "is_24h": true}, {"lat": 35.1871, "lon": 126.8661, "name": "\uad11\uc8fc\ubd81\ubd80\uacbd\ucc30\uc11c \ub3d9\uc6b4\uc9c0\uad6c\ub300", "type": "police_station", "is_24h": true}, {"lat": 35.1409, "lon": 126.9199, "name": "\ud559\uc11c\ud30c\ucd9c\uc18c", "type": "police_station", "is_24h": true}, {"lat": 35.1866, "lon": 126.899, "name": "police_station", "type": "police_station", "is_24h": true}, {"lat": 35.1867, "lon": 126.8989, "name": "police_station", "type": "police_station", "is_24h": true}, {"lat": 35.9672, "lon": 126.696, "name": "\uad70\uc0b0\uacbd\ucc30\uc11c \ub098\uc6b4\uc9c0\uad6c\ub300", "type": "police_station", "is_24h": true}, {"lat": 35.9749, "lon": 126.7348, "name": "police_station", "type": "police_station", "is_24h": true}, {"lat": 35.1343, "lon": 126.6735, "name": "\uad11\uc8fc \uacbd\ucc30\ud2b9\uacf5\ub300", "type": "police_station", "is_24h": true}, {"lat": 35.9914, "lon": 126.7072, "name": "\uad70\uc0b0\ud574\uc591\uacbd\ucc30\uc11c", "type": "police_station", "is_24h": true}, {"lat": 35.983, "lon": 126.8755, "name": "police_station", "type": "police_station", "is_24h": true}, {"lat": 35.8101, "lon": 126.7923, "name": "police_station", "type": "police_station", "is_24h": true}, {"lat": 35.0316, "lon": 126.7534, "name": "police_station", "type": "police_station", "is_24h": true}, {"lat": 35.0316, "lon": 126.7535, "name": "police_station", "type": "police_station", "is_24h": true}, {"lat": 35.4282, "lon": 126.8085, "name": "\ubd81\uc774\uba74\ubcf4\uac74\uc9c0\uc18c", "type": "hospital", "is_24h": false}, {"lat": 35.1673, "lon": 126.809, "name": "\ucc9c\uc218\ud55c\uc758\uc6d0", "type": "hospital", "is_24h": false}, {"lat": 35.1805, "lon": 126.9305, "name": "\ub300\ub3d9\ud55c\ubc29\ubcd1\uc6d0", "type": "hospital", "is_24h": false}, {"lat": 35.1755, "lon": 126.9331, "name": "\uc544\ub984\ub2e4\uc6b4\ud55c\uc758\uc6d0", "type": "hospital", "is_24h": false}, {"lat": 35.1486, "lon": 126.9128, "name": "\uc138\ub828\uc131\ud615\uc678\uacfc", "type": "hospital", "is_24h": false}, {"lat": 35.1718, "lon": 126.9243, "name": "\uc740\ubcd1\uc6d0", "type": "hospital", "is_24h": false}, {"lat": 35.1627, "lon": 126.8086, "name": "\ud638\ub0a8\uc694\uc591\ubcd1\uc6d0", "type": "hospital", "is_24h": false}, {"lat": 35.1599, "lon": 126.931, "name": "\ud55c\ube5b\uc7ac\ud65c\uc758\ud559\uacfc", "type": "hospital", "is_24h": false}, {"lat": 35.1492, "lon": 126.9034, "name": "\uad11\uc8fc\uc6d4\uc0b0\ud55c\ubc29\ubcd1\uc6d0", "type": "hospital", "is_24h": false}, {"lat": 35.1483, "lon": 126.9042, "name": "\uc6b0\ub9ac\uc0b0\ubd80\uc778\uacfc", "type": "hospital", "is_24h": false}, {"lat": 35.1627, "lon": 126.6677, "name": "\uad11\uc8fc\uc2dc\ub9bd \uc778\uad11\uce58\ub9e4\uc694\uc591\ubcd1\uc6d0", "type": "hospital", "is_24h": false}, {"lat": 35.1399, "lon": 126.7952, "name": "\uc544\uc774\uc548\uacfc \uc1a1\uc815\uc810", "type": "hospital", "is_24h": false}, {"lat": 35.1215, "lon": 126.8988, "name": "\uc544\uc774\uc548\uacfc \uc9c4\uc6d4\uc810", "type": "hospital", "is_24h": false}, {"lat": 35.1258, "lon": 126.9175, "name": "\ud6a8\uc815\ud615\uc678\uacfc", "type": "hospital", "is_24h": false}, {"lat": 35.1146, "lon": 126.8977, "name": "\ud6a8\ubbfc\ud55c\uc758\uc6d0", "type": "hospital", "is_24h": false}, {"lat": 35.1788, "lon": 126.8245, "name": "\uc591\uc8fc\uc5f4\ub0b4\uacfc", "type": "hospital", "is_24h": false}, {"lat": 35.148, "lon": 126.9129, "name": "\uad11\uc8fc\ud53c\ubd80\uacfc", "type": "hospital", "is_24h": false}, {"lat": 35.1261, "lon": 126.8973, "name": "\uad8c\uc624\uc131\uc0b0\ubd80\uc778\uacfc", "type": "hospital", "is_24h": false}, {"lat": 35.1395, "lon": 126.8728, "name": "\ubbf8\uc9c0\uc6b0\uba3c", "type": "hospital", "is_24h": false}, {"lat": 35.2139, "lon": 126.8432, "name": "\ucc9c\uacbd\ud638\ud55c\uc758\uc6d0", "type": "hospital", "is_24h": false}, {"lat": 35.162, "lon": 126.9361, "name": "\ub450\uc554\ub0b4\uacfc", "type": "hospital", "is_24h": false}, {"lat": 35.1257, "lon": 126.9119, "name": "\uc724\uacbd\ud658\ub0b4\uacfc", "type": "hospital", "is_24h": false}, {"lat": 35.1339, "lon": 126.9033, "name": "\ubaa8\uc544\uc0b0\ubd80\uc778\uacfc", "type": "hospital", "is_24h": false}, {"lat": 35.1401, "lon": 126.8594, "name": "\uc0f5\ucfe8", "type": "hospital", "is_24h": false}, {"lat": 35.1215, "lon": 126.8988, "name": "\uc57d\uc190\ud55c\uc758\uc6d0", "type": "hospital", "is_24h": false}, {"lat": 35.1976, "lon": 126.8369, "name": "\uc815\ud574\uc728\ud0a4\uc988\uc5d4\uc824\uc18c\uc544\uacfc", "type": "hospital", "is_24h": false}, {"lat": 35.1786, "lon": 126.9177, "name": "\ucc38\uc870\uc740\uac00\uc815\uc758\uc6d0", "type": "hospital", "is_24h": false}, {"lat": 35.1442, "lon": 126.8907, "name": "\uc5f0\ud569\ub0b4\uacfc\uc758\uc6d0", "type": "hospital", "is_24h": false}, {"lat": 35.1794, "lon": 126.81, "name": "\uc790\uc5f0\uadf8\ub9b0\ud55c\ubc29\ubcd1\uc6d0", "type": "hospital", "is_24h": false}, {"lat": 35.128, "lon": 126.9107, "name": "\ub4dc\ub9bc\uc774\ube44\uc778\ud6c4\uacfc", "type": "hospital", "is_24h": false}, {"lat": 35.1494, "lon": 126.8869, "name": "\ucc38\uc0ac\ub791\uc758\uc6d0", "type": "hospital", "is_24h": false}, {"lat": 35.1833, "lon": 126.933, "name": "\uc6b0\uc554\ubcd1\uc6d0", "type": "hospital", "is_24h": false}, {"lat": 35.1276, "lon": 126.9194, "name": "\uc0bc\uc131\ud55c\uc758\uc6d0", "type": "hospital", "is_24h": false}, {"lat": 35.143, "lon": 126.9068, "name": "\uc548\uc601\uc8fc\ub0b4\uacfc", "type": "hospital", "is_24h": false}, {"lat": 35.1289, "lon": 126.9112, "name": "\uc11c\uc6b8\uc5f0\ud569\ub0b4\uacfc\uc758\uc6d0", "type": "hospital", "is_24h": false}, {"lat": 35.2068, "lon": 126.8736, "name": "\uc804\ucca0\uc624\uce58\uacfc\uc758\uc6d0", "type": "hospital", "is_24h": false}, {"lat": 35.1298, "lon": 126.8981, "name": "\ud55c\uc194\uc758\uc6d0", "type": "hospital", "is_24h": false}, {"lat": 35.1456, "lon": 126.9042, "name": "\uc0c8\ubbf8\ub798\ubcd1\uc6d0", "type": "hospital", "is_24h": false}, {"lat": 35.136, "lon": 126.898, "name": "\uc624\ubbfc\uc11d\uc2e0\uacbd\uc678\uacfc", "type": "hospital", "is_24h": false}, {"lat": 35.1537, "lon": 126.9311, "name": "\ud604\ub300\uac00\uc815\uc758\ud559\uacfc", "type": "hospital", "is_24h": false}, {"lat": 35.137, "lon": 126.8937, "name": "\ubb34\ub4f1\uac00\uc815\uc758\ud559\uacfc", "type": "hospital", "is_24h": false}, {"lat": 35.126, "lon": 126.9127, "name": "\ucc38\uc0ac\ub791\uac00\uc815\uc758\ud559\uacfc", "type": "hospital", "is_24h": false}, {"lat": 35.1757, "lon": 126.814, "name": "\uace0\uc6b4\uc758\uc6d0", "type": "hospital", "is_24h": false}, {"lat": 35.1607, "lon": 126.9201, "name": "\uc790\ubaa8\uc0b0\ubd80\uc778\uacfc", "type": "hospital", "is_24h": false}, {"lat": 35.1323, "lon": 126.8948, "name": "\ud604\ub300\uac00\uc815\uc758\ud559\uacfc\uc758\uc6d0", "type": "hospital", "is_24h": false}, {"lat": 35.0811, "lon": 126.8328, "name": "\ub300\ucd0c\uc11c\uc554\uc758\uc6d0", "type": "hospital", "is_24h": false}, {"lat": 35.126, "lon": 126.911, "name": "\uc0bc\uc131\ud55c\uc758\uc6d0", "type": "hospital", "is_24h": false}, {"lat": 35.121, "lon": 126.899, "name": "\uc870\ubbfc\uc11d\ub0b4\uacfc\uc758\uc6d0", "type": "hospital", "is_24h": false}, {"lat": 35.1525, "lon": 126.9166, "name": "\uae40\uc2b9\uc644\uc678\uacfc\ubcd1\uc6d0", "type": "hospital", "is_24h": false}, {"lat": 35.1518, "lon": 126.917, "name": "\uae40\uc815\ud615\uc678\uacfc\ubcd1\uc6d0", "type": "hospital", "is_24h": false}, {"lat": 35.1867, "lon": 126.8656, "name": "\ubbf8\uc18c\uadf8\ub9b0 \ud55c\uc758\uc6d0", "type": "hospital", "is_24h": false}, {"lat": 35.1328, "lon": 126.9101, "name": "\ud55c\uc77c\ubcd1\uc6d0", "type": "hospital", "is_24h": false}, {"lat": 35.1371, "lon": 126.9013, "name": "\uc81c\uc77c\ubcd1\uc6d0", "type": "hospital", "is_24h": false}, {"lat": 35.1592, "lon": 126.9113, "name": "\ud638\uc131\ubcd1\uc6d0", "type": "hospital", "is_24h": false}, {"lat": 35.1753, "lon": 126.9297, "name": "\uc5d0\ub374\ubcd1\uc6d0", "type": "hospital", "is_24h": false}, {"lat": 35.1808, "lon": 126.933, "name": "\uad11\uc8fc\ubbf8\ub798\ubcd1\uc6d0", "type": "hospital", "is_24h": false}, {"lat": 35.1665, "lon": 126.8012, "name": "\ud558\ub0a8\uc131\uc2ec\ubcd1\uc6d0", "type": "hospital", "is_24h": false}, {"lat": 35.1341, "lon": 126.7973, "name": "\uc1a1\uc815\uc0ac\ub791\ubcd1\uc6d0", "type": "hospital", "is_24h": false}, {"lat": 35.2136, "lon": 126.8748, "name": "\uac70\uc9c4", "type": "hospital", "is_24h": false}, {"lat": 35.1496, "lon": 126.6729, "name": "\ud6a8\uc815\ubcd1\uc6d0", "type": "hospital", "is_24h": false}, {"lat": 35.1831, "lon": 126.8505, "name": "\ud55c\uc9c4\ub178\ube14\ubcd1\uc6d0", "type": "hospital", "is_24h": false}, {"lat": 35.1496, "lon": 126.6729, "name": "\ud6a8\uc815\ub178\uc778\ubcd1\uc6d0", "type": "hospital", "is_24h": false}, {"lat": 35.1476, "lon": 126.8845, "name": "\uc774\uc6a9\uc11d\ud55c\ubc29\uc758\uc6d0", "type": "hospital", "is_24h": false}, {"lat": 35.1632, "lon": 126.8067, "name": "\uad11\uc8fc\ub178\uc778\ubcd1\uc6d0", "type": "hospital", "is_24h": false}, {"lat": 35.1301, "lon": 126.8574, "name": "\ud558\ub0a8\uc0b0\ubd80\uc778\uacfc\ubcd1\uc6d0", "type": "hospital", "is_24h": false}, {"lat": 35.1527, "lon": 126.8989, "name": "\ubb34\uc9c0\uac1c\ubcd1\uc6d0", "type": "hospital", "is_24h": false}, {"lat": 35.1897, "lon": 126.8993, "name": "\ud574\ub9d1\uc740\uc2e0\uacbd\uc815\uc2e0\uacfc\ubcd1\uc6d0", "type": "hospital", "is_24h": false}, {"lat": 35.1787, "lon": 126.9175, "name": "\ud0dc\ud3c9\ud55c\uc758\uc6d0", "type": "hospital", "is_24h": false}, {"lat": 35.1447, "lon": 126.9146, "name": "\uc11c\ub0a8\ub300\ud559\uad50\ubcd1\uc6d0", "type": "hospital", "is_24h": false}, {"lat": 35.141, "lon": 126.8853, "name": "\ubbf8\ub798\ub85c21\ubcd1\uc6d0", "type": "hospital", "is_24h": true}, {"lat": 35.1833, "lon": 126.933, "name": "\uc6b0\uc554\ud55c\ubc29\ubcd1\uc6d0", "type": "hospital", "is_24h": false}, {"lat": 35.1579, "lon": 126.9194, "name": "\uae40\ud76c\ucca0\ub3d9\uc11c\ud55c\ubc29\ubcd1\uc6d0", "type": "hospital", "is_24h": false}, {"lat": 35.1801, "lon": 126.874, "name": "\ub3d9\uc11c\ud558\ub098\ub85c\ud55c\ubc29\ubcd1\uc6d0", "type": "hospital", "is_24h": false}, {"lat": 35.1502, "lon": 126.8956, "name": "\ub3d9\uc2e0\ub300\ud559\uad50\ubd80\uc18d\uad11\uc8fc\ud55c\ubc29\ubcd1\uc6d0", "type": "hospital", "is_24h": false}, {"lat": 35.2113, "lon": 126.8458, "name": "\uc744\uc9c0\uac00\uc815\uc758\ud559\uacfc\uc758\uc6d0", "type": "hospital", "is_24h": false}, {"lat": 35.132, "lon": 126.9361, "name": "\ud55c\uc194\uc5f0\ud569\uc758\uc6d0", "type": "hospital", "is_24h": false}, {"lat": 35.1473, "lon": 126.8888, "name": "\uace0\ud76c\uad00\ub0b4\uacfc", "type": "hospital", "is_24h": false}, {"lat": 35.1694, "lon": 126.8088, "name": "\ud55c\uc815\ub82c\ub0b4\uacfc", "type": "hospital", "is_24h": false}, {"lat": 35.2136, "lon": 126.8433, "name": "\ucf54\ucf54\uc774\ube44\uc778\ud6c4\uacfc", "type": "hospital", "is_24h": false}, {"lat": 35.175, "lon": 126.8139, "name": "\ub458\ub9ac\ud55c\uc758\uc6d0 \uc6b4\ub0a8\uc810", "type": "hospital", "is_24h": false}, {"lat": 35.1493, "lon": 126.8873, "name": "\uc5fc\ub0b4\uacfc\uc758\uc6d0", "type": "hospital", "is_24h": false}, {"lat": 35.2136, "lon": 126.8433, "name": "\uc990\uac70\uc6b4\ub0b4\uacfc", "type": "hospital", "is_24h": false}, {"lat": 35.2151, "lon": 126.8432, "name": "\ub9e8\uc564\uc6b0\uba3c\uc758\uc6d0", "type": "hospital", "is_24h": false}, {"lat": 35.1494, "lon": 126.9141, "name": "\uae30\ucc2c\uc885\ud53c\ubd80\uacfc\uc758\uc6d0", "type": "hospital", "is_24h": false}, {"lat": 35.1689, "lon": 126.9024, "name": "\uc911\ud765\uc560\uacac\ubcd1\uc6d0", "type": "hospital", "is_24h": false}, {"lat": 35.1588, "lon": 126.9306, "name": "\uc601\uc7ac\uc560\uacac\uc885\ud569\ubcd1\uc6d0", "type": "hospital", "is_24h": false}, {"lat": 35.1578, "lon": 126.9052, "name": "\ub2e4\uc778\uc544\uc774\ub514", "type": "hospital", "is_24h": false}, {"lat": 35.1332, "lon": 126.9059, "name": "\ud50c\ub85c\ub9ac\ub2e4\uc758\uc6d0", "type": "hospital", "is_24h": false}, {"lat": 35.166, "lon": 126.9324, "name": "\uc774\uc058\uc9c0\uc624", "type": "hospital", "is_24h": false}, {"lat": 35.1744, "lon": 126.926, "name": "\uc591\ub3d9\uade0\ube44\ub9cc\ud06c\ub9ac\ub2c9", "type": "hospital", "is_24h": false}, {"lat": 35.1702, "lon": 126.8088, "name": "\ubbf8\ubbf8\ud53c\ubd80\uad00\ub9ac", "type": "hospital", "is_24h": false}, {"lat": 35.1573, "lon": 126.8688, "name": "\uc774\uc058\uc9c0\uc624\ub0b4\ubc29\uc810", "type": "hospital", "is_24h": false}, {"lat": 35.1518, "lon": 126.8861, "name": "\ubc43\uc0b4\ub2f7\ucef4", "type": "hospital", "is_24h": false}, {"lat": 35.1303, "lon": 126.9107, "name": "\ub204\ub9ac\uacfc", "type": "hospital", "is_24h": false}, {"lat": 35.1288, "lon": 126.9184, "name": "\ub2e4\ub098\uc758\uc6d0", "type": "hospital", "is_24h": false}, {"lat": 35.1855, "lon": 126.9225, "name": "\ud55c\uc591\uc7ac\ud65c\uc758\ud559\uacfc\uc758\uc6d0", "type": "hospital", "is_24h": false}, {"lat": 35.2173, "lon": 126.8423, "name": "\ub3c4\uc6d0\uc544\uc774\ud55c\uc758\uc6d0", "type": "hospital", "is_24h": false}, {"lat": 35.1453, "lon": 126.8693, "name": "\uc7a5\ub450\uc775\uce58\uacfc\uc758\uc6d0", "type": "hospital", "is_24h": false}, {"lat": 35.1616, "lon": 126.9283, "name": "\ubbf8\ub798\uc5f0\ud569\uc7ac\ud65c\uc758\ud559\uacfc\uc758\uc6d0", "type": "hospital", "is_24h": false}, {"lat": 35.1557, "lon": 126.8902, "name": "EZ", "type": "hospital", "is_24h": false}, {"lat": 35.1335, "lon": 126.9113, "name": "\ud55c\ube5b\uc7ac\ud65c\uc758\ud559\uacfc\uc758\uc6d0", "type": "hospital", "is_24h": false}, {"lat": 35.1615, "lon": 126.9359, "name": "\uac15\uc7ac\ud65c\uc758\ud559\uacfc\uc758\uc6d0", "type": "hospital", "is_24h": false}, {"lat": 35.1757, "lon": 126.8811, "name": "\uc7a5\uc758\uc218\uc7ac\ud65c\uc758\ud559\uacfc", "type": "hospital", "is_24h": false}, {"lat": 35.1522, "lon": 126.9312, "name": "\uac74\uac15\uc758\uc6d0", "type": "hospital", "is_24h": false}, {"lat": 35.1288, "lon": 126.8979, "name": "\uc7a5\ub0b4\uacfc\uc758\uc6d0", "type": "hospital", "is_24h": false}, {"lat": 35.1464, "lon": 126.9038, "name": "(\uc0ac\ub2e8)\uc7a5\uc560\uc6b0\uc0ac\ub791\uc6b4\ub3d9\ubcf8\ubd80\ucc38\uc0ac\ub791\uc758\uc6d0 (( Sadan ) ", "type": "hospital", "is_24h": false}, {"lat": 35.1877, "lon": 126.8658, "name": "\ub3d9\ub9bc\uac00\uc815\uc758\uc6d0", "type": "hospital", "is_24h": false}, {"lat": 35.1452, "lon": 126.9161, "name": "\uc870\uc0c1\uad6c\uc678\uacfc", "type": "hospital", "is_24h": false}, {"lat": 35.1662, "lon": 126.8107, "name": "\uc7a5\uad6d\uc2e0\uc18c\uc544\uacfc\uc758\uc6d0", "type": "hospital", "is_24h": false}, {"lat": 35.1612, "lon": 126.9354, "name": "\uc900\uc774\ube44\uc778\ud6c4\uacfc", "type": "hospital", "is_24h": false}, {"lat": 35.2174, "lon": 126.8435, "name": "\ubbf8\ub798\ud1b5\uc99d\uc758\ud559", "type": "hospital", "is_24h": false}, {"lat": 35.1739, "lon": 126.9256, "name": "\uc9c4\uc81c\ud1b5\uc758\uc6d0", "type": "hospital", "is_24h": false}, {"lat": 35.173, "lon": 126.9127, "name": "\ub9c8\uc74c\ub9c8\ucde8\ud1b5\uc99d\uc758\ud559\uacfc\uc758\uc6d0", "type": "hospital", "is_24h": false}, {"lat": 35.9794, "lon": 126.6998, "name": "\uad70\uc0b0\ud6a8\uc790\ubcd1\uc6d0", "type": "hospital", "is_24h": false}, {"lat": 35.9773, "lon": 126.7373, "name": "\ub3d9\uad70\uc0b0\ubcd1\uc6d0", "type": "hospital", "is_24h": true}, {"lat": 35.9649, "lon": 126.7026, "name": "\ubbf8\uc988\uc544\uc774\uc0b0\ubd80\uc778\uacfc", "type": "hospital", "is_24h": false}, {"lat": 35.945, "lon": 126.6866, "name": "\uc2e0\uba85\ud55c\uc758\uc6d0", "type": "hospital", "is_24h": false}, {"lat": 35.9683, "lon": 126.6974, "name": "\uad70\uc0b0 \ucc28\ubcd1\uc6d0", "type": "hospital", "is_24h": false}, {"lat": 35.9681, "lon": 126.7054, "name": "\ub204\uac00\uce58\uacfc\uc758\uc6d0;\uae40\uc9c4\uc624\ub0b4\uacfc\uc758\uc6d0", "type": "hospital", "is_24h": false}, {"lat": 35.9844, "lon": 126.7194, "name": "\uc5f4\ub9b0\uac00\uc815\uc758\ud559\uacfc\uc758\uc6d0", "type": "hospital", "is_24h": false}, {"lat": 35.9861, "lon": 126.7129, "name": "\ub3d9\ub0a8\uc678\uacfc\uc758\uc6d0", "type": "hospital", "is_24h": false}, {"lat": 35.9869, "lon": 126.711, "name": "\uae40\ucd98\uc2dd\uc2e0\uacbd\uacfc", "type": "hospital", "is_24h": false}, {"lat": 35.9649, "lon": 126.7033, "name": "\uba54\ub514\ubca0\ubca0\uc18c\uc544\uacfc\uc758\uc6d0", "type": "hospital", "is_24h": false}, {"lat": 35.9886, "lon": 126.7125, "name": "\uae40\uc774\ube44\uc778\ud6c4\uacfc\uc758\uc6d0", "type": "hospital", "is_24h": false}, {"lat": 35.9623, "lon": 126.7153, "name": "\uc11c\uc6b8\uc815\ud615\uc678\uacfc", "type": "hospital", "is_24h": false}, {"lat": 35.9863, "lon": 126.7103, "name": "\uc870\uc815\ud615\uc678\uacfc\uc758\uc6d0", "type": "hospital", "is_24h": false}, {"lat": 35.9867, "lon": 126.7133, "name": "\ub300\ub3d9\uc0b0\ubd80\uc778\uacfc\uc758\uc6d0", "type": "hospital", "is_24h": false}, {"lat": 35.9622, "lon": 126.7007, "name": "\uace0\ud53c\ubd80\uacfc;\uc804\ub0b4\uacfc\uc758\uc6d0", "type": "hospital", "is_24h": false}, {"lat": 35.9784, "lon": 126.7047, "name": "\uc548\uc6b0\uc11d\ub0b4\uacfc", "type": "hospital", "is_24h": false}, {"lat": 35.974, "lon": 126.7381, "name": "\uc815\uccb4\uad50\uc815\uad70\uc0b0\uc5f0\uad6c\uc6d0", "type": "hospital", "is_24h": false}, {"lat": 35.9642, "lon": 126.7024, "name": "\uc548\ud64d\uc11d\uc6f0\ube59\ub0b4\uacfc\uc758\uc6d0", "type": "hospital", "is_24h": false}, {"lat": 35.9425, "lon": 126.6881, "name": "\uc2ec\ud604\uc12d\uc18c\uc544\uacfc\uc758\uc6d0", "type": "hospital", "is_24h": false}, {"lat": 35.9803, "lon": 126.7199, "name": "\ud55c\uc0ac\ub791\uc758\uc6d0", "type": "hospital", "is_24h": false}, {"lat": 35.9802, "lon": 126.719, "name": "\ubc31\ub0b4\uacfc\uc758\uc6d0", "type": "hospital", "is_24h": false}, {"lat": 35.9865, "lon": 126.7121, "name": "\uacf5\uc548\uc758\uc6d0", "type": "hospital", "is_24h": false}, {"lat": 35.97, "lon": 126.7149, "name": "\ub2e4\ub098\uc18c\uc544\uacfc", "type": "hospital", "is_24h": false}, {"lat": 35.9753, "lon": 126.7306, "name": "\uc131\uac00\uc815\ud615\uc678\uacfc\uc758\uc6d0", "type": "hospital", "is_24h": false}, {"lat": 35.9884, "lon": 126.7123, "name": "\uae40\ube44\ub1e8\uae30\uacfc\uc758\uc6d0", "type": "hospital", "is_24h": false}, {"lat": 35.9795, "lon": 126.7331, "name": "\ucd5c\uc601\uac00\uc815\uc758\ud559\uacfc\uc758\uc6d0", "type": "hospital", "is_24h": false}, {"lat": 35.986, "lon": 126.7105, "name": "\uae40\uc815\ud615\uc678\uacfc\uc758\uc6d0", "type": "hospital", "is_24h": false}, {"lat": 35.9682, "lon": 126.6976, "name": "\ub204\uac00\uc2e0\uacbd\uc678\uacfc\uc758\uc6d0", "type": "hospital", "is_24h": false}, {"lat": 35.9693, "lon": 126.7124, "name": "\ubc29\uc2e0\uacbd\uc678\uacfc", "type": "hospital", "is_24h": false}, {"lat": 35.9855, "lon": 126.7108, "name": "\ucd5c\uc2e0\uacbd\uc815\uc2e0\uacfc\uc758\uc6d0", "type": "hospital", "is_24h": false}, {"lat": 35.9717, "lon": 126.6811, "name": "\ud55c\uc591\uc815\ud615\uc678\uacfc\uc758\uc6d0", "type": "hospital", "is_24h": false}, {"lat": 35.9626, "lon": 126.7514, "name": "\uac1c\uc815\uc2e0\uacbd\uc815\uc2e0\uacfc", "type": "hospital", "is_24h": false}, {"lat": 35.9874, "lon": 126.7088, "name": "\uad70\uc0b0\uc2e0\uacbd\uc815\uc2e0\uacfc\uc758\uc6d0", "type": "hospital", "is_24h": false}, {"lat": 35.9784, "lon": 126.7168, "name": "\ubc15\uc678\uacfc\uc758\uc6d0", "type": "hospital", "is_24h": false}, {"lat": 35.982, "lon": 126.7099, "name": "\uc774\uc678\uacfc\uc758\uc6d0", "type": "hospital", "is_24h": false}, {"lat": 35.9697, "lon": 126.6838, "name": "\uae40\ubd09\uac00\uc815\uc758\ud559\uacfc", "type": "hospital", "is_24h": false}, {"lat": 35.9699, "lon": 126.709, "name": "\uc0ac\ub791\uac00\uc815\uc758\ud559\uacfc\uc758\uc6d0", "type": "hospital", "is_24h": false}, {"lat": 35.9655, "lon": 126.7152, "name": "\ucd5c\uc6b1\uc0b0\ubd80\uc778\uacfc", "type": "hospital", "is_24h": false}, {"lat": 35.985, "lon": 126.7103, "name": "\uc774\uc9c4\ud558\ube44\ub1e8\uae30\uacfc\uc758\uc6d0", "type": "hospital", "is_24h": false}, {"lat": 35.9704, "lon": 126.7108, "name": "\ubaa8\uc138\uc2e0\uacbd\uc678\uacfc", "type": "hospital", "is_24h": false}, {"lat": 35.9565, "lon": 126.716, "name": "\uc740\ud61c\uc0b0\ubd80\uc778\uacfc", "type": "hospital", "is_24h": false}, {"lat": 35.9802, "lon": 126.719, "name": "\uc815\uc77c\uc131\uc2e0\uacbd\uc815\uc2e0\uacfc\uc758\uc6d0", "type": "hospital", "is_24h": false}, {"lat": 35.9648, "lon": 126.7025, "name": "\uad70\uc0b0\ud1b5\uc99d\ud06c\ub9ac\ub2c9", "type": "hospital", "is_24h": false}, {"lat": 35.9802, "lon": 126.7333, "name": "\ud30c\ud2f0\ub9c8\uc758\uc6d0", "type": "hospital", "is_24h": false}, {"lat": 35.9831, "lon": 126.7169, "name": "\uc724\uc11d\ud76c\ub0b4\uacfc", "type": "hospital", "is_24h": false}, {"lat": 35.9654, "lon": 126.695, "name": "\uc815\uc131\uc6d0\ub0b4\uacfc\uc758\uc6d0", "type": "hospital", "is_24h": false}, {"lat": 35.9687, "lon": 126.7053, "name": "\uad70\uc0b0\ud604\ub300\uc774\ube44\uc778\ud6c4\uacfc\uc758\uc6d0", "type": "hospital", "is_24h": false}, {"lat": 35.9869, "lon": 126.7113, "name": "\uc2e0\uc6a9\ud638\uc774\ube44\uc778\ud6c4\uacfc\uc758\uc6d0", "type": "hospital", "is_24h": false}, {"lat": 35.9694, "lon": 126.7233, "name": "\ubbf8\ub798\uc640\uc5ec\uc131\uc0b0\ubd80\uc778\uacfc", "type": "hospital", "is_24h": false}, {"lat": 35.9756, "lon": 126.7308, "name": "\uc81c\uc77c\uac00\uc815\uc758\ud559\uacfc", "type": "hospital", "is_24h": false}, {"lat": 35.9627, "lon": 126.6938, "name": "\uad70\uc0b0\ud56d\ubb38\uc678\uacfc\uc758\uc6d0", "type": "hospital", "is_24h": false}, {"lat": 35.9636, "lon": 126.6937, "name": "\uae40\uad11\uc9c4\ub0b4\uacfc\uc758\uc6d0", "type": "hospital", "is_24h": false}, {"lat": 35.9647, "lon": 126.7018, "name": "\uad70\uc0b0\uc774\ube44\uc778\ud6c4\uacfc\uc758\uc6d0", "type": "hospital", "is_24h": false}, {"lat": 35.9795, "lon": 126.7181, "name": "\uc774\uc0c1\ucca0\ub0b4\uacfc\uc758\uc6d0", "type": "hospital", "is_24h": false}, {"lat": 35.9869, "lon": 126.7113, "name": "\uc2e0\uc774\ube44\uc778\ud6c4\uacfc\uc758\uc6d0", "type": "hospital", "is_24h": false}, {"lat": 35.9715, "lon": 126.7053, "name": "\uc774\ud615\ub8e1\ub0b4\uacfc", "type": "hospital", "is_24h": false}, {"lat": 35.9745, "lon": 126.7303, "name": "(\uc758\ub8cc\ubc95\uc778)\uad00\uc8fc\uc758\ub8cc\uc7ac\ub2e8\uc870\ucd0c\uc815\ub2e4\uc6b4\uc758\uc6d0 (( Uiryobe", "type": "hospital", "is_24h": false}, {"lat": 35.9585, "lon": 126.7045, "name": "\uae40\ud0dc\uc6b1\uc18c\uc544\uacfc", "type": "hospital", "is_24h": false}, {"lat": 35.9796, "lon": 126.7184, "name": "\uc138\ub9b0\uc18c\uc544\uacfc\uc758\uc6d0", "type": "hospital", "is_24h": false}, {"lat": 35.9737, "lon": 126.7253, "name": "\uc131\ubaa8\ub0b4\uacfc", "type": "hospital", "is_24h": false}, {"lat": 35.9695, "lon": 126.6841, "name": "\ud574\ub9d1\uc740\uc18c\uc544\uacfc", "type": "hospital", "is_24h": false}, {"lat": 35.9855, "lon": 126.7108, "name": "\uc548\uc774\ube44\uc778\ud6c4\uacfc\uc758\uc6d0", "type": "hospital", "is_24h": false}, {"lat": 35.9844, "lon": 126.71, "name": "\ub3d9\uc11c\uc758\uc6d0", "type": "hospital", "is_24h": false}, {"lat": 35.971, "lon": 126.6985, "name": "hospital", "type": "hospital", "is_24h": false}, {"lat": 35.9882, "lon": 126.7097, "name": "\uae40\ub0b4\uacfc\uc758\uc6d0", "type": "hospital", "is_24h": false}, {"lat": 35.9865, "lon": 126.7121, "name": "\uc774\ucd98\uad6c\ud53c\ubd80\ube44\ub1e8\uae30\uacfc", "type": "hospital", "is_24h": false}, {"lat": 35.9454, "lon": 126.6871, "name": "\uae40\ud604\uc911\ub0b4\uacfc\uc758\uc6d0", "type": "hospital", "is_24h": false}, {"lat": 35.9694, "lon": 126.6968, "name": "\ucd5c\ud604\uc218\uc774\ube44\uc778\ud6c4\uacfc\uc758\uc6d0;\uc18c\ub9dd\uc911\uace0\ub9c8\ud2b8;(\uc720\ud55c)\ub9e4\uc9c1\uc720\ud1b5\ud560\uc778\ub9c8\ud2b8", "type": "hospital", "is_24h": false}, {"lat": 35.9442, "lon": 126.8129, "name": "\ub300\uc57c\uc81c\uc77c\uc758\uc6d0", "type": "hospital", "is_24h": false}, {"lat": 35.9683, "lon": 126.7093, "name": "\uad70\uc0b0\uc815\ud615\uc678\uacfc\uc758\uc6d0", "type": "hospital", "is_24h": false}, {"lat": 35.9699, "lon": 126.7079, "name": "\uac00\uc744\uc758\uc6d0", "type": "hospital", "is_24h": false}, {"lat": 35.9701, "lon": 126.7109, "name": "\uc9c0\ud604\uaddc\ub0b4\uacfc\uc758\uc6d0", "type": "hospital", "is_24h": false}, {"lat": 35.9442, "lon": 126.6908, "name": "\ud574\ube44\uce58\uc758\uc6d0", "type": "hospital", "is_24h": false}, {"lat": 35.9695, "lon": 126.6841, "name": "\uc18d\ud3b8\ud55c\ub0b4\uacfc", "type": "hospital", "is_24h": false}, {"lat": 35.9779, "lon": 126.711, "name": "\ucc38\uc870\uc740\uac00\uc815\uc758\ud559\uacfc\uc758\uc6d0", "type": "hospital", "is_24h": false}, {"lat": 35.946, "lon": 126.8119, "name": "\uc9c0\uacbd\uc678\uacfc\uc758\uc6d0", "type": "hospital", "is_24h": false}, {"lat": 35.9859, "lon": 126.7104, "name": "\uad70\uc0b0\uc5f0\ud569\ubc29\uc0ac\uc120\uacfc\uc758\uc6d0", "type": "hospital", "is_24h": false}, {"lat": 35.985, "lon": 126.7103, "name": "\uc774\uc9c4\ud558\ud53c\ubd80\ube44\ub1e8\uae30\uacfc", "type": "hospital", "is_24h": false}, {"lat": 35.9681, "lon": 126.6979, "name": "\ucd5c\ud604\uc218\uc774\ube44\uc778\ud6c4\uacfc\uc758\uc6d0", "type": "hospital", "is_24h": false}, {"lat": 35.9625, "lon": 126.6969, "name": "\uad70\uc0b0\ud55c\ube5b\uc548\uacfc\uc758\uc6d0", "type": "hospital", "is_24h": false}, {"lat": 35.9241, "lon": 126.6441, "name": "\uc131\ub300\uc758\uc6d0", "type": "hospital", "is_24h": false}, {"lat": 35.9622, "lon": 126.7157, "name": "\uc608\ubbf8\uc548\uc758\uc6d0", "type": "hospital", "is_24h": false}, {"lat": 35.9761, "lon": 126.706, "name": "\ud55c\uad6d\ubcd1\uc6d0", "type": "hospital", "is_24h": true}, {"lat": 35.9699, "lon": 126.7098, "name": "\uc218\uc774\ube44\uc778\ud6c4\uacfc", "type": "hospital", "is_24h": false}, {"lat": 35.9647, "lon": 126.7024, "name": "\uc900\ud53c\ubd80\uacfc", "type": "hospital", "is_24h": false}, {"lat": 35.9737, "lon": 126.7157, "name": "\uc911\uc559\uac00\uc815\uc758\ud559\uacfc\uc758\uc6d0", "type": "hospital", "is_24h": false}, {"lat": 35.9842, "lon": 126.8518, "name": "\uc870\uc740\uac00\uc815\uc758\ud559\uacfc\uc758\uc6d0", "type": "hospital", "is_24h": false}, {"lat": 35.9446, "lon": 126.8167, "name": "\ucc38\uc0ac\ub791\uc2e0\uacbd\uacfc\uc758\uc6d0", "type": "hospital", "is_24h": false}, {"lat": 35.97, "lon": 126.711, "name": "\uc9c0\ud604\uaddc\ub0b4\uacfc", "type": "hospital", "is_24h": false}, {"lat": 35.9623, "lon": 126.7153, "name": "\uc6b0\ub9ac\ub4e4\uc18c\uc544\uacfc\uc758\uc6d0", "type": "hospital", "is_24h": false}, {"lat": 35.9745, "lon": 126.7303, "name": "\uc815\ub2e4\uc6b4\uc758\uc6d0", "type": "hospital", "is_24h": false}, {"lat": 35.9796, "lon": 126.7184, "name": "\uccad\uc6b0\uc815\ud615\uc678\uacfc", "type": "hospital", "is_24h": false}, {"lat": 35.9808, "lon": 126.7075, "name": "\uacfd\ud765\uc218\uc77c\ubc18\uc678\uacfc\uc758\uc6d0", "type": "hospital", "is_24h": false}, {"lat": 35.9802, "lon": 126.7333, "name": "\uc138\uc885\uc758\uc6d0", "type": "hospital", "is_24h": false}, {"lat": 35.9888, "lon": 126.7133, "name": "\ud604\ub300\uc758\uc6d0", "type": "hospital", "is_24h": false}, {"lat": 35.9715, "lon": 126.7053, "name": "\uae40\uc131\ubc30\uc815\ud615\uc678\uacfc\uc758\uc6d0", "type": "hospital", "is_24h": false}, {"lat": 35.9603, "lon": 126.5495, "name": "\uad70\uc7a5\uc0b0\uc5c5\ub2e8\uc9c0\ubcf4\uac74\uc9c0\uc18c", "type": "hospital", "is_24h": false}, {"lat": 35.9669, "lon": 126.7007, "name": "\ud64d\ud55c\uc758\uc6d0", "type": "hospital", "is_24h": false}, {"lat": 35.9704, "lon": 126.7152, "name": "\uc6d0\uad11\ud55c\uc758\uc6d0", "type": "hospital", "is_24h": false}, {"lat": 35.9234, "lon": 126.6432, "name": "\ubbf8\uc131\ubcf4\uac74\uc18c", "type": "hospital", "is_24h": false}, {"lat": 35.9763, "lon": 126.7335, "name": "\ub2e4\uc0ac\ub791\uc758\uc6d0", "type": "hospital", "is_24h": false}, {"lat": 35.9682, "lon": 126.6844, "name": "\uc11c\uc6b8\uc758\uc6d0", "type": "hospital", "is_24h": false}, {"lat": 35.9686, "lon": 126.684, "name": "\uc18c\ub8e1\ud55c\uc758\uc6d0", "type": "hospital", "is_24h": false}, {"lat": 35.9751, "lon": 126.7316, "name": "\ub355\uc81c\ud55c\uc758\uc6d0", "type": "hospital", "is_24h": false}, {"lat": 35.9581, "lon": 126.7924, "name": "\uac1c\uc815\ubcf4\uac74\uc9c0\uc18c", "type": "hospital", "is_24h": false}, {"lat": 35.9395, "lon": 126.7483, "name": "\uc625\uc0b0\ubcf4\uac74\uc9c0\uc18c", "type": "hospital", "is_24h": false}, {"lat": 35.9866, "lon": 126.7086, "name": "\uc9c0\uc0b0\ud55c\uc758\uc6d0", "type": "hospital", "is_24h": false}, {"lat": 35.9705, "lon": 126.6989, "name": "\uad70\uc0b0\ud55c\uc758\uc6d0;\uc6b0\ub9ac\ud55c\uc758\uc6d0", "type": "hospital", "is_24h": false}, {"lat": 35.9766, "lon": 126.708, "name": "\ub3d9\uc81c\uc758\uc6d0", "type": "hospital", "is_24h": false}, {"lat": 35.981, "lon": 126.8777, "name": "\uc11c\uc218\ubcf4\uac74\uc9c0\uc18c", "type": "hospital", "is_24h": false}, {"lat": 35.9815, "lon": 126.7199, "name": "\ub3d9\uc758\ubcf4\uac10\ud55c\uc758\uc6d0", "type": "hospital", "is_24h": false}, {"lat": 35.9697, "lon": 126.7052, "name": "\uae40\ud638\uadfc\ud55c\uc758\uc6d0", "type": "hospital", "is_24h": false}, {"lat": 35.9701, "lon": 126.7054, "name": "\ub3d9\uc601\ud55c\uc758\uc6d0", "type": "hospital", "is_24h": false}, {"lat": 35.9751, "lon": 126.6789, "name": "\uc18c\ub8e1\uc758\uc6d0", "type": "hospital", "is_24h": false}, {"lat": 35.9655, "lon": 126.7023, "name": "\uc0bc\uc131\uc758\uc6d0;\uc0bc\uc131\uc815\ud615\uc678\uacfc", "type": "hospital", "is_24h": false}, {"lat": 35.9641, "lon": 126.7522, "name": "\uc774\uc120\uc790\ud2b9\uc218\uc544\ub3d9\uc13c\ud130", "type": "hospital", "is_24h": false}, {"lat": 35.9652, "lon": 126.7021, "name": "\uacbd\ud76c\ud61c\uc6d0\ud55c\uc758\uc6d0", "type": "hospital", "is_24h": false}, {"lat": 35.9766, "lon": 126.7054, "name": "\uc11c\uc6b8\ud55c\uc758\uc6d0", "type": "hospital", "is_24h": false}, {"lat": 35.9695, "lon": 126.6841, "name": "\ud558\ub098\uc758\uc6d0", "type": "hospital", "is_24h": false}, {"lat": 35.9657, "lon": 126.6951, "name": "\ucc28\ud55c\uc758\uc6d0", "type": "hospital", "is_24h": false}, {"lat": 35.9764, "lon": 126.7359, "name": "\ubcf4\uc0dd\ud55c\uc758\uc6d0", "type": "hospital", "is_24h": false}, {"lat": 35.9861, "lon": 126.7106, "name": "\uc2dc\ubbfc\uc758\uc6d0", "type": "hospital", "is_24h": false}, {"lat": 35.9861, "lon": 126.7166, "name": "\ub3d9\uad11\ud55c\uc758\uc6d0", "type": "hospital", "is_24h": false}, {"lat": 35.9769, "lon": 126.7049, "name": "\ub300\uc131\ud55c\uc758\uc6d0", "type": "hospital", "is_24h": false}, {"lat": 35.9893, "lon": 126.7857, "name": "\uc131\uc0b0\ubcf4\uc9c4\ub8cc\uc18c", "type": "hospital", "is_24h": false}, {"lat": 35.9447, "lon": 126.8099, "name": "\ub300\uc57c\ubcf4\uac74\uc9c0\uc18c", "type": "hospital", "is_24h": false}, {"lat": 35.9687, "lon": 126.7056, "name": "\uc815\uc778\ucca0\ud55c\uc758\uc6d0", "type": "hospital", "is_24h": false}, {"lat": 35.9756, "lon": 126.7322, "name": "\ub0a8\ucc9c\ud55c\uc758\uc6d0", "type": "hospital", "is_24h": false}, {"lat": 35.9832, "lon": 126.7171, "name": "\ud654\uc2e0\ud55c\uc758\uc6d0", "type": "hospital", "is_24h": false}, {"lat": 35.97, "lon": 126.7118, "name": "\uc778\uc81c\ud55c\uc758\uc6d0", "type": "hospital", "is_24h": false}, {"lat": 35.9585, "lon": 126.7045, "name": "\uc591\ubcd1\uc7ac\ud55c\uc758\uc6d0", "type": "hospital", "is_24h": false}, {"lat": 35.9767, "lon": 126.6798, "name": "\uc6d4\uba85\ud55c\uc758\uc6d0", "type": "hospital", "is_24h": false}, {"lat": 35.9657, "lon": 126.7023, "name": "\uace0\ub824\ud55c\uc758\uc6d0;\ub3d9\uc9c4\uac15\ub099\ub18d\ucd95\ud611", "type": "hospital", "is_24h": false}, {"lat": 35.9825, "lon": 126.7175, "name": "\uc81c\uc911\ud55c\uc758\uc6d0", "type": "hospital", "is_24h": false}, {"lat": 35.9447, "lon": 126.8151, "name": "\ub0a8\uacbd\ud55c\uc758\uc6d0", "type": "hospital", "is_24h": false}, {"lat": 35.9834, "lon": 126.7086, "name": "\uba85\uc0b0\uc758\uc6d0", "type": "hospital", "is_24h": false}, {"lat": 35.9242, "lon": 126.6441, "name": "\uc625\uc11c\ud55c\uc758\uc6d0", "type": "hospital", "is_24h": false}, {"lat": 35.9838, "lon": 126.7186, "name": "\uc790\uc0b0\uc758\uc6d0", "type": "hospital", "is_24h": false}, {"lat": 35.9859, "lon": 126.7104, "name": "\uc2dc\ubbfc\uc758\uc6d0", "type": "hospital", "is_24h": false}, {"lat": 35.8133, "lon": 126.4129, "name": "\uc120\uc720\ub3c4\ubcf4\uac74\uc9c0\uc18c", "type": "hospital", "is_24h": false}, {"lat": 35.9713, "lon": 126.7152, "name": "\uad70\uc0b0\uc911\uc559\uc758\uc6d0", "type": "hospital", "is_24h": false}, {"lat": 35.9808, "lon": 126.7075, "name": "\uc6b0\ub9ac\uc758\uc6d0", "type": "hospital", "is_24h": false}, {"lat": 35.9685, "lon": 126.6969, "name": "\uc601\uad11\ud55c\uc758\uc6d0", "type": "hospital", "is_24h": false}, {"lat": 35.974, "lon": 126.7047, "name": "\uc81c\uc77c\ud55c\uc758\uc6d0", "type": "hospital", "is_24h": false}, {"lat": 35.9811, "lon": 126.7261, "name": "\ub098\uc724\ub3c4\ud55c\uc758\uc6d0", "type": "hospital", "is_24h": false}, {"lat": 35.9847, "lon": 126.7217, "name": "\ubc15\ucc9c\uc218\ud55c\uc758\uc6d0", "type": "hospital", "is_24h": false}, {"lat": 35.9864, "lon": 126.7164, "name": "\ub3d9\uc591\ud55c\uc758\uc6d0", "type": "hospital", "is_24h": false}, {"lat": 35.9647, "lon": 126.6944, "name": "\uc2dc\ubbfc\ud55c\uc758\uc6d0", "type": "hospital", "is_24h": false}, {"lat": 35.9797, "lon": 126.7209, "name": "\uc911\uc559\ud55c\uc758\uc6d0", "type": "hospital", "is_24h": false}, {"lat": 35.9849, "lon": 126.7103, "name": "\uc911\uad6d\ud55c\uc758\uc6d0", "type": "hospital", "is_24h": false}, {"lat": 35.9821, "lon": 126.8507, "name": "\uc784\ud53c\ubcf4\uac74\uc9c0\uc18c", "type": "hospital", "is_24h": false}, {"lat": 35.9753, "lon": 126.679, "name": "\uc0bc\uc120\ub2f9\ud55c\uc758\uc6d0", "type": "hospital", "is_24h": false}, {"lat": 35.9734, "lon": 126.719, "name": "\uc784\ud55c\uc758\uc6d0", "type": "hospital", "is_24h": false}, {"lat": 35.9764, "lon": 126.7359, "name": "\ub300\ucd94\ub098\ubb34\ud55c\uc758\uc6d0", "type": "hospital", "is_24h": false}, {"lat": 35.9453, "lon": 126.6871, "name": "\uad70\uc0b0\ubd80\ubd80\ud55c\uc758\uc6d0", "type": "hospital", "is_24h": false}, {"lat": 35.9681, "lon": 126.7012, "name": "\ud604\ub300\ud55c\uc758\uc6d0", "type": "hospital", "is_24h": false}, {"lat": 35.9816, "lon": 126.7254, "name": "\ud0dc\ucc3d\ud55c\uc758\uc6d0", "type": "hospital", "is_24h": false}, {"lat": 35.9447, "lon": 126.8099, "name": "\uad70\uc0b0\uc815\uc2e0\ubcf4\uac74\uc13c\ud0c0", "type": "hospital", "is_24h": false}, {"lat": 35.9234, "lon": 126.6432, "name": "\uc625\uc11c\ud1b5\ud569\ubcf4\uac74\uc9c0\uc18c", "type": "hospital", "is_24h": false}, {"lat": 35.9219, "lon": 126.6829, "name": "\uc625\uad6c\uc74d\ubcf4\uac74\uc9c0\uc18c", "type": "hospital", "is_24h": false}, {"lat": 35.9458, "lon": 126.8104, "name": "\uc11c\ud574\uc758\uc6d0", "type": "hospital", "is_24h": false}, {"lat": 35.9321, "lon": 126.8053, "name": "\uad70\uc0b0\uc2dc\uc815\uc2e0\ubcf4\uac74\uc13c\ud130", "type": "hospital", "is_24h": false}, {"lat": 35.9252, "lon": 126.6459, "name": "\ud55c\ub3c5\uc758\uc6d0", "type": "hospital", "is_24h": false}, {"lat": 35.989, "lon": 126.7128, "name": "\uad70\uc0b0\uc758\uc6d0", "type": "hospital", "is_24h": false}, {"lat": 35.9578, "lon": 126.7043, "name": "\uc9c0\uace1\ubd80\ubd80\ud55c\uc758\uc6d0", "type": "hospital", "is_24h": false}, {"lat": 35.9856, "lon": 126.7145, "name": "\uc774\ub8e8\uba54\ub514\uc5b8\uc5b4\uce58\ub8cc\uc13c\ud130", "type": "hospital", "is_24h": false}, {"lat": 35.9471, "lon": 126.8118, "name": "\ud615\uc81c\ud55c\uc758\uc6d0", "type": "hospital", "is_24h": false}, {"lat": 35.9676, "lon": 126.7386, "name": "\uacbd\ud76c\ubcf4\uc7a5\uad6c \uc758\ub8cc\uae30\uc0c1\uc0ac", "type": "hospital", "is_24h": false}, {"lat": 35.9695, "lon": 126.7366, "name": "\uc544\ud2f0\ud50c\ub79c\uc778\ud14c\ub9ac\uc5b4", "type": "hospital", "is_24h": false}, {"lat": 35.968, "lon": 126.6992, "name": "\ucd98\ucc9c\uc9d1\ub2ed\uac08\ube44", "type": "hospital", "is_24h": false}, {"lat": 35.9709, "lon": 126.7591, "name": "\ubd09\uc815\uc694\uc591\ubcd1\uc6d0", "type": "hospital", "is_24h": false}, {"lat": 35.9573, "lon": 126.6565, "name": "\uc11c\uad70\uc0b0\uc694\uc591\ubcd1\uc6d0", "type": "hospital", "is_24h": false}, {"lat": 35.9647, "lon": 126.6944, "name": "\uc131\ubaa8\uac04\ud638\uc804\ubb38\ud559\uc6d0", "type": "hospital", "is_24h": false}, {"lat": 35.9685, "lon": 126.6972, "name": "GS25\uad70\uc0b0\ucc28\ubcd1\uc6d0\uc810", "type": "hospital", "is_24h": false}, {"lat": 35.9766, "lon": 126.9489, "name": "\uc6d0\uad11\ud6a8\ub3c4\ub178\uc778\uc804\ubb38\ubcd1\uc6d0", "type": "hospital", "is_24h": false}, {"lat": 35.9427, "lon": 126.949, "name": "\uc775\uc0b0 \ud76c\ub9dd\ubcd1\uc6d0", "type": "hospital", "is_24h": false}, {"lat": 35.9586, "lon": 126.9683, "name": "\ub098\uc740\ubcd1\uc6d0", "type": "hospital", "is_24h": false}, {"lat": 35.9585, "lon": 126.9697, "name": "\ubbf8\uc988\ubca0\ubca0", "type": "hospital", "is_24h": false}, {"lat": 35.9438, "lon": 126.9385, "name": "\ubbf8\ub798\uc640\uc5ec\uc131\uc0b0\ubd80\uc778\uacfc", "type": "hospital", "is_24h": false}, {"lat": 35.9419, "lon": 126.9424, "name": "(\uc758\ub8cc\ubc95\uc778)\ud55c\uc591\uc758\ub8cc\uc7ac\ub2e8 (( Uiryobeopin ) ", "type": "hospital", "is_24h": false}, {"lat": 35.9617, "lon": 126.9806, "name": "\ubd80\uc1a1\uc7ac\ud65c\uc758\ud559\uacfc", "type": "hospital", "is_24h": false}, {"lat": 35.9581, "lon": 126.9769, "name": "\uc2dc\uc628\uc548\uacfc", "type": "hospital", "is_24h": false}, {"lat": 35.9561, "lon": 126.9713, "name": "\uc18c\ubcd1\uc218\uc774\ube44\uc778\ud6c4\uacfc", "type": "hospital", "is_24h": false}, {"lat": 35.939, "lon": 126.9528, "name": "\uc11c\uac15\uc6d0\ud65c\uae30\uc6d0", "type": "hospital", "is_24h": false}, {"lat": 35.9573, "lon": 126.9903, "name": "\ud504\ub9ac\ud2f0\ud50c\ub7ec\uc2a4", "type": "hospital", "is_24h": false}, {"lat": 35.9415, "lon": 126.9508, "name": "\ud0dc\uc724\uc758\ub8cc\uc7ac\ub2e8", "type": "hospital", "is_24h": false}, {"lat": 35.9588, "lon": 126.9819, "name": "\ud2bc\ud2bc\uace0\ub824\uc815\ud615\uc678\uacfc\uc758\uc6d0", "type": "hospital", "is_24h": false}, {"lat": 35.9588, "lon": 126.9819, "name": "\uace0\ub824\ub0b4\uacfc\uc758\uc6d0", "type": "hospital", "is_24h": false}, {"lat": 35.9219, "lon": 126.9298, "name": "\uc720\ubcd1\ud45c\uc131\ud615\uc678\uacfc", "type": "hospital", "is_24h": false}, {"lat": 35.9497, "lon": 126.9724, "name": "\ud669\uad11\ud638\uc2e0\uacbd\uc678\uacfc", "type": "hospital", "is_24h": false}, {"lat": 35.9351, "lon": 126.9601, "name": "\uae40\ubcd1\uc218\uc694\ud1b5\uad50\uc2e4", "type": "hospital", "is_24h": false}, {"lat": 35.9529, "lon": 126.9608, "name": "\ub9db\uc0ac\uc9c0\ucc99\ucd94\uad50\uc815\uc6d0", "type": "hospital", "is_24h": false}, {"lat": 35.9469, "lon": 126.9671, "name": "\ub3d9\ubd80\uc81c\uc77c\uc758\uc6d0", "type": "hospital", "is_24h": false}, {"lat": 35.9402, "lon": 126.9642, "name": "\uc18d\ud3b8\ud55c\ub0b4\uacfc", "type": "hospital", "is_24h": false}, {"lat": 35.9532, "lon": 126.9583, "name": "\uc18c\ub9dd\uc815\ud615\uc678\uacfc", "type": "hospital", "is_24h": false}, {"lat": 35.9396, "lon": 126.9481, "name": "\uc774\uc9c4\ud0c1\ud53c\ubd80\uacfc", "type": "hospital", "is_24h": false}, {"lat": 35.9591, "lon": 126.9818, "name": "\uace0\ub824\uc774\ube44\uc778\ud6c4\uacfc", "type": "hospital", "is_24h": false}, {"lat": 35.9588, "lon": 126.9819, "name": "\uace0\ub824\uc815\ud615\uc678\uacfc\uc758\uc6d0", "type": "hospital", "is_24h": false}, {"lat": 35.9395, "lon": 126.9488, "name": "\uc774\ub9ac\ubc29\uc0ac\uc120\uacfc", "type": "hospital", "is_24h": false}, {"lat": 35.9432, "lon": 126.9478, "name": "\uc775\uc0b0\uad70\uc0b0 \uc131\ubaa8\uac04\ud638\ud559\uc6d0", "type": "hospital", "is_24h": false}, {"lat": 35.9999, "lon": 126.9444, "name": "\uc2e0\uc0dd\ud55c\uc758\uc6d0", "type": "hospital", "is_24h": false}, {"lat": 35.9455, "lon": 126.9645, "name": "\uc9c0\uc0b0\ud55c\uc758\uc6d0", "type": "hospital", "is_24h": false}, {"lat": 35.9994, "lon": 126.9445, "name": "\uacfd\uc900\uc11d\uc758\uc6d0", "type": "hospital", "is_24h": false}, {"lat": 35.9624, "lon": 126.9609, "name": "\ud587\uc0b4\uc870\uae30\uad50\uc721\uc6d0", "type": "hospital", "is_24h": false}, {"lat": 35.9577, "lon": 126.9822, "name": "\uc601\uc0dd\ub2f9\ud55c\uc758\uc6d0\uc5b4\uc591\uc9c0\uc810", "type": "hospital", "is_24h": false}, {"lat": 35.9368, "lon": 126.962, "name": "\ub3d9\uc0b0\uc758\ub8cc\uc7ac\ub2e8", "type": "hospital", "is_24h": false}, {"lat": 35.9614, "lon": 126.9901, "name": "\uc0ac\ub791\uc778\uc758\uc6d0", "type": "hospital", "is_24h": false}, {"lat": 35.961, "lon": 126.9665, "name": "\uc775\uc0b0\uc2dc\ubcf4\uac74\uc18c", "type": "hospital", "is_24h": false}, {"lat": 35.9609, "lon": 126.9666, "name": "\uc775\uc0b0\uc2dc\uc815\uc2e0\ubcf4\uac74\uc13c\ud130", "type": "hospital", "is_24h": false}, {"lat": 35.9668, "lon": 126.9523, "name": "\uc6d0\uad11\ud55c\uc758\uc6d0", "type": "hospital", "is_24h": false}, {"lat": 35.9389, "lon": 126.915, "name": "\uc624\uc0b0\ubcf4\uac74\uc9c0\uc18c", "type": "hospital", "is_24h": false}, {"lat": 35.948, "lon": 126.9675, "name": "\ub3d9\ubd80\ud55c\uc758\uc6d0", "type": "hospital", "is_24h": false}, {"lat": 35.9668, "lon": 126.9523, "name": "\uc775\uc0b0\uc6d0\uad11\ud55c\uc758\uc6d0", "type": "hospital", "is_24h": false}, {"lat": 35.948, "lon": 126.9675, "name": "\ub3d9\ubcf4\ud55c\uc758\uc6d0", "type": "hospital", "is_24h": false}, {"lat": 35.932, "lon": 126.95, "name": "(\uc7ac\ub2e8)\uc6d0\ubd88\uad50\uc774\ub9ac\ubcf4\ud654\ub2f9 (Won Buddhism Iri", "type": "hospital", "is_24h": false}, {"lat": 35.9324, "lon": 126.9478, "name": "\uc0bc\uc131\ubaa8\uc6b0\ud130\ubcd1\uc6d0", "type": "hospital", "is_24h": false}, {"lat": 35.9514, "lon": 126.9678, "name": "\uc775\uc0b0\uc131\ubaa8\ubcd1\uc6d0\uc218\ub140\uc6d0", "type": "hospital", "is_24h": false}, {"lat": 35.9422, "lon": 126.9418, "name": "\uc601\uc758\ub8cc\uc7ac\ub2e8", "type": "hospital", "is_24h": false}, {"lat": 35.9452, "lon": 126.956, "name": "\uc81c\uc6b0\uc720\ub2c8\ud3fc", "type": "hospital", "is_24h": false}, {"lat": 35.9766, "lon": 126.9489, "name": "\ud6a8\ub3c4\ub178\uc778\ubcd1\uc6d0\ud734\uac8c\uc2e4", "type": "hospital", "is_24h": false}, {"lat": 35.924, "lon": 126.9391, "name": "\uc6b0\uc11d\ubcd1\uc6d0", "type": "hospital", "is_24h": false}, {"lat": 35.9427, "lon": 126.9542, "name": "\uc775\uc0b0\ubc14\uc6b8\ubcd1\uc6d0", "type": "hospital", "is_24h": false}, {"lat": 35.924, "lon": 126.9391, "name": "\ubaa9\ucc9c\uc6b0\uc11d\ubcd1\uc6d0", "type": "hospital", "is_24h": false}, {"lat": 35.9422, "lon": 126.9418, "name": "\ud6a8\uc694\uc591\ubcd1\uc6d0", "type": "hospital", "is_24h": false}, {"lat": 35.9514, "lon": 126.9678, "name": "\uc775\uc0b0\uc131\ubaa8\ubcd1\uc6d0\ub178\uc778\ubcf5\uc9c0\uc13c\ud130", "type": "hospital", "is_24h": false}, {"lat": 35.9219, "lon": 126.9298, "name": "\uc6b0\uc11d\ubcd1\uc6d0\uaf43\ubc30\ub2ec", "type": "hospital", "is_24h": false}, {"lat": 35.9522, "lon": 126.9621, "name": "\uc815\uc218\uae30\ubcd1\uc6d0", "type": "hospital", "is_24h": false}, {"lat": 35.9762, "lon": 126.9488, "name": "\uc6d0\uad11\ub300\ud559\uad50\ubcd1\uc6d0\uaf43\uc9d1", "type": "hospital", "is_24h": false}, {"lat": 35.9405, "lon": 126.9486, "name": "\uad6c\ub450\ubcd1\uc6d0", "type": "hospital", "is_24h": false}, {"lat": 35.8167, "lon": 126.8917, "name": "\uac00\uc871\uc0ac\ub791\uc694\uc591\ubcd1\uc6d0", "type": "hospital", "is_24h": false}, {"lat": 35.8031, "lon": 126.8942, "name": "\uae40\uae30\ubc94\ub0b4\uacfc", "type": "hospital", "is_24h": false}, {"lat": 35.7989, "lon": 126.8858, "name": "\ub098\ubc29\uc8fc\ub0b4\uacfc", "type": "hospital", "is_24h": false}, {"lat": 35.8088, "lon": 126.8865, "name": "\uc2e0\uc138\uacc4\ubcd1\uc6d0", "type": "hospital", "is_24h": false}, {"lat": 35.8008, "lon": 126.8832, "name": "\uae40\uc81c\uc2dc\ubcf4\uac74\uc18c", "type": "hospital", "is_24h": false}, {"lat": 35.8549, "lon": 126.9575, "name": "\uc6a9\uc9c0\ubcf4\uac74\uc9c0\uc18c", "type": "hospital", "is_24h": false}, {"lat": 35.714, "lon": 126.993, "name": "\uc6d0\ud3c9\ud604\ub300\uc758\uc6d0", "type": "hospital", "is_24h": false}, {"lat": 35.8527, "lon": 126.816, "name": "\ud55c\uc591\uc758\uc6d0", "type": "hospital", "is_24h": false}, {"lat": 35.7534, "lon": 126.9623, "name": "\ubd09\ub0a8\ubcf4\uac74\uc9c0\uc18c", "type": "hospital", "is_24h": false}, {"lat": 35.8022, "lon": 126.8847, "name": "\ud55c\uad6d\uc758\uc6d0", "type": "hospital", "is_24h": false}, {"lat": 35.8002, "lon": 126.9611, "name": "\ud669\uc0b0\uba74\ubcf4\uac74\uc9c0\uc18c", "type": "hospital", "is_24h": false}, {"lat": 35.8039, "lon": 126.8949, "name": "\uc0bc\uc131\ud55c\uc758\uc6d0", "type": "hospital", "is_24h": false}, {"lat": 35.716, "lon": 126.9958, "name": "\uae08\uc0b0\ubcf4\uac74\uc9c0\uc18c", "type": "hospital", "is_24h": false}, {"lat": 35.714, "lon": 126.9928, "name": "\uae08\uc0b0\uc81c\uc77c\uc758\uc6d0", "type": "hospital", "is_24h": false}, {"lat": 35.8321, "lon": 126.7422, "name": "\uad11\ud65c\ubcf4\uac74\uc9c0\uc18c", "type": "hospital", "is_24h": false}, {"lat": 35.859, "lon": 126.7663, "name": "\uc9c4\ubd09\ubcf4\uac74\uc9c0\uc18c", "type": "hospital", "is_24h": false}, {"lat": 35.8005, "lon": 126.8839, "name": "\ubc15\uc2dc\ud55c\uc758\uc6d0", "type": "hospital", "is_24h": false}, {"lat": 35.8907, "lon": 126.9649, "name": "\ubc31\uad6c\ubcf4\uac74\uc9c0\uc18c", "type": "hospital", "is_24h": false}, {"lat": 35.7717, "lon": 126.8133, "name": "\uc8fd\uc0b0\ubcf4\uac74\uc9c0\uc18c", "type": "hospital", "is_24h": false}, {"lat": 35.8522, "lon": 126.8158, "name": "\ud0dc\ud654\ub2f9\ud55c\uc758\uc6d0", "type": "hospital", "is_24h": false}, {"lat": 35.8028, "lon": 126.8841, "name": "\ud0dc\ub9bc\ud55c\uc758\uc6d0", "type": "hospital", "is_24h": false}, {"lat": 35.8014, "lon": 126.8844, "name": "\uc0bc\uc131\uc758\uc6d0", "type": "hospital", "is_24h": false}, {"lat": 35.851, "lon": 126.8151, "name": "\ub9cc\uacbd\uc9c4\ub8cc\uc6d0", "type": "hospital", "is_24h": false}, {"lat": 35.714, "lon": 126.9934, "name": "\uc6d0\ud3c9\uc5f0\ud569\uc758\uc6d0", "type": "hospital", "is_24h": false}, {"lat": 35.8321, "lon": 126.7425, "name": "\uad11\ud65c\uba74\ubcf4\uac74\uc9c0\uc18c", "type": "hospital", "is_24h": false}, {"lat": 35.804, "lon": 126.8837, "name": "\ud604\ub300\uc758\uc6d0", "type": "hospital", "is_24h": false}, {"lat": 35.8198, "lon": 126.8061, "name": "\uc131\ub355\ubcf4\uac74\uc9c0\uc18c", "type": "hospital", "is_24h": false}, {"lat": 35.81, "lon": 126.7902, "name": "\uc131\ub355\ubcf4\uac74\uc9c0\uc18c", "type": "hospital", "is_24h": false}, {"lat": 35.8004, "lon": 126.8841, "name": "\uc815\ud55c\uc758\uc6d0", "type": "hospital", "is_24h": false}, {"lat": 35.7347, "lon": 126.8442, "name": "\ubd80\ub7c9\uba74\ubcf4\uac74\uc9c0\uc18c", "type": "hospital", "is_24h": false}, {"lat": 35.8921, "lon": 126.9137, "name": "\uacf5\ub355\uba74\ubcf4\uac74\uc9c0\uc18c", "type": "hospital", "is_24h": false}, {"lat": 35.8099, "lon": 126.7901, "name": "\uc9c4\ubd09\uba74\ubcf4\uac74\uc9c0\uc18c", "type": "hospital", "is_24h": false}, {"lat": 35.802, "lon": 126.885, "name": "\uae40\uc81c\uc694\uc591\ubcd1\uc6d0", "type": "hospital", "is_24h": false}, {"lat": 35.7959, "lon": 126.877, "name": "\uae40\uc81c\uc911\uc559\ubcd1\uc6d0", "type": "hospital", "is_24h": false}, {"lat": 35.8026, "lon": 126.8968, "name": "\uc11c\ud574\uc751\uae09\uc774\uc1a1\uc5d0\uc2a4\uc624\uc5d0\uc2a4", "type": "hospital", "is_24h": false}, {"lat": 35.5762, "lon": 126.8473, "name": "\uc7ac\ubbfc\ud55c\uc758\uc6d0", "type": "hospital", "is_24h": false}, {"lat": 35.5752, "lon": 126.8439, "name": "\ud55c\ub9c8\uc74c\uc0b0\ubd80\uc778\uacfc", "type": "hospital", "is_24h": false}, {"lat": 35.566, "lon": 126.854, "name": "\ubc1d\uc740\uc548\uacfc\uc758\uc6d0", "type": "hospital", "is_24h": false}, {"lat": 35.5643, "lon": 126.8714, "name": "\uc815\uc74d\uc0ac\ub791\ubcd1\uc6d0", "type": "hospital", "is_24h": false}, {"lat": 35.5452, "lon": 126.8871, "name": "\uc815\uc74d\uc2dc\ub178\uc778\uc804\ubb38\ubcd1\uc6d0", "type": "hospital", "is_24h": false}, {"lat": 35.5806, "lon": 126.8571, "name": "\ubbf8\ub798\ubcd1\uc6d0", "type": "hospital", "is_24h": false}, {"lat": 35.5579, "lon": 126.8545, "name": "\uc2e0\uc138\uacc4\ubcd1\uc6d0", "type": "hospital", "is_24h": false}, {"lat": 35.5806, "lon": 126.8571, "name": "\uc2e0\uc138\uacc4\ubcd1\uc6d0", "type": "hospital", "is_24h": false}, {"lat": 35.5763, "lon": 126.8476, "name": "\uc804\ub77c\ubcd1\uc6d0", "type": "hospital", "is_24h": false}, {"lat": 35.5682, "lon": 126.8524, "name": "\ud56d\uc7a5\uc678\uacfc", "type": "hospital", "is_24h": false}, {"lat": 35.5692, "lon": 126.8495, "name": "\ucc28\uacbd\ud6c8\uc18c\uc544\uacfc\uc758\uc6d0", "type": "hospital", "is_24h": false}, {"lat": 35.5707, "lon": 126.8483, "name": "\uc815\uc74d\uc548\uacfc", "type": "hospital", "is_24h": false}, {"lat": 35.5684, "lon": 126.852, "name": "\uc7a5\uae30\uc601\uc815\ud615\uc678\uacfc", "type": "hospital", "is_24h": false}, {"lat": 35.5684, "lon": 126.8517, "name": "\ud558\ub098\uc678\uacfc\uc758\uc6d0", "type": "hospital", "is_24h": false}, {"lat": 35.568, "lon": 126.8509, "name": "\uc5f4\ub9b0\ub0b4\uacfc", "type": "hospital", "is_24h": false}, {"lat": 35.5662, "lon": 126.8527, "name": "\uc784\ubc29\uc0ac\uc120\uacfc\uc758\uc6d0", "type": "hospital", "is_24h": false}, {"lat": 35.5746, "lon": 126.8483, "name": "\ud604\ub300\uac00\uc815\uc758\ud559\uacfc", "type": "hospital", "is_24h": false}, {"lat": 35.5682, "lon": 126.8524, "name": "\uc81c\uc77c\ud56d\uc7a5\uc678\uacfc", "type": "hospital", "is_24h": false}, {"lat": 35.5686, "lon": 126.8497, "name": "\ubc15\ud765\uc218\uc678\uacfc", "type": "hospital", "is_24h": false}, {"lat": 35.6889, "lon": 126.8871, "name": "\uc7a5\ub0b4\uacfc\uc758\uc6d0", "type": "hospital", "is_24h": false}, {"lat": 35.5579, "lon": 126.8544, "name": "\uc5f0\uc9c0\uc790\ub3d9\ucc28\ubcd1\uc6d0", "type": "hospital", "is_24h": false}, {"lat": 35.5664, "lon": 126.8552, "name": "\uac10\ucd08\ub2f9\ud55c\uc758\uc6d0", "type": "hospital", "is_24h": false}, {"lat": 35.6447, "lon": 126.8764, "name": "\uc815\uc6b0\ubcf4\uac74\uc9c0\uc18c", "type": "hospital", "is_24h": false}, {"lat": 35.5626, "lon": 126.8536, "name": "\ud638\ub0a8\ud55c\uc758\uc6d0", "type": "hospital", "is_24h": false}, {"lat": 35.5698, "lon": 126.8452, "name": "\uc5f0\uc9c0\ub2f9\ud55c\uc57d\uad6d", "type": "hospital", "is_24h": false}, {"lat": 35.5641, "lon": 126.8541, "name": "\uc6b0\ub9ac\ub4e4\uc758\uc6d0", "type": "hospital", "is_24h": false}, {"lat": 35.5657, "lon": 126.8547, "name": "\ub9d1\uc740\uc0d8\ud55c\uc758\uc6d0", "type": "hospital", "is_24h": false}, {"lat": 35.5708, "lon": 126.8499, "name": "\uc774\ubd09\uc6b0\ud55c\uc758\uc6d0", "type": "hospital", "is_24h": false}, {"lat": 35.651, "lon": 126.9408, "name": "\uba85\uc131\uc758\uc6d0", "type": "hospital", "is_24h": false}, {"lat": 35.6872, "lon": 126.8852, "name": "\uc6d0\uad11\ud55c\uc758\uc6d0", "type": "hospital", "is_24h": false}, {"lat": 35.5732, "lon": 126.8451, "name": "\uc870\ud55c\uc758\uc6d0", "type": "hospital", "is_24h": false}, {"lat": 35.5661, "lon": 126.8549, "name": "\uc885\uc0bc\uc758\uc6d0", "type": "hospital", "is_24h": false}, {"lat": 35.5609, "lon": 126.8543, "name": "\uc2e0\ud55c\uc758\uc6d0", "type": "hospital", "is_24h": false}, {"lat": 35.5642, "lon": 126.8538, "name": "\ud558\ub098\ud55c\uc758\uc6d0", "type": "hospital", "is_24h": false}, {"lat": 35.5771, "lon": 126.8466, "name": "\uc11c\uc6b8\ud55c\uc758\uc6d0", "type": "hospital", "is_24h": false}, {"lat": 35.5738, "lon": 126.8484, "name": "\ud654\ud3c9\ud55c\uc758\uc6d0", "type": "hospital", "is_24h": false}, {"lat": 35.6881, "lon": 126.8871, "name": "\ud0dc\uc778\uc758\uc6d0", "type": "hospital", "is_24h": false}, {"lat": 35.5673, "lon": 126.8514, "name": "\uc2e0\ub18d\uc528\ud55c\uc758\uc6d0", "type": "hospital", "is_24h": false}, {"lat": 35.5662, "lon": 126.8541, "name": "\uc740\uc885\uc900\ud55c\uc758\uc6d0", "type": "hospital", "is_24h": false}, {"lat": 35.6889, "lon": 126.8874, "name": "\ub099\uc6d0\ud55c\uc57d\uad6d", "type": "hospital", "is_24h": false}, {"lat": 35.5645, "lon": 126.8603, "name": "\uc628\uc138\ud55c\uc758\uc6d0", "type": "hospital", "is_24h": false}, {"lat": 35.5742, "lon": 126.8449, "name": "\uad8c\ud55c\uc758\uc6d0", "type": "hospital", "is_24h": false}, {"lat": 35.5837, "lon": 126.8588, "name": "\uc18c\ub2f4\ud55c\uc57d\uad6d", "type": "hospital", "is_24h": false}, {"lat": 35.6027, "lon": 126.9924, "name": "\uce60\ubcf4\ud55c\uc758\uc6d0", "type": "hospital", "is_24h": false}, {"lat": 35.5609, "lon": 126.8543, "name": "\ub300\uc131\uc758\uc6d0", "type": "hospital", "is_24h": false}, {"lat": 35.6861, "lon": 126.8856, "name": "\ub300\ub3d9\uc758\uc6d0", "type": "hospital", "is_24h": false}, {"lat": 35.568, "lon": 126.8544, "name": "\ubc31\uc81c\uc758\uc6d0", "type": "hospital", "is_24h": false}, {"lat": 35.5708, "lon": 126.8499, "name": "\ud55c\uad6d\ud55c\uc758\uc6d0", "type": "hospital", "is_24h": false}, {"lat": 35.5818, "lon": 126.8555, "name": "\ubbfc\uc911\ud55c\uc758\uc6d0", "type": "hospital", "is_24h": false}, {"lat": 35.5654, "lon": 126.8574, "name": "\ub3d9\ub0a8\ud55c\uc758\uc6d0", "type": "hospital", "is_24h": false}, {"lat": 35.5653, "lon": 126.854, "name": "\ud604\ub300\ub9c8\ucde8\ud1b5\uc99d\uc758\ud559\uacfc\uc758\uc6d0", "type": "hospital", "is_24h": false}, {"lat": 35.566, "lon": 126.8538, "name": "\uba85\ub3d9\ud55c\uc758\uc6d0", "type": "hospital", "is_24h": false}, {"lat": 35.6026, "lon": 126.9921, "name": "\uc0bc\uad11\uc758\uc6d0", "type": "hospital", "is_24h": false}, {"lat": 35.643, "lon": 126.9743, "name": "\uc639\ub3d9\ubcf4\uac74\uc9c0\uc18c", "type": "hospital", "is_24h": false}, {"lat": 35.6188, "lon": 126.7744, "name": "\uace0\ubd80\ubcf4\uac74\uc9c0\uc18c", "type": "hospital", "is_24h": false}, {"lat": 35.6548, "lon": 126.7851, "name": "\uc601\uc6d0\ubcf4\uac74\uc9c0\uc18c", "type": "hospital", "is_24h": false}, {"lat": 35.6089, "lon": 126.8921, "name": "\ubd81\uba74\ubcf4\uac74\uc9c0\uc18c", "type": "hospital", "is_24h": false}, {"lat": 35.6641, "lon": 126.8355, "name": "\uc774\ud3c9\ubcf4\uac74\uc9c0\uc18c", "type": "hospital", "is_24h": false}, {"lat": 35.6081, "lon": 126.989, "name": "\uce60\ubcf4\ubcf4\uac74\uc9c0\uc18c", "type": "hospital", "is_24h": false}, {"lat": 35.5228, "lon": 126.8076, "name": "\uc785\uc554\ubcf4\uac74\uc9c0\uc18c", "type": "hospital", "is_24h": false}, {"lat": 35.6882, "lon": 126.8893, "name": "\uc2e0\ud0dc\uc778\ubcf4\uac74\uc9c0\uc18c", "type": "hospital", "is_24h": false}, {"lat": 35.5721, "lon": 126.8463, "name": "\uc815\uc8fc\ud55c\uc758\uc6d0", "type": "hospital", "is_24h": false}, {"lat": 35.7132, "lon": 126.928, "name": "\uac10\uace1\ubcf4\uac74\uc9c0\uc18c", "type": "hospital", "is_24h": false}, {"lat": 35.5767, "lon": 126.8465, "name": "\uc6d0\uad11\ud55c\uc758\uc6d0", "type": "hospital", "is_24h": false}, {"lat": 35.5716, "lon": 126.8343, "name": "\ud55c\uc11c\uc694\uc591\ubcd1\uc6d0", "type": "hospital", "is_24h": false}, {"lat": 35.5641, "lon": 126.8607, "name": "\uc815\ub2e4\uc6b4\uc694\uc591\ubcd1\uc6d0", "type": "hospital", "is_24h": false}, {"lat": 35.5643, "lon": 126.8714, "name": "\uc0ac\ub791\ubcd1\uc6d0\uc7a5\ub840\uc2dd\uc7a5", "type": "hospital", "is_24h": false}, {"lat": 35.5774, "lon": 126.8548, "name": "\uc6d4\ub4dc\uc790\ub3d9\ucc28\ubcd1\uc6d0", "type": "hospital", "is_24h": false}, {"lat": 35.5618, "lon": 126.8659, "name": "\uc5d8\uc9c0\uc790\ub3d9\ucc28\ubcd1\uc6d0", "type": "hospital", "is_24h": false}, {"lat": 35.5888, "lon": 126.8234, "name": "\uc815\uc74d\uc544\uc0b0\ubcd1\uc6d0", "type": "hospital", "is_24h": false}, {"lat": 35.1833, "lon": 126.933, "name": "\uc6b0\uc554\ubcd1\uc6d0", "type": "hospital", "is_24h": false}, {"lat": 35.0275, "lon": 126.8341, "name": "\ub0a8\ud3c9\ubbf8\ub798\ub178\ube14\ub808\uc2a4\uc694\uc591\ubcd1\uc6d0", "type": "hospital", "is_24h": false}, {"lat": 35.0363, "lon": 126.7214, "name": "\ub098\uc8fc\uc885\ud569\ubcd1\uc6d0", "type": "hospital", "is_24h": false}, {"lat": 35.0347, "lon": 126.7222, "name": "\ub098\uc8fc\ud55c\uad6d\ubcd1\uc6d0", "type": "hospital", "is_24h": false}, {"lat": 35.0355, "lon": 126.7198, "name": "\ub098\uc8fc\uc911\uc559\uc694\uc591\ubcd1\uc6d0", "type": "hospital", "is_24h": false}, {"lat": 35.0326, "lon": 126.719, "name": "\ubd80\ubd80\ud55c\uc758\uc6d0", "type": "hospital", "is_24h": false}, {"lat": 35.0279, "lon": 126.7168, "name": "\uae08\uc131\ud55c\uc758\uc6d0", "type": "hospital", "is_24h": false}, {"lat": 35.0469, "lon": 126.8426, "name": "\ubc15\uc7ac\ud615\ud55c\uc758\uc6d0", "type": "hospital", "is_24h": false}, {"lat": 35.033, "lon": 126.7209, "name": "\ub098\uc8fc\ud55c\uc758\uc6d0", "type": "hospital", "is_24h": false}, {"lat": 35.0759, "lon": 126.7315, "name": "\ub178\uc548\ubcf4\uac74\uc9c0\uc18c", "type": "hospital", "is_24h": false}, {"lat": 35.0541, "lon": 126.6036, "name": "\ubb38\ud3c9\ubcf4\uac74\uc9c0\uc18c", "type": "hospital", "is_24h": false}, {"lat": 35.0175, "lon": 126.6375, "name": "\ubc31\uc81c\uc758\uc6d0", "type": "hospital", "is_24h": false}, {"lat": 35.0461, "lon": 126.8431, "name": "\ub0a8\ud3c9\ubcf4\uac74\uc9c0\uc18c", "type": "hospital", "is_24h": false}, {"lat": 35.0306, "lon": 126.7169, "name": "\uc6d0\uad11\ud55c\uc758\uc6d0", "type": "hospital", "is_24h": false}, {"lat": 35.0463, "lon": 126.8395, "name": "\uc7a5\uc218\ud55c\uc758\uc6d0", "type": "hospital", "is_24h": false}, {"lat": 35.0474, "lon": 126.844, "name": "\ud64d\uc775\ud55c\uc758\uc6d0", "type": "hospital", "is_24h": false}, {"lat": 35.0439, "lon": 126.843, "name": "\ub0a8\ud3c9\ud55c\uc758\uc6d0", "type": "hospital", "is_24h": false}, {"lat": 35.0337, "lon": 126.7216, "name": "\uc81c\uc77c\ud55c\uc758\uc6d0", "type": "hospital", "is_24h": false}, {"lat": 35.0306, "lon": 126.7539, "name": "\uae08\ucc9c\ubcf4\uac74\uc9c0\uc18c", "type": "hospital", "is_24h": false}, {"lat": 35.0317, "lon": 126.7164, "name": "\uc911\ubd80\ubcf4\uac74\uc9c0\uc18c", "type": "hospital", "is_24h": false}, {"lat": 35.043, "lon": 126.8428, "name": "\ub0a8\ud3c9\uc5f0\ud569\uc758\uc6d0", "type": "hospital", "is_24h": false}, {"lat": 35.0531, "lon": 126.8308, "name": "\ub514\uc790\uc7782001", "type": "hospital", "is_24h": false}, {"lat": 35.0274, "lon": 126.8347, "name": "\ub178\ube14\ub808\uc2a4\ub178\uc778\uc694\uc591\ubcd1\uc6d0", "type": "hospital", "is_24h": false}, {"lat": 35.0525, "lon": 126.7362, "name": "(\uc8fc)\ub2e4\uc194\ub098\ubb34\ubcd1\uc6d0 (Dasollamu Hospital)", "type": "hospital", "is_24h": false}, {"lat": 35.0629, "lon": 126.7501, "name": "(\uc8fc)\ud55c\uc6b8\ub098\ubb34\ubcd1\uc6d0 (Hanullamu Hospital)", "type": "hospital", "is_24h": false}, {"lat": 35.0347, "lon": 126.7196, "name": "GS25\ub098\uc8fc\uc911\uc559\ubcd1\uc6d0\uc810", "type": "hospital", "is_24h": false}, {"lat": 35.0271, "lon": 126.6748, "name": "\uc218\uc591\uac04\ubcd1\uc6d0", "type": "hospital", "is_24h": false}, {"lat": 35.2763, "lon": 126.5043, "name": "\uae40\ud310\uc218\uc774\ube44\uc778\ud6c4\uacfc\uc758\uc6d0", "type": "hospital", "is_24h": false}, {"lat": 35.2747, "lon": 126.5108, "name": "\uc601\uad11\uae30\ub3c5\ubcd1\uc6d0", "type": "hospital", "is_24h": false}, {"lat": 35.5881, "lon": 126.6761, "name": "\uc904\ud3ec\uc804\uc8fc\ubcd1\uc6d0", "type": "hospital", "is_24h": false}, {"lat": 35.4364, "lon": 126.6934, "name": "\uc758\ub8cc\ubc95\uc778 \uc11d\ucc9c\uc7ac\ub2e8\uace0\ucc3d\ubcd1\uc6d0", "type": "hospital", "is_24h": false}, {"lat": 35.4349, "lon": 126.7006, "name": "\uc774\uc9c4\ud64d\ub0b4\uacfc\uc758\uc6d0", "type": "hospital", "is_24h": false}, {"lat": 35.5185, "lon": 126.699, "name": "\ud765\ub355\ud55c\uc758\uc6d0", "type": "hospital", "is_24h": false}, {"lat": 35.4404, "lon": 126.6323, "name": "\uc544\uc0b0\ubcf4\uac74\uc9c0\uc18c", "type": "hospital", "is_24h": false}, {"lat": 35.5192, "lon": 126.6994, "name": "\ud765\ub355\uc81c\uc77c\uc758\uc6d0", "type": "hospital", "is_24h": false}, {"lat": 35.4435, "lon": 126.4921, "name": "\uc7a5\uc218\ud55c\uc758\uc6d0", "type": "hospital", "is_24h": false}, {"lat": 35.4261, "lon": 126.6951, "name": "\uc720\uc815\uc694\uc591\ubcd1\uc6d0", "type": "hospital", "is_24h": false}, {"lat": 35.5587, "lon": 126.7435, "name": "\uba54\ub514\ucf00\uc5b4\uc694\uc591\ubcd1\uc6d0", "type": "hospital", "is_24h": false}, {"lat": 35.3133, "lon": 126.9821, "name": "\ub2f4\uc591\ub3d9\uc0b0\ubcd1\uc6d0", "type": "hospital", "is_24h": false}, {"lat": 35.325, "lon": 126.9813, "name": "\ub2f4\uc591\uad70\ubcf4\uac74\uc18c", "type": "hospital", "is_24h": false}, {"lat": 35.062, "lon": 126.5199, "name": "\ud568\ud3c9\uc131\uc2ec\ubcd1\uc6d0", "type": "hospital", "is_24h": false}, {"lat": 35.0847, "lon": 126.1116, "name": "\ud604\ub300\uc758\uc6d0", "type": "hospital", "is_24h": false}, {"lat": 35.0594, "lon": 126.21, "name": "\uc591\uc9c0\uc678\uacfc\uc758\uc6d0", "type": "hospital", "is_24h": false}, {"lat": 35.0559, "lon": 126.9895, "name": "\uace0\ub824\ubcd1\uc6d0", "type": "hospital", "is_24h": false}, {"lat": 35.0575, "lon": 126.9822, "name": "\ud654\uc21c\uad70\ubcf4\uac74\uc18c", "type": "hospital", "is_24h": false}, {"lat": 35.072, "lon": 126.989, "name": "\ud654\uc21c\ubb34\uc9c0\uac1c\uc694\uc591\ubcd1\uc6d0", "type": "hospital", "is_24h": false}, {"lat": 35.0583, "lon": 126.9809, "name": "\ud654\uc21c\uc911\uc559\ubcd1\uc6d0", "type": "hospital", "is_24h": false}, {"lat": 35.0601, "lon": 126.9824, "name": "\ud654\uc21c\ud604\ub300\ubcd1\uc6d0", "type": "hospital", "is_24h": false}, {"lat": 35.0562, "lon": 126.9921, "name": "\ud0dc\ub9bc\ub098\ubb34\uc885\ud569\ubcd1\uc6d0", "type": "hospital", "is_24h": false}, {"lat": 35.0534, "lon": 126.9954, "name": "(\uc8fc)\uc131\uc2ec\ubcd1\uc6d0\uc7a5\ub840\uc2dd\uc7a5 (Seongsimbyeongwon", "type": "hospital", "is_24h": false}, {"lat": 35.9642, "lon": 126.7142, "name": "\ud56d\ub3c4\uc678\uacfc", "type": "hospital", "is_24h": false}, {"lat": 35.1338, "lon": 126.9107, "name": "\ubbf8\ub798\uc544\ub3d9\ubcd1\uc6d0", "type": "hospital", "is_24h": false}, {"lat": 35.2074, "lon": 126.8654, "name": "\uc790\ubbfc\ud55c\ubc29\ubcd1\uc6d0", "type": "hospital", "is_24h": false}, {"lat": 35.5731, "lon": 126.846, "name": "\uc815\uc74d\ud56d\ub3c4\uc678\uacfc(Jeongeup Hangdo Clinic)", "type": "hospital", "is_24h": false}, {"lat": 35.1448, "lon": 126.9235, "name": "\uce58\uacfc\ubcd1\uc6d0", "type": "hospital", "is_24h": false}, {"lat": 35.1959, "lon": 126.8993, "name": "\uc88b\uc740\uac00\uc815\uc758\ud559\uacfc\uc758\uc6d0", "type": "hospital", "is_24h": false}, {"lat": 35.5778, "lon": 126.8545, "name": "\uc815\uc74d\uc2dc \ubcf4\uac74\uc18c", "type": "hospital", "is_24h": false}, {"lat": 35.9313, "lon": 126.9454, "name": "hospital", "type": "hospital", "is_24h": false}, {"lat": 35.9313, "lon": 126.9457, "name": "hospital", "type": "hospital", "is_24h": false}, {"lat": 35.1042, "lon": 126.8805, "name": "\ub300\ud55c\uc801\uc2ed\uc790\uc0ac \uad11\uc8fc\uc804\ub0a8\ud608\uc561\uc6d0", "type": "hospital", "is_24h": false}, {"lat": 35.0635, "lon": 126.5225, "name": "\ud568\ud3c9\uc5f0\ud569\uc758\uc6d0", "type": "hospital", "is_24h": false}, {"lat": 35.0624, "lon": 126.5241, "name": "\ud568\ud3c9\uad70\ubcf4\uac74\uc18c", "type": "hospital", "is_24h": false}, {"lat": 35.9646, "lon": 126.7022, "name": "\uc6b0\ub9ac\ub4e4\ud1b5\uc99d\uc758\ud559\uacfc\uc758\uc6d0", "type": "hospital", "is_24h": false}, {"lat": 35.9646, "lon": 126.7017, "name": "\ubcf4\uc2e0\uc57d\uad6d", "type": "hospital", "is_24h": false}, {"lat": 35.4373, "lon": 126.6912, "name": "\uace0\ucc3d \ub178\uc778 \uc694\uc591\ubcd1\uc6d0", "type": "hospital", "is_24h": false}, {"lat": 35.1516, "lon": 126.8044, "name": "\ub77c\uc628\uc758\uc6d0", "type": "hospital", "is_24h": false}, {"lat": 35.551, "lon": 126.8912, "name": "\uc815\uc74d\uc2dc \ub178\uc778\uc804\ubb38\ubcd1\uc6d0", "type": "hospital", "is_24h": false}, {"lat": 35.5679, "lon": 126.851, "name": "\uc774\ubb38\ud658\uc18c\uc544\uacfc\uc758\uc6d0", "type": "hospital", "is_24h": false}, {"lat": 35.1455, "lon": 126.923, "name": "\ub3d9\uad6c\ubcf4\uac74\uc18c", "type": "hospital", "is_24h": false}, {"lat": 35.1971, "lon": 126.8259, "name": "\uc218\uc644\ubcf4\uac74\uc9c0\uc18c", "type": "hospital", "is_24h": false}, {"lat": 35.1316, "lon": 126.8998, "name": "\uc704\uc0dd\ub0b4\uacfc", "type": "hospital", "is_24h": false}, {"lat": 35.1576, "lon": 126.9196, "name": "\uad11\uc8fc\uace0\ub824\ubcd1\uc6d0", "type": "hospital", "is_24h": false}, {"lat": 35.1579, "lon": 126.9197, "name": "\uacc4\ub9bc\uc694\uc591\ubcd1\uc6d0", "type": "hospital", "is_24h": false}, {"lat": 35.1552, "lon": 126.9362, "name": "\ub3d9\ubc29\uc758\uc6d0", "type": "hospital", "is_24h": false}, {"lat": 35.1423, "lon": 126.9173, "name": "\uc138\uc885\uc694\uc591\ubcd1\uc6d0", "type": "hospital", "is_24h": false}, {"lat": 35.1914, "lon": 126.8187, "name": "\uc138\uacc4\ub85c\ubcd1\uc6d0", "type": "hospital", "is_24h": false}, {"lat": 35.1913, "lon": 126.8186, "name": "\ubca0\uc2a4\ud2b8\uc774\ube44\uc778\ud6c4\uacfc", "type": "hospital", "is_24h": false}, {"lat": 35.1913, "lon": 126.8184, "name": "\ud734\uc815\uc2e0\uac74\uac15\uc758\ud559\uacfc", "type": "hospital", "is_24h": false}, {"lat": 35.1397, "lon": 126.9015, "name": "\ubc31\uc6b4\ud55c\ubc29\ubcd1\uc6d0", "type": "hospital", "is_24h": false}, {"lat": 35.3737, "lon": 126.8074, "name": "\ubd81\uc77c\ubcf4\uac74\uc9c0\uc18c", "type": "hospital", "is_24h": false}, {"lat": 35.1976, "lon": 126.8709, "name": "\ubc18 \ub0b4\uacfc \uc774\ube44\uc778\ud6c4\uacfc", "type": "hospital", "is_24h": false}, {"lat": 35.2072, "lon": 126.864, "name": "\uc0c8\ub098\ub798\ubcd1\uc6d0", "type": "hospital", "is_24h": false}, {"lat": 35.2128, "lon": 126.882, "name": "\ucd5c\uc885\uc120 \uc774\ube44\uc778\ud6c4\uacfc, \ud76c\ub9dd\uc758\uc6d0, \ud5c8\ub9ac\ucf00\uc778 \uc815\ud615\uc678\uacfc, \uc57d\uad6d", "type": "hospital", "is_24h": false}, {"lat": 35.1877, "lon": 126.8905, "name": "\ub9e4\uace1\ud55c\ubc29\ubcd1\uc6d0", "type": "hospital", "is_24h": false}, {"lat": 35.3152, "lon": 126.9853, "name": "\uc2ec\uc815\ud615\uc678\uacfc", "type": "hospital", "is_24h": false}, {"lat": 35.1642, "lon": 126.8042, "name": "\uae40\uc8fc\ud718\uc18c\uc544\uccad\uc18c\ub144\uacfc\uc758\uc6d0", "type": "hospital", "is_24h": false}, {"lat": 35.1643, "lon": 126.8042, "name": "\ube5b\uace0\uc744\uc57d\uad6d", "type": "hospital", "is_24h": false}, {"lat": 35.172, "lon": 126.8179, "name": "\ud55c\ub9c8\uc74c\ud55c\ubc29\ubcd1\uc6d0", "type": "hospital", "is_24h": false}, {"lat": 35.1726, "lon": 126.8179, "name": "\ud55c\uc0ac\ub791\ubcd1\uc6d0", "type": "hospital", "is_24h": false}, {"lat": 35.1622, "lon": 126.8797, "name": "\uad11\uc8fc\uc5b8\uc5b4\uce58\ub8cc\uc2e4", "type": "hospital", "is_24h": false}, {"lat": 35.9442, "lon": 126.9381, "name": "\uc218\uc0ac\ub791\ubcd1\uc6d0", "type": "hospital", "is_24h": false}, {"lat": 35.2028, "lon": 126.8976, "name": "\uc77c\uace1\ubcd1\uc6d0", "type": "hospital", "is_24h": false}, {"lat": 35.1273, "lon": 126.9175, "name": "\ubb34\ub4f1\uc694\uc591\ubcd1\uc6d0", "type": "hospital", "is_24h": false}, {"lat": 35.1337, "lon": 126.9115, "name": "\uad11\uc8fc\ud61c\uc6d0\ubcd1\uc6d0", "type": "hospital", "is_24h": false}, {"lat": 35.9206, "lon": 126.63, "name": "hospital", "type": "hospital", "is_24h": false}, {"lat": 35.1448, "lon": 126.9201, "name": "\ud30c\ub791\uc0c8\uc548\uacfc\uc758\uc6d0", "type": "hospital", "is_24h": false}, {"lat": 35.1897, "lon": 126.8231, "name": "\ub354\ube14\uc720\uc18c\uc544\uccad\uc18c\ub144\uacfc\uc758\uc6d0", "type": "hospital", "is_24h": false}, {"lat": 35.1897, "lon": 126.8231, "name": "\ub354\ube14\uc720\uc5ec\uc131\ubcd1\uc6d0", "type": "hospital", "is_24h": false}, {"lat": 35.1931, "lon": 126.8242, "name": "\uad11\uc8fc\uc218\uc644\ubcd1\uc6d0", "type": "hospital", "is_24h": false}, {"lat": 35.8897, "lon": 126.879, "name": "hospital", "type": "hospital", "is_24h": false}, {"lat": 35.1654, "lon": 126.9199, "name": "\uc870\ubcd1\uad8c\ub0b4\uacfc", "type": "hospital", "is_24h": false}, {"lat": 35.1646, "lon": 126.9218, "name": "\ud604\ub300\uc815\ud615\uc678\uacfc", "type": "hospital", "is_24h": false}, {"lat": 35.9647, "lon": 126.7202, "name": "\uad70\uc0b0\uc2dc \ubcf4\uac74\uc18c", "type": "hospital", "is_24h": false}, {"lat": 35.4147, "lon": 126.5599, "name": "\ud669\uc758\uc6d0", "type": "hospital", "is_24h": false}, {"lat": 35.1195, "lon": 126.8963, "name": "\uc18c\ub9dd\uc57d\uad6d", "type": "hospital", "is_24h": false}, {"lat": 35.9547, "lon": 126.7124, "name": "\uc804\ubd81\ud2b9\ubcc4\uc790\uce58\ub3c4 \uad70\uc0b0\uc758\ub8cc\uc6d0", "type": "hospital", "is_24h": true}, {"lat": 35.7306, "lon": 126.7364, "name": "\ubd80\uc548\uc194\ubcd1\uc6d0", "type": "hospital", "is_24h": false}, {"lat": 35.185, "lon": 126.8698, "name": "\uc6b4\uc554\ud55c\uad6d\ubcd1\uc6d0", "type": "hospital", "is_24h": false}, {"lat": 35.4373, "lon": 126.691, "name": "\uace0\ucc3d \ub178\uc778 \uc694\uc591\ubcd1\uc6d0", "type": "hospital", "is_24h": false}, {"lat": 35.1482, "lon": 126.8603, "name": "\uc0c1\ubb34 \uae08\ud638\ubcf4\uac74\uc9c0\uc18c", "type": "hospital", "is_24h": false}, {"lat": 35.1742, "lon": 126.8149, "name": "hospital", "type": "hospital", "is_24h": false}, {"lat": 35.9619, "lon": 126.9668, "name": "\uc775\uc0b0\ubcd1\uc6d0", "type": "hospital", "is_24h": false}, {"lat": 35.1366, "lon": 126.9121, "name": "\uad11\uc8fc\uae30\ub3c5\ubcd1\uc6d0", "type": "hospital", "is_24h": false}, {"lat": 35.1416, "lon": 126.9222, "name": "\uc804\ub0a8\ub300\ud559\uad50\ubcd1\uc6d0", "type": "hospital", "is_24h": true}, {"lat": 35.1391, "lon": 126.9256, "name": "\uc870\uc120\ub300\ud559\uad50\ubcd1\uc6d0", "type": "hospital", "is_24h": false}, {"lat": 35.2078, "lon": 126.8493, "name": "\uad11\uc8fc\ubcf4\ud6c8\ubcd1\uc6d0", "type": "hospital", "is_24h": false}, {"lat": 35.1515, "lon": 126.8953, "name": "\uc774\uc131\ucc44\uc774\ube44\uc778\ud6c4\uacfc\uc758\uc6d0", "type": "hospital", "is_24h": false}, {"lat": 35.1559, "lon": 126.8686, "name": "\uad11\uc8fc\ud55c\uad6d\ubcd1\uc6d0", "type": "hospital", "is_24h": false}, {"lat": 35.1306, "lon": 126.8877, "name": "hospital", "type": "hospital", "is_24h": false}, {"lat": 35.1417, "lon": 126.9204, "name": "\uc591\uba85\uc694\uc591\ubcd1\uc6d0", "type": "hospital", "is_24h": false}, {"lat": 35.1323, "lon": 126.9283, "name": "\ud574\ud53c\ubdf0 \uc0bc\uc131\ubcd1\uc6d0", "type": "hospital", "is_24h": false}, {"lat": 35.1606, "lon": 126.9027, "name": "St John of God Hospital", "type": "hospital", "is_24h": false}, {"lat": 35.2213, "lon": 126.8452, "name": "\uad11\uc8fc\ucca8\ub2e8\ubcd1\uc6d0", "type": "hospital", "is_24h": false}, {"lat": 35.1787, "lon": 126.9281, "name": "\uad11\uc8fc\ubcd1\uc6d0", "type": "hospital", "is_24h": true}, {"lat": 35.1756, "lon": 126.9295, "name": "\uc5d0\ub374\ubcd1\uc6d0", "type": "hospital", "is_24h": false}, {"lat": 35.2143, "lon": 126.8442, "name": "\ucca8\ub2e8 \ucc38\uc0ac\ub791 \ub178\uc778 \uc804\ubb38 \ubcd1\uc6d0", "type": "hospital", "is_24h": false}, {"lat": 35.2161, "lon": 126.8427, "name": "hospital", "type": "hospital", "is_24h": false}, {"lat": 35.1501, "lon": 126.8512, "name": "hospital", "type": "hospital", "is_24h": false}, {"lat": 35.2216, "lon": 126.8431, "name": "hospital", "type": "hospital", "is_24h": false}, {"lat": 35.0945, "lon": 126.896, "name": "\ube5b\uace0\uc744\uc804\ub0a8\ub300\ud559\uad50\ubcd1\uc6d0", "type": "hospital", "is_24h": false}, {"lat": 35.183, "lon": 126.5898, "name": "\uad6d\uad70\ud568\ud3c9\ubcd1\uc6d0", "type": "hospital", "is_24h": false}, {"lat": 35.1615, "lon": 126.887, "name": "\uc120\ud55c\ubcd1\uc6d0", "type": "hospital", "is_24h": false}, {"lat": 35.1397, "lon": 126.9016, "name": "\ubc31\uc6b4\ud55c\ubc29\ubcd1\uc6d0", "type": "hospital", "is_24h": true}, {"lat": 35.1981, "lon": 126.8331, "name": "\uad11\uc8fcKS\ubcd1\uc6d0", "type": "hospital", "is_24h": false}, {"lat": 35.036, "lon": 126.7711, "name": "\ub098\uc8fc\ud6a8\uc0ac\ub791\ubcd1\uc6d0 (Najuhyosarang Hospita", "type": "hospital", "is_24h": false}, {"lat": 35.9648, "lon": 126.961, "name": "\uc6d0\uad11\ub300\ud559\uad50\ubcd1\uc6d0", "type": "hospital", "is_24h": true}, {"lat": 35.3154, "lon": 126.9827, "name": "\ub2f4\uc591\uc0ac\ub791\ubcd1\uc6d0", "type": "hospital", "is_24h": false}, {"lat": 35.1743, "lon": 126.9325, "name": "\ubd81\uad6c\ub450\uc554\ubcf4\uac74\uc9c0\uc18c", "type": "hospital", "is_24h": false}, {"lat": 35.1607, "lon": 126.9032, "name": "\ucc9c\uc8fc\uc758 \uc131\uc694\ud55c\ubcd1\uc6d0", "type": "hospital", "is_24h": false}, {"lat": 35.2465, "lon": 126.8123, "name": "\uc7a5\uc131\uad70\ub0a8\uba74\ubcf4\uac74\uc9c0\uc18c", "type": "hospital", "is_24h": false}, {"lat": 35.2978, "lon": 126.7745, "name": "\uc7a5\uc131\ud61c\uc6d0\ubcd1\uc6d0", "type": "hospital", "is_24h": false}, {"lat": 35.3059, "lon": 126.7836, "name": "\uc7a5\uc131\ubcd1\uc6d0", "type": "hospital", "is_24h": false}, {"lat": 35.2743, "lon": 126.8316, "name": "\uc9c4\uc6d0\ubcf4\uac74\uc9c0\uc18c", "type": "hospital", "is_24h": false},