[{"lat": 34.7987, "lon": 126.4191, "name": "\ubaa9\ud3ec\uacbd\ucc30\uc11c \ud558\ub2f9\uc9c0\uad6c\ub300", "type": "police_station", "is_24h": true}, {"lat": 34.801, "lon": 126.3717, "name": "\ubaa9\ud3ec\uacbd\ucc30\uc11c \uc8fd\uad50\ud30c\ucd9c\uc18c", "type": "police_station", "is_24h": true}, {"lat": 34.9981, "lon": 126.7104, "name": "\ub098\uc8fc\uacbd\ucc30\uc11c \uc601\uc0b0\ud30c\ucd9c\uc18c", "type": "police_station", "is_24h": true}, {"lat": 34.9189, "lon": 126.7482, "name": "\uc138\uc9c0\uce58\uc548\uc13c\ud130", "type": "police_station", "is_24h": true}, {"lat": 34.9884, "lon": 126.4738, "name": "\ubb34\uc548\uacbd\ucc30\uc11c \uc2b9\ub2ec\ud30c\ucd9c\uc18c", "type": "police_station", "is_24h": true}, {"lat": 34.8496, "lon": 126.4927, "name": "\ubb34\uc548\uacbd\ucc30\uc11c \uc77c\ub85c\ud30c\ucd9c\uc18c", "type": "police_station", "is_24h": true}, {"lat": 34.8282, "lon": 126.4398, "name": "\uc0bc\ud5a5\uce58\uc548\uc13c\ud130", "type": "police_station", "is_24h": true}, {"lat": 34.932, "lon": 126.5031, "name": "\ubabd\ud0c4\uce58\uc548\uc13c\ud130", "type": "police_station", "is_24h": true}, {"lat": 34.8854, "lon": 126.1758, "name": "\ub2f9\uc0ac\ub3c4\uce58\uc548\uc13c\ud130", "type": "police_station", "is_24h": true}, {"lat": 34.4814, "lon": 126.2626, "name": "\uc9c4\ub3c4\uacbd\ucc30\uc11c \uc74d\ub0b4\ud30c\ucd9c\uc18c", "type": "police_station", "is_24h": true}, {"lat": 34.5374, "lon": 126.2976, "name": "\uc9c4\ub3c4\uacbd\ucc30\uc11c \uad70\ub0b4\ud30c\ucd9c\uc18c", "type": "police_station", "is_24h": true}, {"lat": 34.4246, "lon": 126.1675, "name": "\uc9c4\ub3c4\uacbd\ucc30\uc11c \uc9c0\uc0b0\ud30c\ucd9c\uc18c", "type": "police_station", "is_24h": true}, {"lat": 34.7553, "lon": 126.4564, "name": "\uc601\uc554\uacbd\ucc30\uc11c \uc0bc\ud638\uc9c0\uad6c\ub300", "type": "police_station", "is_24h": true}, {"lat": 34.7554, "lon": 126.584, "name": "\uc11c\ud638\uce58\uc548\uc13c\ud130", "type": "police_station", "is_24h": true}, {"lat": 34.818, "lon": 126.6964, "name": "\ub355\uc9c4\uce58\uc548\uc13c\ud130", "type": "police_station", "is_24h": true}, {"lat": 34.7261, "lon": 126.568, "name": "\uc601\uc554\uacbd\ucc30\uc11c \ud559\uc0b0\ud30c\ucd9c\uc18c", "type": "police_station", "is_24h": true}, {"lat": 34.8626, "lon": 126.7483, "name": "\uae08\uc815\uce58\uc548\uc13c\ud130", "type": "police_station", "is_24h": true}, {"lat": 34.4524, "lon": 126.8164, "name": "\uac15\uc9c4\uacbd\ucc30\uc11c \ub9c8\ub7c9\ud30c\ucd9c\uc18c", "type": "police_station", "is_24h": true}, {"lat": 34.6911, "lon": 126.7082, "name": "\uac15\uc9c4\uacbd\ucc30\uc11c \uc131\uc804\ud30c\ucd9c\uc18c", "type": "police_station", "is_24h": true}, {"lat": 34.4976, "lon": 126.7996, "name": "\ub300\uad6c\uce58\uc548\uc13c\ud130", "type": "police_station", "is_24h": true}, {"lat": 34.514, "lon": 126.7203, "name": "\uc2e0\uc804\uce58\uc548\uc13c\ud130", "type": "police_station", "is_24h": true}, {"lat": 34.7429, "lon": 126.7943, "name": "\uc634\ucc9c\uce58\uc548\uc13c\ud130", "type": "police_station", "is_24h": true}, {"lat": 34.7041, "lon": 126.7721, "name": "\uac15\uc9c4\uacbd\ucc30\uc11c \uc791\ucc9c\ud30c\ucd9c\uc18c", "type": "police_station", "is_24h": true}, {"lat": 34.5213, "lon": 126.6096, "name": "\ud574\ub0a8\uacbd\ucc30\uc11c \uc0bc\uc0b0\ud30c\ucd9c\uc18c", "type": "police_station", "is_24h": true}, {"lat": 34.463, "lon": 126.6779, "name": "\ubd81\uc77c\uce58\uc548\uc13c\ud130", "type": "police_station", "is_24h": true}, {"lat": 34.3353, "lon": 126.7434, "name": "\uc644\ub3c4\ud574\uc591\uacbd\ucc30\uc11c", "type": "police_station", "is_24h": true}, {"lat": 34.7904, "lon": 126.3857, "name": "\ubaa9\ud3ec\uacbd\ucc30\uc11c \uc5ed\uc804\ud30c\ucd9c\uc18c", "type": "police_station", "is_24h": true}, {"lat": 34.5654, "lon": 126.5986, "name": "\ud574\ub0a8\uacbd\ucc30\uc11c \uc74d\ub0b4\uc9c0\uad6c\ub300", "type": "police_station", "is_24h": true}, {"lat": 34.762, "lon": 126.6315, "name": "\uc601\uc554\uacbd\ucc30\uc11c \uad70\uc11c\ud30c\ucd9c\uc18c", "type": "police_station", "is_24h": true}, {"lat": 34.869, "lon": 126.6107, "name": "\uc601\uc554\uacbd\ucc30\uc11c \uc2dc\uc885\ud30c\ucd9c\uc18c", "type": "police_station", "is_24h": true}, {"lat": 34.2386, "lon": 126.0489, "name": "\uad00\ub9e4\ub3c4\uce58\uc548\uc13c\ud130", "type": "police_station", "is_24h": true}, {"lat": 34.7542, "lon": 126.0594, "name": "\uc0ac\uce58\ub3c4\uce58\uc548\uc13c\ud130", "type": "police_station", "is_24h": true}, {"lat": 34.9319, "lon": 126.5035, "name": "\ubabd\ud0c4 \uc790\uc728\ubc29\ubc94\ub300", "type": "police_station", "is_24h": true}, {"lat": 34.1802, "lon": 126.8584, "name": "\uc644\ub3c4\uacbd\ucc30\uc11c \uccad\uc0b0\ud30c\ucd9c\uc18c", "type": "police_station", "is_24h": true}, {"lat": 34.9603, "lon": 126.3402, "name": "\ubb34\uc548\uacbd\ucc30\uc11c \uc6b4\ub0a8\ud30c\ucd9c\uc18c", "type": "police_station", "is_24h": true}, {"lat": 34.3512, "lon": 126.4742, "name": "\uc5b4\ub780\ucd9c\uc7a5\uc18c", "type": "police_station", "is_24h": true}, {"lat": 34.3181, "lon": 126.6027, "name": "\uc644\ub3c4\ud574\uc591\uacbd\ucc30\uc11c \ubd81\ud3c9\ucd9c\uc7a5\uc18c", "type": "police_station", "is_24h": true}, {"lat": 34.3722, "lon": 126.5225, "name": "\ud574\ub0a8\uacbd\ucc30\uc11c \uc1a1\uc9c0\ud30c\ucd9c\uc18c", "type": "police_station", "is_24h": true}, {"lat": 34.6877, "lon": 126.169, "name": "\uc790\ub77c\ub3c4\uce58\uc548\uc13c\ud130", "type": "police_station", "is_24h": true}, {"lat": 34.5724, "lon": 126.7987, "name": "\uac15\uc9c4\uacbd\ucc30\uc11c \uce60\ub7c9\ud30c\ucd9c\uc18c", "type": "police_station", "is_24h": true}, {"lat": 34.6371, "lon": 126.7755, "name": "\uac15\uc9c4\uacbd\ucc30\uc11c \uc74d\ub0b4\uc9c0\uad6c\ub300", "type": "police_station", "is_24h": true}, {"lat": 34.645, "lon": 126.8161, "name": "\uac15\uc9c4\uacbd\ucc30\uc11c \uad70\ub3d9\ud30c\ucd9c\uc18c", "type": "police_station", "is_24h": true}, {"lat": 34.5445, "lon": 126.728, "name": "\uac15\uc9c4\uacbd\ucc30\uc11c \ub3c4\uc554\ud30c\ucd9c\uc18c", "type": "police_station", "is_24h": true}, {"lat": 34.9683, "lon": 126.6708, "name": "\ub098\uc8fc\uacbd\ucc30\uc11c \uc655\uace1\ud30c\ucd9c\uc18c", "type": "police_station", "is_24h": true}, {"lat": 34.9563, "lon": 126.7795, "name": "\ub098\uc8fc\uacbd\ucc30\uc11c \ubd09\ud669\ud30c\ucd9c\uc18c", "type": "police_station", "is_24h": true}, {"lat": 34.943, "lon": 126.6075, "name": "\ub098\uc8fc\uacbd\ucc30\uc11c \uacf5\uc0b0\ud30c\ucd9c\uc18c", "type": "police_station", "is_24h": true}, {"lat": 34.7946, "lon": 126.3799, "name": "\ubaa9\ud3ec\uacbd\ucc30\uc11c \uc911\uc559\ud30c\ucd9c\uc18c", "type": "police_station", "is_24h": true}, {"lat": 34.8097, "lon": 126.4238, "name": "\ubaa9\ud3ec\uacbd\ucc30\uc11c \uc774\ub85c\ud30c\ucd9c\uc18c", "type": "police_station", "is_24h": true}, {"lat": 34.8123, "lon": 126.3961, "name": "\ubaa9\ud3ec\uacbd\ucc30\uc11c \uc6a9\ub2f9\ud30c\ucd9c\uc18c", "type": "police_station", "is_24h": true}, {"lat": 34.8037, "lon": 126.3944, "name": "\ubaa9\ud3ec\uacbd\ucc30\uc11c \uc5f0\ub3d9\ud30c\ucd9c\uc18c", "type": "police_station", "is_24h": true}, {"lat": 34.8297, "lon": 126.1141, "name": "\uc2e0\uc548\uacbd\ucc30\uc11c \uc554\ud0dc\ud30c\ucd9c\uc18c", "type": "police_station", "is_24h": true}, {"lat": 34.7546, "lon": 126.1268, "name": "\ubaa9\ud3ec\uacbd\ucc30\uc11c \uc548\uc88c\ud30c\ucd9c\uc18c", "type": "police_station", "is_24h": true}, {"lat": 34.8102, "lon": 126.4166, "name": "\ubaa9\ud3ec\uacbd\ucc30\uc11c \uc0c1\ub3d9\ud30c\ucd9c\uc18c", "type": "police_station", "is_24h": true}, {"lat": 34.7874, "lon": 126.4008, "name": "\ubaa9\ud3ec\uacbd\ucc30\uc11c \uc0bc\ud559\ud30c\ucd9c\uc18c", "type": "police_station", "is_24h": true}, {"lat": 34.8103, "lon": 126.4478, "name": "\ubaa9\ud3ec\uacbd\ucc30\uc11c \ubd80\uc8fc\ud30c\ucd9c\uc18c", "type": "police_station", "is_24h": true}, {"lat": 34.8916, "lon": 126.9891, "name": "\ud654\uc21c\uacbd\ucc30\uc11c \uc774\uc591\ud30c\ucd9c\uc18c", "type": "police_station", "is_24h": true}, {"lat": 34.9976, "lon": 126.917, "name": "\ud654\uc21c\uacbd\ucc30\uc11c \ub3c4\uace1\ud30c\ucd9c\uc18c", "type": "police_station", "is_24h": true}, {"lat": 34.9901, "lon": 126.9605, "name": "\ud654\uc21c\uacbd\ucc30\uc11c \ub2a5\uc8fc\ud30c\ucd9c\uc18c", "type": "police_station", "is_24h": true}, {"lat": 34.5674, "lon": 126.6471, "name": "\ud574\ub0a8\uacbd\ucc30\uc11c \uc625\ucc9c\ud30c\ucd9c\uc18c", "type": "police_station", "is_24h": true}, {"lat": 34.6445, "lon": 126.4472, "name": "\ud574\ub0a8\uacbd\ucc30\uc11c \uc0b0\uc774\ud30c\ucd9c\uc18c", "type": "police_station", "is_24h": true}, {"lat": 34.4058, "lon": 126.1913, "name": "\uc9c4\ub3c4\uacbd\ucc30\uc11c \uc784\ud68c\ud30c\ucd9c\uc18c", "type": "police_station", "is_24h": true}, {"lat": 34.4404, "lon": 126.28, "name": "\uc9c4\ub3c4\uacbd\ucc30\uc11c \uc758\uc2e0\ud30c\ucd9c\uc18c", "type": "police_station", "is_24h": true}, {"lat": 34.4926, "lon": 126.3419, "name": "\uc9c4\ub3c4\uacbd\ucc30\uc11c \uace0\uad70\ud30c\ucd9c\uc18c", "type": "police_station", "is_24h": true}, {"lat": 34.4842, "lon": 126.9399, "name": "\uc7a5\ud765\uacbd\ucc30\uc11c \ud68c\uc9c4\ud30c\ucd9c\uc18c", "type": "police_station", "is_24h": true}, {"lat": 34.775, "lon": 126.9743, "name": "\uc7a5\ud765\uacbd\ucc30\uc11c \uc7a5\ud3c9\ud30c\ucd9c\uc18c", "type": "police_station", "is_24h": true}, {"lat": 34.6813, "lon": 126.9083, "name": "\uc7a5\ud765\uacbd\ucc30\uc11c \uc74d\ub0b4\uc9c0\uad6c\ub300", "type": "police_station", "is_24h": true}, {"lat": 34.6144, "lon": 126.9144, "name": "\uc7a5\ud765\uacbd\ucc30\uc11c \uc6a9\uc0b0\ud30c\ucd9c\uc18c", "type": "police_station", "is_24h": true}, {"lat": 34.649, "lon": 126.9717, "name": "\uc7a5\ud765\uacbd\ucc30\uc11c \uc548\uc591\ud30c\ucd9c\uc18c", "type": "police_station", "is_24h": true}, {"lat": 34.4993, "lon": 126.8885, "name": "\uc7a5\ud765\uacbd\ucc30\uc11c \ub300\ub355\uc9c0\uad6c\ub300", "type": "police_station", "is_24h": true}, {"lat": 34.5641, "lon": 126.9377, "name": "\uc7a5\ud765\uacbd\ucc30\uc11c \uad00\uc0b0\ud30c\ucd9c\uc18c", "type": "police_station", "is_24h": true}, {"lat": 34.3171, "lon": 126.7418, "name": "\uc644\ub3c4\uacbd\ucc30\uc11c \uc74d\ub0b4\uc9c0\uad6c\ub300", "type": "police_station", "is_24h": true}, {"lat": 34.3938, "lon": 126.8986, "name": "\uc644\ub3c4\uacbd\ucc30\uc11c \uc57d\uc0b0\ud30c\ucd9c\uc18c", "type": "police_station", "is_24h": true}, {"lat": 34.3339, "lon": 126.8264, "name": "\uc644\ub3c4\uacbd\ucc30\uc11c \uc2e0\uc9c0\ud30c\ucd9c\uc18c", "type": "police_station", "is_24h": true}, {"lat": 34.1735, "lon": 126.6514, "name": "\uc644\ub3c4\uacbd\ucc30\uc11c \uc18c\uc548\ud30c\ucd9c\uc18c", "type": "police_station", "is_24h": true}, {"lat": 34.1691, "lon": 126.5646, "name": "\uc644\ub3c4\uacbd\ucc30\uc11c \ubcf4\uae38\ud30c\ucd9c\uc18c", "type": "police_station", "is_24h": true}, {"lat": 34.1777, "lon": 126.5701, "name": "\uc644\ub3c4\uacbd\ucc30\uc11c \ub178\ud654\ud30c\ucd9c\uc18c", "type": "police_station", "is_24h": true}, {"lat": 34.3958, "lon": 126.8016, "name": "\uc644\ub3c4\uacbd\ucc30\uc11c \uace0\uae08\ud30c\ucd9c\uc18c", "type": "police_station", "is_24h": true}, {"lat": 34.8038, "lon": 126.7007, "name": "\uc601\uc554\uacbd\ucc30\uc11c \uc74d\ub0b4\ud30c\ucd9c\uc18c", "type": "police_station", "is_24h": true}, {"lat": 34.8906, "lon": 126.6928, "name": "\uc601\uc554\uacbd\ucc30\uc11c \uc2e0\ubd81\ud30c\ucd9c\uc18c", "type": "police_station", "is_24h": true}, {"lat": 34.8252, "lon": 126.1133, "name": "\uc2e0\uc548\uacbd\ucc30\uc11c", "type": "police_station", "is_24h": true}, {"lat": 34.5698, "lon": 126.302, "name": "\ub179\uc9c4\uce58\uc548\uc13c\ud130", "type": "police_station", "is_24h": true}, {"lat": 34.7998, "lon": 126.3545, "name": "\uc11c\ud574\ud574\uc591\ud2b9\uc218\uad6c\uc870\ub300", "type": "police_station", "is_24h": true}, {"lat": 34.7992, "lon": 126.3541, "name": "\uc11c\ud574\uc9c0\ubc29\ud574\uc591\uacbd\ucc30\uccad \ud2b9\uacf5\ub300", "type": "police_station", "is_24h": true}, {"lat": 34.8097, "lon": 126.3679, "name": "\ubaa9\ud3ec\ud574\uc591\uacbd\ucc30\uc11c", "type": "police_station", "is_24h": true}, {"lat": 34.8119, "lon": 126.477, "name": "\ubb34\uc548\uacbd\ucc30\uc11c \ub0a8\uc545\uc9c0\uad6c\ub300", "type": "police_station", "is_24h": true}, {"lat": 34.8118, "lon": 126.4775, "name": "\uc804\ub0a8\uc9c0\ubc29\uacbd\ucc30\uccad \uc81c1\uae30\ub3d9\ub300", "type": "police_station", "is_24h": true}, {"lat": 34.8175, "lon": 126.4696, "name": "\uc804\ub0a8\uc9c0\ubc29\uacbd\ucc30\uccad", "type": "police_station", "is_24h": true}, {"lat": 34.8183, "lon": 126.4694, "name": "police_station", "type": "police_station", "is_24h": true}, {"lat": 34.8865, "lon": 126.0442, "name": "\ubaa9\ud3ec\uacbd\ucc30\uc11c \uc790\uc740\ud30c\ucd9c\uc18c", "type": "police_station", "is_24h": true}, {"lat": 34.5657, "lon": 126.6072, "name": "\uc804\ub0a8 \ud574\ub0a8\uacbd\ucc30\uc11c", "type": "police_station", "is_24h": true}, {"lat": 34.7978, "lon": 126.699, "name": "\uc804\ub0a8 \uc601\uc554\uacbd\ucc30\uc11c", "type": "police_station", "is_24h": true}, {"lat": 34.987, "lon": 126.4769, "name": "\uc804\ub0a8 \ubb34\uc548\uacbd\ucc30\uc11c", "type": "police_station", "is_24h": true}, {"lat": 34.8041, "lon": 126.3847, "name": "\ubaa9\ud3ec\uacbd\ucc30\uc11c \uc0b0\uc815\ud30c\ucd9c\uc18c", "type": "police_station", "is_24h": true}, {"lat": 34.6789, "lon": 126.8978, "name": "\uc804\ub0a8 \uc7a5\ud765\uacbd\ucc30\uc11c", "type": "police_station", "is_24h": true}, {"lat": 34.2988, "lon": 126.0506, "name": "\uc9c4\ub3c4\uacbd\ucc30\uc11c \uc870\ub3c4\ud30c\ucd9c\uc18c", "type": "police_station", "is_24h": true}, {"lat": 34.4795, "lon": 126.0504, "name": "\uac00\uc0ac\ub3c4\uce58\uc548\uc13c\ud130", "type": "police_station", "is_24h": true}, {"lat": 34.5853, "lon": 126.0896, "name": "\ubaa9\ud3ec\uacbd\ucc30\uc11c \uc2e0\uc758\ud30c\ucd9c\uc18c", "type": "police_station", "is_24h": true}, {"lat": 34.7414, "lon": 126.0172, "name": "\uc218\uce58\ub3c4\uce58\uc548\uc13c\ud130", "type": "police_station", "is_24h": true}, {"lat": 34.6435, "lon": 126.1493, "name": "\ubaa9\ud3ec\uacbd\ucc30\uc11c \uc7a5\uc0b0\ud30c\ucd9c\uc18c", "type": "police_station", "is_24h": true}, {"lat": 34.7859, "lon": 126.4488, "name": "\ub300\ubd88\uce58\uc548\uc13c\ud130", "type": "police_station", "is_24h": true}, {"lat": 34.3078, "lon": 126.7618, "name": "\uc644\ub3c4\ud574\uc591\uacbd\ucc30\uc11c", "type": "police_station", "is_24h": true}, {"lat": 34.1793, "lon": 126.8578, "name": "\uc644\ub3c4\ud574\uc591\uacbd\ucc30\uc11c \uccad\uc0b0\ucd9c\uc7a5\uc18c", "type": "police_station", "is_24h": true}, {"lat": 34.9603, "lon": 126.3402, "name": "\uc6b4\ub0a8\ud30c\ucd9c\uc18c", "type": "police_station", "is_24h": true}, {"lat": 34.7823, "lon": 126.1426, "name": "\ubaa9\ud3ec\uacbd\ucc30\uc11c \ud314\uae08\ud30c\ucd9c\uc18c", "type": "police_station", "is_24h": true}, {"lat": 34.6061, "lon": 126.0367, "name": "\ubaa9\ud3ec\uacbd\ucc30\uc11c \ud558\uc758\ud30c\ucd9c\uc18c", "type": "police_station", "is_24h": true}, {"lat": 34.5757, "lon": 126.4308, "name": "\ud574\ub0a8\uacbd\ucc30\uc11c \ud669\uc0b0\ud30c\ucd9c\uc18c", "type": "police_station", "is_24h": true}, {"lat": 34.5919, "lon": 126.3092, "name": "\ud574\ub0a8\uacbd\ucc30\uc11c \ubb38\ub0b4\ud30c\ucd9c\uc18c", "type": "police_station", "is_24h": true}, {"lat": 34.6665, "lon": 126.327, "name": "\ud574\ub0a8\uacbd\ucc30\uc11c \ud654\uc6d0\ud30c\ucd9c\uc18c", "type": "police_station", "is_24h": true}, {"lat": 34.3903, "lon": 126.6492, "name": "\uc644\ub3c4\uacbd\ucc30\uc11c \uad70\uc678\ud30c\ucd9c\uc18c", "type": "police_station", "is_24h": true}, {"lat": 34.6184, "lon": 126.5709, "name": "\ud574\ub0a8\uacbd\ucc30\uc11c \ub9c8\uc0b0\ud30c\ucd9c\uc18c", "type": "police_station", "is_24h": true}, {"lat": 34.4915, "lon": 126.5149, "name": "\ud574\ub0a8\uacbd\ucc30\uc11c \ud654\uc0b0\ud30c\ucd9c\uc18c", "type": "police_station", "is_24h": true}, {"lat": 34.3512, "lon": 126.4742, "name": "\uc5b4\ub780\ucd9c\uc7a5\uc18c", "type": "police_station", "is_24h": true}, {"lat": 34.4583, "lon": 126.5529, "name": "\ud574\ub0a8\uacbd\ucc30\uc11c \ud604\uc0b0\ud30c\ucd9c\uc18c", "type": "police_station", "is_24h": true}, {"lat": 34.299, "lon": 126.5279, "name": "\uc644\ub3c4\ud574\uc591\uacbd\ucc30\uc11c\ub545\ub05d\ud30c\ucd9c\uc18c", "type": "police_station", "is_24h": true}, {"lat": 34.3181, "lon": 126.6027, "name": "\ubd81\ud3c9\ucd9c\uc7a5\uc18c", "type": "police_station", "is_24h": true}, {"lat": 34.4054, "lon": 126.6277, "name": "\ud574\ub0a8\uacbd\ucc30\uc11c \ubd81\ud3c9\ud30c\ucd9c\uc18c", "type": "police_station", "is_24h": true}, {"lat": 34.6877, "lon": 126.169, "name": "\uc790\ub77c\ub3c4\uce58\uc548\uc13c\ud130", "type": "police_station", "is_24h": true}, {"lat": 34.6423, "lon": 126.7679, "name": "\uc804\ub0a8 \uac15\uc9c4\uacbd\ucc30\uc11c", "type": "police_station", "is_24h": true}, {"lat": 34.8175, "lon": 126.4698, "name": "\uc804\ub0a8\uc9c0\ubc29\uacbd\ucc30\uccad", "type": "police_station", "is_24h": true}, {"lat": 34.7985, "lon": 126.3971, "name": "\uc804\ub0a8 \ubaa9\ud3ec\uacbd\ucc30\uc11c", "type": "police_station", "is_24h": true}, {"lat": 34.4757, "lon": 126.2619, "name": "\uc9c4\ub3c4\uacbd\ucc30\uc11c", "type": "police_station", "is_24h": true}, {"lat": 34.3363, "lon": 126.7305, "name": "\uc804\ub0a8 \uc644\ub3c4\uacbd\ucc30\uc11c", "type": "police_station", "is_24h": true}, {"lat": 34.9103, "lon": 126.4305, "name": "\ubb34\uc548\uacbd\ucc30\uc11c \uccad\uacc4\ud30c\ucd9c\uc18c", "type": "police_station", "is_24h": true}, {"lat": 34.9353, "lon": 126.5642, "name": "\ub3d9\uac15\uce58\uc548\uc13c\ud130", "type": "police_station", "is_24h": true}, {"lat": 34.8357, "lon": 126.3599, "name": "\uc555\ud574\uce58\uc548\uc13c\ud130", "type": "police_station", "is_24h": true}, {"lat": 34.3385, "lon": 126.4761, "name": "\uc644\ub3c4\ud574\uc591\uacbd\ucc30\uc11c \uc5b4\ubd88\ub3c4\ucd9c\uc7a5\uc18c", "type": "police_station", "is_24h": true}, {"lat": 34.8042, "lon": 126.3657, "name": "\ubd81\ud56d\ud30c\ucd9c\uc18c", "type": "police_station", "is_24h": true}, {"lat": 34.95, "lon": 126.9607, "name": "\ucd98\uc591\uce58\uc548\uc13c\ud130", "type": "police_station", "is_24h": true}, {"lat": 34.8648, "lon": 126.3148, "name": "\uc555\ud574\ud30c\ucd9c\uc18c", "type": "police_station", "is_24h": true}, {"lat": 34.8041, "lon": 126.3737, "name": "\ubaa9\ud3ec\uc2dc\ubcf4\uac74\uc18c", "type": "hospital", "is_24h": false}, {"lat": 34.8043, "lon": 126.4206, "name": "\ubaa9\ud3ec\uae30\ub3c5\ubcd1\uc6d0", "type": "hospital", "is_24h": false}, {"lat": 34.8289, "lon": 126.4219, "name": "\ubaa9\ud3ec\uc138\uc885\ubcd1\uc6d0", "type": "hospital", "is_24h": false}, {"lat": 34.823, "lon": 126.427, "name": "\ubbf8\ub798\ubcd1\uc6d0", "type": "hospital", "is_24h": false}, {"lat": 34.8015, "lon": 126.3949, "name": "\ud65c\ubc95\uc18c\ub9dd\uc6d0", "type": "hospital", "is_24h": false}, {"lat": 34.8021, "lon": 126.4218, "name": "\uae40\uc885\ud604\uac00\uc815\uc758\ud559\uacfc", "type": "hospital", "is_24h": false}, {"lat": 34.8067, "lon": 126.4274, "name": "\uc608\uc2a4\uac00\uc815\uc758\ud559\uacfc\uc758\uc6d0", "type": "hospital", "is_24h": false}, {"lat": 34.8056, "lon": 126.3978, "name": "\uae40\ubbfc\ucd9c\ud1b5\uc99d\ud074\ub9ac\ub2c9\uc758\uc6d0", "type": "hospital", "is_24h": false}, {"lat": 34.8029, "lon": 126.42, "name": "\ud558\ub2f9\uc218\uc131\ud615\uc678\uacfc", "type": "hospital", "is_24h": false}, {"lat": 34.8093, "lon": 126.4195, "name": "\ubaa9\ud3ec\uc544\ub3d9\uc758\uc6d0", "type": "hospital", "is_24h": false}, {"lat": 34.803, "lon": 126.3932, "name": "\ubb38\ub0b4\uacfc\uc758\uc6d0", "type": "hospital", "is_24h": false}, {"lat": 34.8093, "lon": 126.4195, "name": "\uc624\uac00\uc815\uc758\ud559\uacfc\uc758\uc6d0", "type": "hospital", "is_24h": false}, {"lat": 34.8067, "lon": 126.4274, "name": "\uc0ac\ub791\uc758\uc758\uc6d0", "type": "hospital", "is_24h": false}, {"lat": 34.8093, "lon": 126.4195, "name": "\ubaa9\ud3ec\ubbf8\uc18c\uc758\uc6d0", "type": "hospital", "is_24h": false}, {"lat": 34.7816, "lon": 126.3788, "name": "\uc720\uc131\uc758\uc6d0", "type": "hospital", "is_24h": false}, {"lat": 34.81, "lon": 126.378, "name": "\uae40\ub4dd\uc218\uc678\uacfc\uc758\uc6d0", "type": "hospital", "is_24h": false}, {"lat": 34.7833, "lon": 126.3847, "name": "\ubb38\ud55c\uc758\uc6d0", "type": "hospital", "is_24h": false}, {"lat": 34.8382, "lon": 126.4247, "name": "\ubaa9\ud3ec\ud6a8\uce5c\uc694\uc591\ubcd1\uc6d0", "type": "hospital", "is_24h": false}, {"lat": 34.8385, "lon": 126.4243, "name": "\ubaa9\ud3ec\ud6a8\uce5c\uc694\uc591\ubcd1\uc6d0", "type": "hospital", "is_24h": false}, {"lat": 34.8286, "lon": 126.419, "name": "\ub098\ubb34\ubcd1\uc6d0", "type": "hospital", "is_24h": false}, {"lat": 34.8071, "lon": 126.4184, "name": "\ucef4\ud4e8\ud130\ubcd1\uc6d0", "type": "hospital", "is_24h": false}, {"lat": 34.7914, "lon": 126.3983, "name": "\uc911\uace0\ubcd1\uc6d0", "type": "hospital", "is_24h": false}, {"lat": 34.9956, "lon": 126.7134, "name": "\uae40\uc601\uc12d\ubcd1\uc6d0", "type": "hospital", "is_24h": false}, {"lat": 34.9211, "lon": 126.7483, "name": "\uad11\uc8fc\uc758\uc6d0", "type": "hospital", "is_24h": false}, {"lat": 34.9019, "lon": 126.6521, "name": "\ubc18\ub0a8\ubcf4\uac74\uc9c0\uc18c", "type": "hospital", "is_24h": false}, {"lat": 34.9657, "lon": 126.6846, "name": "\uc655\uace1\ubcf4\uac74\uc9c0\uc18c", "type": "hospital", "is_24h": false}, {"lat": 34.9443, "lon": 126.8269, "name": "\ub2e4\ub3c4\ubcf4\uac74\uc9c0\uc18c", "type": "hospital", "is_24h": false}, {"lat": 34.9417, "lon": 126.609, "name": "\uacf5\uc0b0\ubcf4\uac74\uc9c0\uc18c", "type": "hospital", "is_24h": false}, {"lat": 34.9309, "lon": 126.5938, "name": "\uc0bc\ub300\ud55c\uc758\uc6d0", "type": "hospital", "is_24h": false}, {"lat": 34.9879, "lon": 126.7801, "name": "\uc625\uc0b0\uc9c4\ub8cc\uc18c", "type": "hospital", "is_24h": false}, {"lat": 34.9411, "lon": 126.6117, "name": "\uacf5\uc0b0\ud55c\uc758\uc6d0", "type": "hospital", "is_24h": false}, {"lat": 34.9202, "lon": 126.7492, "name": "\uc138\uc9c0\ubcf4\uac74\uc9c0\uc18c", "type": "hospital", "is_24h": false}, {"lat": 34.9951, "lon": 126.7132, "name": "\ub3d9\uc0b0\uc758\uc6d0", "type": "hospital", "is_24h": false}, {"lat": 34.9414, "lon": 126.61, "name": "\uc911\uc559\uc758\uc6d0", "type": "hospital", "is_24h": false}, {"lat": 34.9926, "lon": 126.7118, "name": "\uc81c\uc77c\ubcd1\uc6d0(\uc601\uc0b0\ud3ec) (Jeilbyeongwon ( Yeo", "type": "hospital", "is_24h": false}, {"lat": 34.9602, "lon": 126.3398, "name": "\uc6d0\ud1b5\ud55c\uc758\uc6d0", "type": "hospital", "is_24h": false}, {"lat": 34.9914, "lon": 126.4891, "name": "\ubb34\uc548\uc885\ud569\ubcd1\uc6d0", "type": "hospital", "is_24h": false}, {"lat": 34.9932, "lon": 126.4822, "name": "\ubb34\uc548\uc81c\uc77c\ubcd1\uc6d0", "type": "hospital", "is_24h": false}, {"lat": 34.9902, "lon": 126.4807, "name": "\ubb34\uc548\uad70\ubcf4\uac74\uc18c", "type": "hospital", "is_24h": false}, {"lat": 34.8842, "lon": 126.045, "name": "\uc790\uc740\uc544\ub984\ub2e4\uc6b4\ubcd1\uc6d0", "type": "hospital", "is_24h": false}, {"lat": 34.8722, "lon": 126.3141, "name": "\uc555\ud574\uc678\uacfc", "type": "hospital", "is_24h": false}, {"lat": 34.7544, "lon": 126.1254, "name": "\ud55c\uad6d\uc758\uc6d0", "type": "hospital", "is_24h": false}, {"lat": 34.4823, "lon": 126.264, "name": "\ud55c\uad6d\ubcd1\uc6d0", "type": "hospital", "is_24h": false}, {"lat": 34.4804, "lon": 126.2635, "name": "\uc131\uc2ec\uc758\uc6d0", "type": "hospital", "is_24h": false}, {"lat": 34.4794, "lon": 126.2635, "name": "\uae40\uae30\uc911\ub0b4\uacfc\uc758\uc6d0", "type": "hospital", "is_24h": false}, {"lat": 34.4812, "lon": 126.2616, "name": "\uae40\uc678\uacfc", "type": "hospital", "is_24h": false}, {"lat": 34.9296, "lon": 126.9231, "name": "\ub9c8\ub8e8\uc694\uc591\ubcd1\uc6d0", "type": "hospital", "is_24h": false}, {"lat": 34.791, "lon": 126.7248, "name": "\uc6d0\uad11\ud55c\uc758\uc6d0", "type": "hospital", "is_24h": false}, {"lat": 34.794, "lon": 126.7007, "name": "\uae40\ubcd1\uc6d0", "type": "hospital", "is_24h": false}, {"lat": 34.8871, "lon": 126.6909, "name": "\ud55c\uad6d\uc758\uc6d0", "type": "hospital", "is_24h": false}, {"lat": 34.7947, "lon": 126.7045, "name": "\uc601\uc554\uad70\ubcf4\uac74\uc18c", "type": "hospital", "is_24h": false}, {"lat": 34.7471, "lon": 126.3794, "name": "\uc0bc\ud638\uc81c\uc77c\ubcd1\uc6d0", "type": "hospital", "is_24h": false}, {"lat": 34.5669, "lon": 126.5958, "name": "\ud574\ub0a8\ud55c\uad6d\ubcd1\uc6d0", "type": "hospital", "is_24h": false}, {"lat": 34.568, "lon": 126.6086, "name": "\ud574\ub0a8\uc6b0\uc11d\ubcd1\uc6d0", "type": "hospital", "is_24h": false}, {"lat": 34.5716, "lon": 126.6129, "name": "\ud574\ub0a8\uc885\ud569\ubcd1\uc6d0", "type": "hospital", "is_24h": false}, {"lat": 34.572, "lon": 126.612, "name": "\ud574\ub0a8\uc5b4\ub974\uc2e0\ubcd1\uc6d0", "type": "hospital", "is_24h": false}, {"lat": 34.5828, "lon": 126.6433, "name": "\ud574\ub0a8\ud61c\ubbfc\ubcd1\uc6d0", "type": "hospital", "is_24h": false}, {"lat": 34.5705, "lon": 126.6121, "name": "\ud574\ub0a8\uad70\ubcf4\uac74\uc18c", "type": "hospital", "is_24h": false}, {"lat": 34.6428, "lon": 126.4486, "name": "\uc0b0\uc774\uc0bc\uc131\uc758\uc6d0", "type": "hospital", "is_24h": false}, {"lat": 34.5205, "lon": 126.612, "name": "\uc0bc\uc0b0\ubcf4\uac74\uc9c0\uc18c", "type": "hospital", "is_24h": false}, {"lat": 34.5669, "lon": 126.6498, "name": "\uc625\ucc9c\ubcf4\uac74\uc9c0\uc18c", "type": "hospital", "is_24h": false}, {"lat": 34.5969, "lon": 126.3139, "name": "\ubb38\ub0b4\ubcf4\uac74\uc9c0\uc18c", "type": "hospital", "is_24h": false}, {"lat": 34.4295, "lon": 126.5848, "name": "\uad6c\uc0b0\ubcf4\uac74\uc9c0\uc18c", "type": "hospital", "is_24h": false}, {"lat": 34.3681, "lon": 126.5181, "name": "\uc1a1\uc9c0\ud55c\uc758\uc6d0", "type": "hospital", "is_24h": false}, {"lat": 34.5671, "lon": 126.6054, "name": "\ud61c\ubbfc\ud55c\ubc29\uc758\uc6d0", "type": "hospital", "is_24h": false}, {"lat": 34.6463, "lon": 126.6603, "name": "\uacc4\uace1\ubcf4\uac74\uc9c0\uc18c", "type": "hospital", "is_24h": false}, {"lat": 34.4055, "lon": 126.6287, "name": "\uc131\uc2ec\uc758\uc6d0", "type": "hospital", "is_24h": false}, {"lat": 34.5741, "lon": 126.4309, "name": "\ud669\uc0b0\uc18c\ub9dd\uc758\uc6d0", "type": "hospital", "is_24h": false}, {"lat": 34.6193, "lon": 126.567, "name": "\uac00\ub098\uc548\uc694\uc591\ubcd1\uc6d0", "type": "hospital", "is_24h": false}, {"lat": 34.5735, "lon": 126.6013, "name": "\ud478\ub978\uc232\ub098\ubb34\ubcd1\uc6d0", "type": "hospital", "is_24h": false}, {"lat": 34.583, "lon": 126.6458, "name": "\uc6b0\ub9ac\ubcd1\uc6d0\uc7a5\ub840\uc2dd\uc7a5", "type": "hospital", "is_24h": false}, {"lat": 34.3171, "lon": 126.7356, "name": "\uc644\ub3c4\ub300\uc131\ubcd1\uc6d0", "type": "hospital", "is_24h": false}, {"lat": 34.3363, "lon": 126.7312, "name": "\uc644\ub3c4\uad70\ubcf4\uac74\uc18c", "type": "hospital", "is_24h": false}, {"lat": 34.3186, "lon": 126.7445, "name": "\uc784\ud0dc\uc9c4\ub0b4\uacfc", "type": "hospital", "is_24h": false}, {"lat": 34.3152, "lon": 126.7537, "name": "\uae40\ubcd1\uc77c\ub0b4\uacfc\uc758\uc6d0", "type": "hospital", "is_24h": false}, {"lat": 34.311, "lon": 126.7542, "name": "\uacbd\ud76c\ud55c\uc758\uc6d0", "type": "hospital", "is_24h": false}, {"lat": 34.3162, "lon": 126.7352, "name": "\ub300\uc131\ubcd1\uc6d0\uc7a5\ub840\uc2dd\uc7a5", "type": "hospital", "is_24h": false}, {"lat": 34.9582, "lon": 126.7857, "name": "\ubd09\ud669\ubcf4\uac74\uc9c0\uc18c", "type": "hospital", "is_24h": false}, {"lat": 34.9303, "lon": 126.5031, "name": "\ubb34\uc548\uad70\ubabd\ud0c4\uba74\ubcf4\uac74\uc9c0\uc18c", "type": "hospital", "is_24h": false}, {"lat": 34.6924, "lon": 126.7091, "name": "\uc131\uc804\ubcf4\uac74\uc9c0\uc18c", "type": "hospital", "is_24h": false}, {"lat": 34.9969, "lon": 126.9143, "name": "\ub3c4\uace1\ubcf4\uac74\uc9c0\uc18c", "type": "hospital", "is_24h": false}, {"lat": 34.7929, "lon": 126.3796, "name": "\ucc38\uc0ac\ub791\uc694\uc591\ubcd1\uc6d0", "type": "hospital", "is_24h": false}, {"lat": 34.6381, "lon": 126.7754, "name": "\uac15\uc9c4\uad70\ubcf4\uac74\uc18c", "type": "hospital", "is_24h": false}, {"lat": 34.6789, "lon": 126.9579, "name": "\uc6d0\uad11\ub300\ud559\uad50\uc7a5\ud765\ud1b5\ud569\uc758\ub8cc\ud55c\ubc29\ubcd1\uc6d0", "type": "hospital", "is_24h": false}, {"lat": 34.943, "lon": 126.6087, "name": "\ud55c\uad6d\ud749\ubd80\uc678\uacfc\uc758\uc6d0", "type": "hospital", "is_24h": false}, {"lat": 34.8763, "lon": 126.9701, "name": "\uccad\ud48d\ubcf4\uac74\uc9c0\uc18c", "type": "hospital", "is_24h": false}, {"lat": 34.7377, "lon": 126.4127, "name": "Medical Centre", "type": "hospital", "is_24h": false}, {"lat": 34.8138, "lon": 126.4163, "name": "\ud6a8\uc131\uc694\uc591\ubcd1\uc6d0", "type": "hospital", "is_24h": false}, {"lat": 34.4803, "lon": 126.2629, "name": "\uc9c4\ub3c4\uad70\ubcf4\uac74\uc18c", "type": "hospital", "is_24h": false}, {"lat": 34.8209, "lon": 126.4209, "name": "\ubaa9\ud3ec\uc911\uc559\ubcd1\uc6d0", "type": "hospital", "is_24h": false}, {"lat": 34.9943, "lon": 126.923, "name": "\ubcf4\uc740\ubcd1\uc6d0", "type": "hospital", "is_24h": false}, {"lat": 34.6368, "lon": 126.7579, "name": "\uac15\uc9c4\uc758\ub8cc\uc6d0", "type": "hospital", "is_24h": false}, {"lat": 34.4793, "lon": 126.2652, "name": "\uc9c4\ub3c4\uc804\ub0a8\ubcd1\uc6d0", "type": "hospital", "is_24h": false}, {"lat": 34.6765, "lon": 126.9084, "name": "\uc7a5\ud765\uad70\ubcf4\uac74\uc18c", "type": "hospital", "is_24h": false}, {"lat": 34.6771, "lon": 126.911, "name": "\uc7a5\ud765\uc885\ud569\ubcd1\uc6d0", "type": "hospital", "is_24h": false}, {"lat": 34.6784, "lon": 126.9111, "name": "\uc7a5\ud765\uc6b0\ub9ac\ubcd1\uc6d0", "type": "hospital", "is_24h": false}, {"lat": 34.8156, "lon": 126.4013, "name": "\ubaa9\ud3ec\ud604\ub300\ubcd1\uc6d0", "type": "hospital", "is_24h": false}, {"lat": 34.6768, "lon": 126.9094, "name": "\uc7a5\ud765\uc694\uc591\ubcd1\uc6d0", "type": "hospital", "is_24h": false}, {"lat": 34.5716, "lon": 126.6131, "name": "\ud574\ub0a8\uc885\ud569\ubcd1\uc6d0", "type": "hospital", "is_24h": false}, {"lat": 34.8217, "lon": 126.6972, "name": "\uc601\uc554\ud6a8\ubcd1\uc6d0", "type": "hospital", "is_24h": false}, {"lat": 34.8094, "lon": 126.4164, "name": "\ubaa9\ud3ec\ud55c\uad6d\ubcd1\uc6d0", "type": "hospital", "is_24h": false}, {"lat": 34.9367, "lon": 126.5646, "name": "hospital", "type": "hospital", "is_24h": false}, {"lat": 34.3391, "lon": 126.4726, "name": "\uc5b4\ubd88\ubcf4\uac74\uc9c4\ub8cc\uc18c", "type": "hospital", "is_24h": false}, {"lat": 34.8268, "lon": 126.4366, "name": "\uad6d\ub9bd\ubaa9\ud3ec\ubcd1\uc6d0", "type": "hospital", "is_24h": false}, {"lat": 34.8041, "lon": 126.4052, "name": "\ubaa9\ud3ec\uc2dc\uc758\ub8cc\uc6d0", "type": "hospital", "is_24h": false}, {"lat": 34.8075, "lon": 126.9897, "name": "\ubd80\ud3c9 \ubcf4\uac74\uc9c4\ub8cc\uc18c", "type": "hospital", "is_24h": false}, {"lat": 34.8169, "lon": 126.3803, "name": "\uc138\uc548\uc885\ud569\ubcd1\uc6d0", "type": "hospital", "is_24h": false}, {"lat": 34.9951, "lon": 126.708, "name": "\ub098\uc8fc\uc2dc\ubcf4\uac74\uc18c", "type": "hospital", "is_24h": false}, {"lat": 34.8088, "lon": 126.4322, "name": "\ubaa9\ud3ec\ubbf8\uc988\uc544\uc774\ubcd1\uc6d0", "type": "hospital", "is_24h": false}, {"lat": 34.5838, "lon": 126.6468, "name": "\ud574\ub0a8\uc6b0\ub9ac\ubcd1\uc6d0", "type": "hospital", "is_24h": false}]