[{"lat": 36.2073, "lon": 133.3238, "name": "2.0", "type": "police_station", "is_24h": true}, {"lat": 36.0965, "lon": 133.0985, "name": "5.0", "type": "police_station", "is_24h": true}, {"lat": 36.0783, "lon": 133.1104, "name": "5.0", "type": "police_station", "is_24h": true}, {"lat": 36.1105, "lon": 133.0412, "name": "5.0", "type": "police_station", "is_24h": true}, {"lat": 36.0139, "lon": 133.0392, "name": "5.0", "type": "police_station", "is_24h": true}, {"lat": 36.2889, "lon": 133.2284, "name": "5.0", "type": "police_station", "is_24h": true}, {"lat": 36.2327, "lon": 133.295, "name": "5.0", "type": "police_station", "is_24h": true}, {"lat": 36.3213, "lon": 133.3038, "name": "5.0", "type": "police_station", "is_24h": true}, {"lat": 36.1957, "lon": 133.2333, "name": "5.0", "type": "police_station", "is_24h": true}, {"lat": 36.2191, "lon": 133.3481, "name": "5.0", "type": "police_station", "is_24h": true}, {"lat": 36.1775, "lon": 133.3298, "name": "6.0", "type": "police_station", "is_24h": true}, {"lat": 36.2072, "lon": 133.3239, "name": "4.0", "type": "police_station", "is_24h": true}, {"lat": 36.1104, "lon": 133.0414, "name": "\u6d66\u90f7\u8b66\u5bdf\u7f72\u5225\u5e9c\u99d0\u5728\u6240", "type": "police_station", "is_24h": true}, {"lat": 36.0967, "lon": 133.0983, "name": "\u6d66\u90f7\u8b66\u5bdf\u7f72\u6d77\u58eb\u99d0\u5728\u6240", "type": "police_station", "is_24h": true}, {"lat": 36.0783, "lon": 133.1104, "name": "\u6d66\u90f7\u8b66\u5bdf\u7f72\u77e5\u3005\u4e95\u99d0\u5728\u6240", "type": "police_station", "is_24h": true}, {"lat": 36.2073, "lon": 133.3238, "name": "\u96a0\u5c90\u306e\u5cf6\u8b66\u5bdf\u7f72", "type": "police_station", "is_24h": true}, {"lat": 36.2327, "lon": 133.295, "name": "\u96a0\u5c90\u306e\u5cf6\u8b66\u5bdf\u7f72\u4e2d\u6761\u99d0\u5728\u6240", "type": "police_station", "is_24h": true}, {"lat": 36.3213, "lon": 133.3038, "name": "\u96a0\u5c90\u306e\u5cf6\u8b66\u5bdf\u7f72\u4e2d\u99d0\u5728\u6240", "type": "police_station", "is_24h": true}, {"lat": 36.2889, "lon": 133.2284, "name": "\u96a0\u5c90\u306e\u5cf6\u8b66\u5bdf\u7f72\u4e94\u7b87\u99d0\u5728\u6240", "type": "police_station", "is_24h": true}, {"lat": 36.2191, "lon": 133.3481, "name": "\u96a0\u5c90\u306e\u5cf6\u8b66\u5bdf\u7f72\u6771\u90f7\u99d0\u5728\u6240", "type": "police_station", "is_24h": true}, {"lat": 36.1999, "lon": 133.3066, "name": "\u96a0\u5c90\u306e\u5cf6\u8b66\u5bdf\u7f72\u78ef\u99d0\u5728\u6240", "type": "police_station", "is_24h": true}, {"lat": 36.1957, "lon": 133.2333, "name": "\u96a0\u5c90\u306e\u5cf6\u8b66\u5bdf\u7f72\u90fd\u4e07\u99d0\u5728\u6240", "type": "police_station", "is_24h": true}, {"lat": 36.1775, "lon": 133.3298, "name": "\u96a0\u5c90\u306e\u5cf6\u8b66\u5bdf\u7f72\u96a0\u5c90\u7a7a\u6e2f\u6d3e\u51fa\u6240", "type": "police_station", "is_24h": true}, {"lat": 36.0177, "lon": 133.0396, "name": "\u6d66\u90f7\u8b66\u5bdf\u7f72\u77e5\u592b\u99d0\u5728\u6240", "type": "police_station", "is_24h": true}, {"lat": 36.2073, "lon": 133.3238, "name": "\u96a0\u5c90\u306e\u5cf6\u8b66\u5bdf\u7f72", "type": "police_station", "is_24h": true}, {"lat": 36.2147, "lon": 133.3206, "name": "1.0", "type": "fire_station", "is_24h": true}, {"lat": 36.0964, "lon": 133.0965, "name": "3.0", "type": "fire_station", "is_24h": true}, {"lat": 36.0939, "lon": 133.0003, "name": "3.0", "type": "fire_station", "is_24h": true}, {"lat": 36.0163, "lon": 133.0409, "name": "3.0", "type": "fire_station", "is_24h": true}, {"lat": 36.2147, "lon": 133.3206, "name": "2.0", "type": "fire_station", "is_24h": true}, {"lat": 36.2842, "lon": 133.2502, "name": "\u6751\u6c11\u56fd\u6c11\u5065\u5eb7\u4fdd\u967a\u8a3a\u7642\u6240", "type": "hospital", "is_24h": false}, {"lat": 36.2161, "lon": 133.3184, "name": "\u96a0\u5c90\u5e83\u57df\u9023\u5408\u7acb\u96a0\u5c90\u75c5\u9662", "type": "hospital", "is_24h": false}, {"lat": 36.1063, "lon": 133.0365, "name": "\u96a0\u5c90\u5cf6\u524d\u75c5\u9662", "type": "hospital", "is_24h": false}, {"lat": 36.1028, "lon": 133.0764, "name": "\u307f\u3084\u3052\u306e\u5bb6 \u52c7\u6728\u5546\u5e97", "type": "convenience_store", "is_24h": true}, {"lat": 36.1023, "lon": 133.0766, "name": "\u308f\u304d\u305f\u306b", "type": "convenience_store", "is_24h": true}, {"lat": 36.1018, "lon": 133.0778, "name": "\u5ca1\u6751\u91e3\u5177\u9bae\u9b5a\u5e97", "type": "convenience_store", "is_24h": true}]