[{"lat": 36.9656, "lon": 137.8661, "name": "5.0", "type": "police_station", "is_24h": true}, {"lat": 36.9803, "lon": 137.6518, "name": "5.0", "type": "police_station", "is_24h": true}, {"lat": 36.6947, "lon": 137.2103, "name": "1.0", "type": "police_station", "is_24h": true}, {"lat": 36.5862, "lon": 137.1393, "name": "4.0", "type": "police_station", "is_24h": true}, {"lat": 36.6974, "lon": 137.2137, "name": "2.0", "type": "police_station", "is_24h": true}, {"lat": 36.6, "lon": 137.2031, "name": "2.0", "type": "police_station", "is_24h": true}, {"lat": 36.7463, "lon": 137.2285, "name": "2.0", "type": "police_station", "is_24h": true}, {"lat": 36.7535, "lon": 137.0213, "name": "2.0", "type": "police_station", "is_24h": true}, {"lat": 36.8178, "lon": 137.4104, "name": "2.0", "type": "police_station", "is_24h": true}, {"lat": 36.7567, "lon": 137.331, "name": "2.0", "type": "police_station", "is_24h": true}, {"lat": 36.8691, "lon": 137.454, "name": "2.0", "type": "police_station", "is_24h": true}, {"lat": 36.7193, "lon": 137.1066, "name": "2.0", "type": "police_station", "is_24h": true}, {"lat": 36.6981, "lon": 137.3556, "name": "2.0", "type": "police_station", "is_24h": true}, {"lat": 36.9392, "lon": 137.5129, "name": "2.0", "type": "police_station", "is_24h": true}, {"lat": 36.6631, "lon": 137.1662, "name": "4.0", "type": "police_station", "is_24h": true}, {"lat": 36.6872, "lon": 137.2037, "name": "4.0", "type": "police_station", "is_24h": true}, {"lat": 36.7072, "lon": 137.2218, "name": "4.0", "type": "police_station", "is_24h": true}, {"lat": 36.6565, "lon": 137.228, "name": "4.0", "type": "police_station", "is_24h": true}, {"lat": 36.701, "lon": 137.1892, "name": "4.0", "type": "police_station", "is_24h": true}, {"lat": 36.7144, "lon": 137.1622, "name": "4.0", "type": "police_station", "is_24h": true}, {"lat": 36.715, "lon": 137.2465, "name": "4.0", "type": "police_station", "is_24h": true}, {"lat": 36.6718, "lon": 137.2102, "name": "4.0", "type": "police_station", "is_24h": true}, {"lat": 36.6759, "lon": 137.2494, "name": "4.0", "type": "police_station", "is_24h": true}, {"lat": 36.6932, "lon": 137.2511, "name": "4.0", "type": "police_station", "is_24h": true}, {"lat": 36.6877, "lon": 137.236, "name": "4.0", "type": "police_station", "is_24h": true}, {"lat": 36.6893, "lon": 137.218, "name": "4.0", "type": "police_station", "is_24h": true}, {"lat": 36.6906, "lon": 137.2272, "name": "4.0", "type": "police_station", "is_24h": true}, {"lat": 36.7017, "lon": 137.2112, "name": "4.0", "type": "police_station", "is_24h": true}, {"lat": 36.6755, "lon": 137.2197, "name": "4.0", "type": "police_station", "is_24h": true}, {"lat": 36.643, "lon": 137.1935, "name": "4.0", "type": "police_station", "is_24h": true}, {"lat": 36.609, "lon": 137.3002, "name": "4.0", "type": "police_station", "is_24h": true}, {"lat": 36.6305, "lon": 137.233, "name": "4.0", "type": "police_station", "is_24h": true}, {"lat": 36.7504, "lon": 137.3081, "name": "4.0", "type": "police_station", "is_24h": true}, {"lat": 36.7595, "lon": 137.232, "name": "4.0", "type": "police_station", "is_24h": true}, {"lat": 36.7295, "lon": 137.2347, "name": "4.0", "type": "police_station", "is_24h": true}, {"lat": 36.7558, "lon": 137.1975, "name": "4.0", "type": "police_station", "is_24h": true}, {"lat": 36.7446, "lon": 137.0096, "name": "4.0", "type": "police_station", "is_24h": true}, {"lat": 36.7417, "lon": 137.0145, "name": "4.0", "type": "police_station", "is_24h": true}, {"lat": 36.7612, "lon": 137.0188, "name": "4.0", "type": "police_station", "is_24h": true}, {"lat": 36.7387, "lon": 137.0085, "name": "4.0", "type": "police_station", "is_24h": true}, {"lat": 36.6846, "lon": 137.0218, "name": "5.0", "type": "police_station", "is_24h": true}, {"lat": 36.7669, "lon": 137.0463, "name": "4.0", "type": "police_station", "is_24h": true}, {"lat": 36.7863, "lon": 137.0496, "name": "4.0", "type": "police_station", "is_24h": true}, {"lat": 36.7484, "lon": 137.0399, "name": "4.0", "type": "police_station", "is_24h": true}, {"lat": 36.826, "lon": 137.4059, "name": "4.0", "type": "police_station", "is_24h": true}, {"lat": 36.818, "lon": 137.3984, "name": "4.0", "type": "police_station", "is_24h": true}, {"lat": 36.8049, "lon": 137.4363, "name": "4.0", "type": "police_station", "is_24h": true}, {"lat": 36.7695, "lon": 137.3479, "name": "4.0", "type": "police_station", "is_24h": true}, {"lat": 36.8726, "lon": 137.4474, "name": "4.0", "type": "police_station", "is_24h": true}, {"lat": 36.8964, "lon": 137.4193, "name": "5.0", "type": "police_station", "is_24h": true}, {"lat": 36.7591, "lon": 137.138, "name": "4.0", "type": "police_station", "is_24h": true}, {"lat": 36.7205, "lon": 137.0919, "name": "4.0", "type": "police_station", "is_24h": true}, {"lat": 36.7556, "lon": 137.0845, "name": "4.0", "type": "police_station", "is_24h": true}, {"lat": 36.7743, "lon": 137.0815, "name": "4.0", "type": "police_station", "is_24h": true}, {"lat": 36.7053, "lon": 137.0887, "name": "4.0", "type": "police_station", "is_24h": true}, {"lat": 36.7237, "lon": 137.057, "name": "4.0", "type": "police_station", "is_24h": true}, {"lat": 36.7794, "lon": 137.0852, "name": "4.0", "type": "police_station", "is_24h": true}, {"lat": 36.7065, "lon": 137.3476, "name": "4.0", "type": "police_station", "is_24h": true}, {"lat": 36.6657, "lon": 137.3202, "name": "4.0", "type": "police_station", "is_24h": true}, {"lat": 36.9537, "lon": 137.5556, "name": "4.0", "type": "police_station", "is_24h": true}, {"lat": 36.5646, "lon": 137.1492, "name": "5.0", "type": "police_station", "is_24h": true}, {"lat": 36.6321, "lon": 137.0955, "name": "5.0", "type": "police_station", "is_24h": true}, {"lat": 36.6301, "lon": 137.169, "name": "5.0", "type": "police_station", "is_24h": true}, {"lat": 36.6574, "lon": 137.1274, "name": "5.0", "type": "police_station", "is_24h": true}, {"lat": 36.5875, "lon": 137.0814, "name": "5.0", "type": "police_station", "is_24h": true}, {"lat": 36.6369, "lon": 137.1321, "name": "5.0", "type": "police_station", "is_24h": true}, {"lat": 36.5305, "lon": 137.0984, "name": "5.0", "type": "police_station", "is_24h": true}, {"lat": 36.5465, "lon": 137.1252, "name": "5.0", "type": "police_station", "is_24h": true}, {"lat": 36.6517, "lon": 137.2557, "name": "5.0", "type": "police_station", "is_24h": true}, {"lat": 36.682, "lon": 137.1257, "name": "5.0", "type": "police_station", "is_24h": true}, {"lat": 36.5301, "lon": 137.2295, "name": "5.0", "type": "police_station", "is_24h": true}, {"lat": 36.5623, "lon": 137.2116, "name": "5.0", "type": "police_station", "is_24h": true}, {"lat": 36.5724, "lon": 137.3808, "name": "5.0", "type": "police_station", "is_24h": true}, {"lat": 36.7606, "lon": 137.2571, "name": "5.0", "type": "police_station", "is_24h": true}, {"lat": 36.7233, "lon": 137.3141, "name": "5.0", "type": "police_station", "is_24h": true}, {"lat": 36.7355, "lon": 137.2653, "name": "5.0", "type": "police_station", "is_24h": true}, {"lat": 36.7433, "lon": 137.2449, "name": "5.0", "type": "police_station", "is_24h": true}, {"lat": 36.7283, "lon": 137.2927, "name": "5.0", "type": "police_station", "is_24h": true}, {"lat": 36.758, "lon": 137.2778, "name": "5.0", "type": "police_station", "is_24h": true}, {"lat": 36.82, "lon": 137.0265, "name": "5.0", "type": "police_station", "is_24h": true}, {"lat": 36.7144, "lon": 137.0074, "name": "5.0", "type": "police_station", "is_24h": true}, {"lat": 36.8497, "lon": 137.4138, "name": "5.0", "type": "police_station", "is_24h": true}, {"lat": 36.916, "lon": 137.0087, "name": "5.0", "type": "police_station", "is_24h": true}, {"lat": 36.9411, "lon": 137.0279, "name": "5.0", "type": "police_station", "is_24h": true}, {"lat": 36.7773, "lon": 137.3807, "name": "5.0", "type": "police_station", "is_24h": true}, {"lat": 36.7396, "lon": 137.3725, "name": "5.0", "type": "police_station", "is_24h": true}, {"lat": 36.7704, "lon": 137.3714, "name": "5.0", "type": "police_station", "is_24h": true}, {"lat": 36.7545, "lon": 137.3898, "name": "5.0", "type": "police_station", "is_24h": true}, {"lat": 36.8704, "lon": 137.553, "name": "5.0", "type": "police_station", "is_24h": true}, {"lat": 36.8155, "lon": 137.5839, "name": "5.0", "type": "police_station", "is_24h": true}, {"lat": 36.8721, "lon": 137.4903, "name": "5.0", "type": "police_station", "is_24h": true}, {"lat": 36.8668, "lon": 137.4221, "name": "5.0", "type": "police_station", "is_24h": true}, {"lat": 36.9048, "lon": 137.4264, "name": "5.0", "type": "police_station", "is_24h": true}, {"lat": 36.887, "lon": 137.4459, "name": "5.0", "type": "police_station", "is_24h": true}, {"lat": 36.854, "lon": 137.4404, "name": "5.0", "type": "police_station", "is_24h": true}, {"lat": 36.8661, "lon": 137.524, "name": "5.0", "type": "police_station", "is_24h": true}, {"lat": 36.8355, "lon": 137.4833, "name": "5.0", "type": "police_station", "is_24h": true}, {"lat": 36.6306, "lon": 137.0113, "name": "5.0", "type": "police_station", "is_24h": true}, {"lat": 36.6418, "lon": 137.0248, "name": "5.0", "type": "police_station", "is_24h": true}, {"lat": 36.7403, "lon": 137.1458, "name": "5.0", "type": "police_station", "is_24h": true}, {"lat": 36.7325, "lon": 137.0619, "name": "5.0", "type": "police_station", "is_24h": true}, {"lat": 36.7043, "lon": 137.3073, "name": "5.0", "type": "police_station", "is_24h": true}, {"lat": 36.6674, "lon": 137.3845, "name": "5.0", "type": "police_station", "is_24h": true}, {"lat": 36.7132, "lon": 137.3788, "name": "5.0", "type": "police_station", "is_24h": true}, {"lat": 36.6282, "lon": 137.3227, "name": "5.0", "type": "police_station", "is_24h": true}, {"lat": 36.607, "lon": 137.3237, "name": "5.0", "type": "police_station", "is_24h": true}, {"lat": 36.6509, "lon": 137.3484, "name": "5.0", "type": "police_station", "is_24h": true}, {"lat": 36.6954, "lon": 137.3148, "name": "5.0", "type": "police_station", "is_24h": true}, {"lat": 36.5782, "lon": 137.3852, "name": "5.0", "type": "police_station", "is_24h": true}, {"lat": 36.9564, "lon": 137.5131, "name": "5.0", "type": "police_station", "is_24h": true}, {"lat": 36.8816, "lon": 137.5525, "name": "5.0", "type": "police_station", "is_24h": true}, {"lat": 36.899, "lon": 137.5214, "name": "5.0", "type": "police_station", "is_24h": true}, {"lat": 36.9229, "lon": 137.4815, "name": "5.0", "type": "police_station", "is_24h": true}, {"lat": 36.9222, "lon": 137.4592, "name": "5.0", "type": "police_station", "is_24h": true}, {"lat": 36.9123, "lon": 137.573, "name": "5.0", "type": "police_station", "is_24h": true}, {"lat": 36.9294, "lon": 137.5473, "name": "5.0", "type": "police_station", "is_24h": true}, {"lat": 36.6431, "lon": 137.1894, "name": "6.0", "type": "police_station", "is_24h": true}, {"lat": 36.5764, "lon": 137.597, "name": "6.0", "type": "police_station", "is_24h": true}, {"lat": 36.7095, "lon": 137.2693, "name": "7.0", "type": "police_station", "is_24h": true}, {"lat": 36.6705, "lon": 137.1687, "name": "2.0", "type": "police_station", "is_24h": true}, {"lat": 36.4584, "lon": 137.0273, "name": "5.0", "type": "police_station", "is_24h": true}, {"lat": 36.9711, "lon": 137.0535, "name": "5.0", "type": "police_station", "is_24h": true}, {"lat": 36.3637, "lon": 137.901, "name": "police_station", "type": "police_station", "is_24h": true}, {"lat": 36.6083, "lon": 137.8293, "name": "police_station", "type": "police_station", "is_24h": true}, {"lat": 36.2005, "lon": 137.8154, "name": "police_station", "type": "police_station", "is_24h": true}, {"lat": 36.1589, "lon": 137.9292, "name": "police_station", "type": "police_station", "is_24h": true}, {"lat": 36.0508, "lon": 137.8864, "name": "police_station", "type": "police_station", "is_24h": true}, {"lat": 36.1461, "lon": 137.2512, "name": "2.0", "type": "police_station", "is_24h": true}, {"lat": 36.2347, "lon": 137.1793, "name": "2.0", "type": "police_station", "is_24h": true}, {"lat": 36.1429, "lon": 137.2584, "name": "4.0", "type": "police_station", "is_24h": true}, {"lat": 36.1413, "lon": 137.2513, "name": "4.0", "type": "police_station", "is_24h": true}, {"lat": 36.2496, "lon": 137.4974, "name": "4.0", "type": "police_station", "is_24h": true}, {"lat": 36.0499, "lon": 137.2731, "name": "4.0", "type": "police_station", "is_24h": true}, {"lat": 36.1164, "lon": 137.2638, "name": "4.0", "type": "police_station", "is_24h": true}, {"lat": 36.323, "lon": 137.3091, "name": "4.0", "type": "police_station", "is_24h": true}, {"lat": 36.085, "lon": 137.249, "name": "5.0", "type": "police_station", "is_24h": true}, {"lat": 36.0369, "lon": 137.4838, "name": "5.0", "type": "police_station", "is_24h": true}, {"lat": 36.2129, "lon": 137.2099, "name": "5.0", "type": "police_station", "is_24h": true}, {"lat": 36.1809, "lon": 137.2467, "name": "5.0", "type": "police_station", "is_24h": true}, {"lat": 36.2824, "lon": 137.3637, "name": "5.0", "type": "police_station", "is_24h": true}, {"lat": 36.1304, "lon": 137.1908, "name": "5.0", "type": "police_station", "is_24h": true}, {"lat": 36.1505, "lon": 137.2834, "name": "5.0", "type": "police_station", "is_24h": true}, {"lat": 36.1693, "lon": 137.3222, "name": "5.0", "type": "police_station", "is_24h": true}, {"lat": 36.0888, "lon": 137.349, "name": "5.0", "type": "police_station", "is_24h": true}, {"lat": 36.1417, "lon": 137.2254, "name": "5.0", "type": "police_station", "is_24h": true}, {"lat": 36.3044, "lon": 137.1047, "name": "5.0", "type": "police_station", "is_24h": true}, {"lat": 36.3283, "lon": 137.1435, "name": "5.0", "type": "police_station", "is_24h": true}, {"lat": 36.3033, "lon": 137.2516, "name": "5.0", "type": "police_station", "is_24h": true}, {"lat": 36.2624, "lon": 137.1383, "name": "5.0", "type": "police_station", "is_24h": true}, {"lat": 36.4332, "lon": 137.2781, "name": "5.0", "type": "police_station", "is_24h": true}, {"lat": 36.2836, "lon": 137.5749, "name": "6.0", "type": "police_station", "is_24h": true}, {"lat": 36.1905, "lon": 137.5525, "name": "6.0", "type": "police_station", "is_24h": true}, {"lat": 36.2347, "lon": 137.1793, "name": "4.0", "type": "police_station", "is_24h": true}, {"lat": 36.1535, "lon": 137.2568, "name": "\u98db\u9a28\u904b\u8ee2\u8005\u8b1b\u7fd2\u30bb\u30f3\u30bf\u30fc", "type": "police_station", "is_24h": true}, {"lat": 36.6981, "lon": 137.3556, "name": "\u4e0a\u5e02\u8b66\u5bdf\u7f72", "type": "police_station", "is_24h": true}, {"lat": 36.7065, "lon": 137.3476, "name": "\u4e0a\u5e02\u8b66\u5bdf\u7f72\u4e0a\u5e02\u753a\u4ea4\u756a", "type": "koban", "is_24h": true}, {"lat": 36.6509, "lon": 137.3484, "name": "\u4e0a\u5e02\u8b66\u5bdf\u7f72\u4e0a\u6bb5\u99d0\u5728\u6240", "type": "police_station", "is_24h": true}, {"lat": 36.5813, "lon": 137.392, "name": "\u4e0a\u5e02\u8b66\u5bdf\u7f72\u5271\u6ca2\u8b66\u5099\u6d3e\u51fa\u6240", "type": "police_station", "is_24h": true}, {"lat": 36.7131, "lon": 137.379, "name": "\u4e0a\u5e02\u8b66\u5bdf\u7f72\u5357\u52a0\u7a4d\u99d0\u5728\u6240", "type": "police_station", "is_24h": true}, {"lat": 36.6674, "lon": 137.3845, "name": "\u4e0a\u5e02\u8b66\u5bdf\u7f72\u5927\u5ca9\u99d0\u5728\u6240", "type": "police_station", "is_24h": true}, {"lat": 36.6068, "lon": 137.3241, "name": "\u4e0a\u5e02\u8b66\u5bdf\u7f72\u5ca9\u5cc5\u99d0\u5728\u6240", "type": "police_station", "is_24h": true}, {"lat": 36.6954, "lon": 137.3148, "name": "\u4e0a\u5e02\u8b66\u5bdf\u7f72\u65b0\u5ddd\u99d0\u5728\u6240", "type": "police_station", "is_24h": true}, {"lat": 36.5782, "lon": 137.3852, "name": "\u4e0a\u5e02\u8b66\u5bdf\u7f72\u7acb\u5c71\u516c\u5712\u53e3\u99d0\u5728\u6240", "type": "police_station", "is_24h": true}, {"lat": 36.6657, "lon": 137.3202, "name": "\u4e0a\u5e02\u8b66\u5bdf\u7f72\u7acb\u5c71\u753a\u4ea4\u756a", "type": "koban", "is_24h": true}, {"lat": 36.7042, "lon": 137.3073, "name": "\u4e0a\u5e02\u8b66\u5bdf\u7f72\u821f\u6a4b\u6751\u99d0\u5728\u6240", "type": "police_station", "is_24h": true}, {"lat": 36.6282, "lon": 137.3227, "name": "\u4e0a\u5e02\u8b66\u5bdf\u7f72\u91dc\u30f6\u6e15\u99d0\u5728\u6240", "type": "police_station", "is_24h": true}, {"lat": 36.6469, "lon": 137.5544, "name": "\u4e0a\u5e02\u8b66\u5bdf\u7f72\u99ac\u5834\u5cf6\u8b66\u5099\u6d3e\u51fa\u6240", "type": "police_station", "is_24h": true}, {"lat": 36.9295, "lon": 137.5472, "name": "\u5165\u5584\u8b66\u5bdf\u7f72\u5927\u5bb6\u5e84\u99d0\u5728\u6240", "type": "police_station", "is_24h": true}, {"lat": 36.9123, "lon": 137.573, "name": "\u5165\u5584\u8b66\u5bdf\u7f72\u5c71\u5d0e\u99d0\u5728\u6240", "type": "police_station", "is_24h": true}, {"lat": 36.8988, "lon": 137.5213, "name": "\u5165\u5584\u8b66\u5bdf\u7f72\u65b0\u5c4b\u99d0\u5728\u6240", "type": "police_station", "is_24h": true}, {"lat": 36.9537, "lon": 137.5556, "name": "\u5165\u5584\u8b66\u5bdf\u7f72\u671d\u65e5\u753a\u4ea4\u756a", "type": "koban", "is_24h": true}, {"lat": 36.9563, "lon": 137.5132, "name": "\u5165\u5584\u8b66\u5bdf\u7f72\u6a2a\u5c71\u99d0\u5728\u6240", "type": "police_station", "is_24h": true}, {"lat": 36.8816, "lon": 137.5525, "name": "\u5165\u5584\u8b66\u5bdf\u7f72\u821f\u898b\u99d0\u5728\u6240", "type": "police_station", "is_24h": true}, {"lat": 36.9229, "lon": 137.4814, "name": "\u5165\u5584\u8b66\u5bdf\u7f72\u9752\u6728\u99d0\u5728\u6240", "type": "police_station", "is_24h": true}, {"lat": 36.9223, "lon": 137.4593, "name": "\u5165\u5584\u8b66\u5bdf\u7f72\u98ef\u91ce\u99d0\u5728\u6240", "type": "police_station", "is_24h": true}, {"lat": 36.5862, "lon": 137.1393, "name": "\u516b\u5c3e\u8b66\u5bdf\u7f72", "type": "police_station", "is_24h": true}, {"lat": 36.5305, "lon": 137.0984, "name": "\u516b\u5c3e\u8b66\u5bdf\u7f72\u4ec1\u6b69\u99d0\u5728\u6240", "type": "police_station", "is_24h": true}, {"lat": 36.5646, "lon": 137.1492, "name": "\u516b\u5c3e\u8b66\u5bdf\u7f72\u536f\u82b1\u99d0\u5728\u6240", "type": "police_station", "is_24h": true}, {"lat": 36.6575, "lon": 137.1274, "name": "\u516b\u5c3e\u8b66\u5bdf\u7f72\u53e4\u91cc\u99d0\u5728\u6240", "type": "police_station", "is_24h": true}, {"lat": 36.6631, "lon": 137.1663, "name": "\u5bcc\u5c71\u897f\u8b66\u5bdf\u7f72\u5a66\u4e2d\u4ea4\u756a", "type": "koban", "is_24h": true}, {"lat": 36.6301, "lon": 137.169, "name": "\u516b\u5c3e\u8b66\u5bdf\u7f72\u5bae\u91ce\u99d0\u5728\u6240", "type": "police_station", "is_24h": true}, {"lat": 36.5875, "lon": 137.0814, "name": "\u516b\u5c3e\u8b66\u5bdf\u7f72\u5c71\u7530\u99d0\u5728\u6240", "type": "police_station", "is_24h": true}, {"lat": 36.6369, "lon": 137.1321, "name": "\u516b\u5c3e\u8b66\u5bdf\u7f72\u795e\u4fdd\u99d0\u5728\u6240", "type": "police_station", "is_24h": true}, {"lat": 36.5465, "lon": 137.1252, "name": "\u516b\u5c3e\u8b66\u5bdf\u7f72\u91ce\u7a4d\u99d0\u5728\u6240", "type": "police_station", "is_24h": true}, {"lat": 36.6319, "lon": 137.0952, "name": "\u516b\u5c3e\u8b66\u5bdf\u7f72\u97f3\u5ddd\u99d0\u5728\u6240", "type": "police_station", "is_24h": true}, {"lat": 36.7143, "lon": 137.1622, "name": "\u5bcc\u5c71\u4e2d\u592e\u8b66\u5bdf\u7f72\u5449\u7fbd\u4ea4\u756a", "type": "koban", "is_24h": true}, {"lat": 36.6526, "lon": 137.2541, "name": "\u5bcc\u5c71\u4e2d\u592e\u8b66\u5bdf\u7f72\u592a\u7530\u99d0\u5728\u6240", "type": "police_station", "is_24h": true}, {"lat": 36.7072, "lon": 137.2218, "name": "\u5bcc\u5c71\u4e2d\u592e\u8b66\u5bdf\u7f72\u5965\u7530\u4ea4\u756a", "type": "koban", "is_24h": true}, {"lat": 36.7018, "lon": 137.2121, "name": "\u5bcc\u5c71\u4e2d\u592e\u8b66\u5bdf\u7f72\u5bcc\u5c71\u99c5\u524d\u4ea4\u756a", "type": "koban", "is_24h": true}, {"lat": 36.715, "lon": 137.2464, "name": "\u5bcc\u5c71\u4e2d\u592e\u8b66\u5bdf\u7f72\u5e83\u7530\u4ea4\u756a", "type": "koban", "is_24h": true}, {"lat": 36.6931, "lon": 137.2511, "name": "\u5bcc\u5c71\u4e2d\u592e\u8b66\u5bdf\u7f72\u65b0\u5e84\u4ea4\u756a", "type": "koban", "is_24h": true}, {"lat": 36.6906, "lon": 137.2272, "name": "\u5bcc\u5c71\u4e2d\u592e\u8b66\u5bdf\u7f72\u6771\u753a\u4ea4\u756a", "type": "koban", "is_24h": true}, {"lat": 36.682, "lon": 137.1256, "name": "\u5bcc\u5c71\u4e2d\u592e\u8b66\u5bdf\u7f72\u6c60\u591a\u99d0\u5728\u6240", "type": "police_station", "is_24h": true}, {"lat": 36.7233, "lon": 137.314, "name": "\u5bcc\u5c71\u5317\u8b66\u5bdf\u7f72\u4e0a\u6761\u99d0\u5728\u6240", "type": "police_station", "is_24h": true}, {"lat": 36.7595, "lon": 137.232, "name": "\u5bcc\u5c71\u5317\u8b66\u5bdf\u7f72\u5bcc\u5c71\u6e2f\u4ea4\u756a", "type": "koban", "is_24h": true}, {"lat": 36.7432, "lon": 137.2448, "name": "\u5bcc\u5c71\u5317\u8b66\u5bdf\u7f72\u6771\u5bcc\u5c71\u99d0\u5728\u6240", "type": "police_station", "is_24h": true}, {"lat": 36.7283, "lon": 137.2928, "name": "\u5bcc\u5c71\u5317\u8b66\u5bdf\u7f72\u7f8e\u90f7\u99d0\u5728\u6240", "type": "police_station", "is_24h": true}, {"lat": 36.7355, "lon": 137.2653, "name": "\u5bcc\u5c71\u5317\u8b66\u5bdf\u7f72\u91dd\u539f\u99d0\u5728\u6240", "type": "police_station", "is_24h": true}, {"lat": 36.609, "lon": 137.3008, "name": "\u5bcc\u5c71\u5357\u8b66\u5bdf\u7f72\u5927\u5c71\u4ea4\u756a", "type": "koban", "is_24h": true}, {"lat": 36.6305, "lon": 137.233, "name": "\u5bcc\u5c71\u5357\u8b66\u5bdf\u7f72\u5bcc\u5357\u4ea4\u756a", "type": "koban", "is_24h": true}, {"lat": 36.6431, "lon": 137.1894, "name": "\u5bcc\u5c71\u5357\u8b66\u5bdf\u7f72\u5bcc\u5c71\u7a7a\u6e2f\u8b66\u5099\u6d3e\u51fa\u6240", "type": "police_station", "is_24h": true}, {"lat": 36.5724, "lon": 137.3807, "name": "\u5bcc\u5c71\u5357\u8b66\u5bdf\u7f72\u5c0f\u898b\u99d0\u5728\u6240", "type": "police_station", "is_24h": true}, {"lat": 36.6431, "lon": 137.1936, "name": "\u5bcc\u5c71\u5357\u8b66\u5bdf\u7f72\u7a7a\u6e2f\u524d\u4ea4\u756a", "type": "koban", "is_24h": true}, {"lat": 36.5623, "lon": 137.2116, "name": "\u5bcc\u5c71\u5357\u8b66\u5bdf\u7f72\u7b39\u6d25\u99d0\u5728\u6240", "type": "police_station", "is_24h": true}, {"lat": 36.5301, "lon": 137.2295, "name": "\u5bcc\u5c71\u5357\u8b66\u5bdf\u7f72\u7d30\u5165\u99d0\u5728\u6240", "type": "police_station", "is_24h": true}, {"lat": 36.6947, "lon": 137.2103, "name": "\u5bcc\u5c71\u770c\u8b66\u5bdf\u672c\u90e8 (Toyama Prefectural Po", "type": "police_station", "is_24h": true}, {"lat": 36.7403, "lon": 137.1458, "name": "\u5c04\u6c34\u8b66\u5bdf\u7f72\u4e0b\u99d0\u5728\u6240", "type": "police_station", "is_24h": true}, {"lat": 36.7325, "lon": 137.0619, "name": "\u5c04\u6c34\u8b66\u5bdf\u7f72\u5927\u5cf6\u99d0\u5728\u6240", "type": "police_station", "is_24h": true}, {"lat": 36.7237, "lon": 137.057, "name": "\u5c04\u6c34\u8b66\u5bdf\u7f72\u5927\u9580\u4ea4\u756a", "type": "koban", "is_24h": true}, {"lat": 36.7053, "lon": 137.0887, "name": "\u5c04\u6c34\u8b66\u5bdf\u7f72\u592a\u95a4\u5c71\u4ea4\u756a", "type": "koban", "is_24h": true}, {"lat": 36.7794, "lon": 137.0852, "name": "\u5c04\u6c34\u8b66\u5bdf\u7f72\u5948\u5449\u306e\u6d66\u4ea4\u756a", "type": "koban", "is_24h": true}, {"lat": 36.7591, "lon": 137.138, "name": "\u5c04\u6c34\u8b66\u5bdf\u7f72\u5c04\u5317\u4ea4\u756a", "type": "koban", "is_24h": true}, {"lat": 36.7207, "lon": 137.0919, "name": "\u5c04\u6c34\u8b66\u5bdf\u7f72\u5c0f\u6749\u99c5\u307f\u306a\u307f\u4ea4\u756a", "type": "koban", "is_24h": true}, {"lat": 36.7558, "lon": 137.0845, "name": "\u5c04\u6c34\u8b66\u5bdf\u7f72\u65b0\u5357\u4ea4\u756a", "type": "koban", "is_24h": true}, {"lat": 36.7743, "lon": 137.0815, "name": "\u5c04\u6c34\u8b66\u5bdf\u7f72\u65b0\u6e4a\u5e79\u90e8\u4ea4\u756a", "type": "koban", "is_24h": true}, {"lat": 36.9411, "lon": 137.0279, "name": "\u6c37\u898b\u8b66\u5bdf\u7f72\u5973\u826f\u99d0\u5728\u6240", "type": "police_station", "is_24h": true}, {"lat": 36.9161, "lon": 137.0085, "name": "\u6c37\u898b\u8b66\u5bdf\u7f72\u5b87\u6ce2\u99d0\u5728\u6240", "type": "police_station", "is_24h": true}, {"lat": 36.7567, "lon": 137.331, "name": "\u6ed1\u5ddd\u8b66\u5bdf\u7f72", "type": "police_station", "is_24h": true}, {"lat": 36.7396, "lon": 137.3725, "name": "\u6ed1\u5ddd\u8b66\u5bdf\u7f72\u4e2d\u52a0\u7a4d\u99d0\u5728\u6240", "type": "police_station", "is_24h": true}, {"lat": 36.7545, "lon": 137.3898, "name": "\u6ed1\u5ddd\u8b66\u5bdf\u7f72\u5317\u52a0\u7a4d\u99d0\u5728\u6240", "type": "police_station", "is_24h": true}, {"lat": 36.7773, "lon": 137.3807, "name": "\u6ed1\u5ddd\u8b66\u5bdf\u7f72\u65e9\u6708\u52a0\u7a4d\u99d0\u5728\u6240", "type": "police_station", "is_24h": true}, {"lat": 36.7704, "lon": 137.3714, "name": "\u6ed1\u5ddd\u8b66\u5bdf\u7f72\u6d5c\u52a0\u7a4d\u99d0\u5728\u6240", "type": "police_station", "is_24h": true}, {"lat": 36.769, "lon": 137.3479, "name": "\u6ed1\u5ddd\u8b66\u5bdf\u7f72\u6ed1\u5ddd\u99c5\u524d\u4ea4\u756a", "type": "koban", "is_24h": true}, {"lat": 36.6305, "lon": 137.0113, "name": "\u783a\u6ce2\u8b66\u5bdf\u7f72\u5e84\u6771\u99d0\u5728\u6240", "type": "police_station", "is_24h": true}, {"lat": 36.6418, "lon": 137.0248, "name": "\u783a\u6ce2\u8b66\u5bdf\u7f72\u6834\u6a80\u91ce\u99d0\u5728\u6240", "type": "police_station", "is_24h": true}, {"lat": 36.7535, "lon": 137.0213, "name": "\u9ad8\u5ca1\u8b66\u5bdf\u7f72", "type": "police_station", "is_24h": true}, {"lat": 36.6846, "lon": 137.0218, "name": "\u9ad8\u5ca1\u8b66\u5bdf\u7f72\u4e2d\u7530\u4ea4\u756a", "type": "koban", "is_24h": true}, {"lat": 36.7144, "lon": 137.0074, "name": "\u9ad8\u5ca1\u8b66\u5bdf\u7f72\u4e8c\u585a\u99d0\u5728\u6240", "type": "police_station", "is_24h": true}, {"lat": 36.786, "lon": 137.0496, "name": "\u9ad8\u5ca1\u8b66\u5bdf\u7f72\u4f0f\u6728\u5e79\u90e8\u4ea4\u756a", "type": "koban", "is_24h": true}, {"lat": 36.7942, "lon": 137.0627, "name": "\u9ad8\u5ca1\u8b66\u5bdf\u7f72\u4f0f\u6728\u6e2f\u8b66\u5099\u6d3e\u51fa\u6240", "type": "police_station", "is_24h": true}, {"lat": 36.8199, "lon": 137.0267, "name": "\u9ad8\u5ca1\u8b66\u5bdf\u7f72\u592a\u7530\u99d0\u5728\u6240", "type": "police_station", "is_24h": true}, {"lat": 36.7446, "lon": 137.0096, "name": "\u9ad8\u5ca1\u8b66\u5bdf\u7f72\u5fa1\u99ac\u51fa\u4ea4\u756a", "type": "koban", "is_24h": true}, {"lat": 36.7612, "lon": 137.0188, "name": "\u9ad8\u5ca1\u8b66\u5bdf\u7f72\u5fd7\u8cb4\u91ce\u4ea4\u756a", "type": "koban", "is_24h": true}, {"lat": 36.7387, "lon": 137.0085, "name": "\u9ad8\u5ca1\u8b66\u5bdf\u7f72\u6e05\u6c34\u4ea4\u756a", "type": "koban", "is_24h": true}, {"lat": 36.7669, "lon": 137.0463, "name": "\u9ad8\u5ca1\u8b66\u5bdf\u7f72\u80fd\u753a\u4ea4\u756a", "type": "koban", "is_24h": true}, {"lat": 36.7484, "lon": 137.0399, "name": "\u9ad8\u5ca1\u8b66\u5bdf\u7f72\u91ce\u6751\u4ea4\u756a", "type": "koban", "is_24h": true}, {"lat": 36.7414, "lon": 137.0154, "name": "\u9ad8\u5ca1\u8b66\u5bdf\u7f72\u9ad8\u5ca1\u99c5\u524d\u4ea4\u756a", "type": "koban", "is_24h": true}, {"lat": 36.8178, "lon": 137.4104, "name": "\u9b5a\u6d25\u8b66\u5bdf\u7f72", "type": "police_station", "is_24h": true}, {"lat": 36.8184, "lon": 137.3985, "name": "\u9b5a\u6d25\u8b66\u5bdf\u7f72\u4e2d\u592e\u4ea4\u756a", "type": "koban", "is_24h": true}, {"lat": 36.8058, "lon": 137.4361, "name": "\u9b5a\u6d25\u8b66\u5bdf\u7f72\u6843\u5c71\u516c\u5712\u524d\u4ea4\u756a", "type": "koban", "is_24h": true}, {"lat": 36.8497, "lon": 137.4138, "name": "\u9b5a\u6d25\u8b66\u5bdf\u7f72\u7d4c\u7530\u99d0\u5728\u6240", "type": "police_station", "is_24h": true}, {"lat": 36.8691, "lon": 137.454, "name": "\u9ed2\u90e8\u8b66\u5bdf\u7f72", "type": "police_station", "is_24h": true}, {"lat": 36.8726, "lon": 137.4474, "name": "\u9ed2\u90e8\u8b66\u5bdf\u7f72\u4e09\u65e5\u5e02\u4ea4\u756a", "type": "koban", "is_24h": true}, {"lat": 36.887, "lon": 137.4459, "name": "\u9ed2\u90e8\u8b66\u5bdf\u7f72\u5927\u5e03\u65bd\u99d0\u5728\u6240", "type": "police_station", "is_24h": true}, {"lat": 36.8156, "lon": 137.5835, "name": "\u9ed2\u90e8\u8b66\u5bdf\u7f72\u5b87\u5948\u6708\u6e29\u6cc9\u99d0\u5728\u6240", "type": "police_station", "is_24h": true}, {"lat": 36.8704, "lon": 137.553, "name": "\u9ed2\u90e8\u8b66\u5bdf\u7f72\u611b\u672c\u99d0\u5728\u6240", "type": "police_station", "is_24h": true}, {"lat": 36.9048, "lon": 137.4263, "name": "\u9ed2\u90e8\u8b66\u5bdf\u7f72\u6751\u693f\u99d0\u5728\u6240", "type": "police_station", "is_24h": true}, {"lat": 36.8624, "lon": 137.5266, "name": "\u9ed2\u90e8\u8b66\u5bdf\u7f72\u6771\u5c71\u99d0\u5728\u6240", "type": "police_station", "is_24h": true}, {"lat": 36.8355, "lon": 137.4833, "name": "\u9ed2\u90e8\u8b66\u5bdf\u7f72\u6771\u5e03\u65bd\u99d0\u5728\u6240", "type": "police_station", "is_24h": true}, {"lat": 36.8964, "lon": 137.4193, "name": "\u9ed2\u90e8\u8b66\u5bdf\u7f72\u751f\u5730\u4ea4\u756a", "type": "koban", "is_24h": true}, {"lat": 36.854, "lon": 137.4404, "name": "\u9ed2\u90e8\u8b66\u5bdf\u7f72\u7530\u5bb6\u99d0\u5728\u6240", "type": "police_station", "is_24h": true}, {"lat": 36.8668, "lon": 137.4221, "name": "\u9ed2\u90e8\u8b66\u5bdf\u7f72\u77f3\u7530\u99d0\u5728\u6240", "type": "police_station", "is_24h": true}, {"lat": 36.8721, "lon": 137.4903, "name": "\u9ed2\u90e8\u8b66\u5bdf\u7f72\u82e5\u6817\u99d0\u5728\u6240", "type": "police_station", "is_24h": true}, {"lat": 36.9821, "lon": 137.0472, "name": "\u4e03\u5c3e\u8b66\u5bdf\u7f72\u82b1\u5712\u99d0\u5728\u6240", "type": "police_station", "is_24h": true}, {"lat": 36.1538, "lon": 137.2572, "name": "\u9ad8\u5c71\u8b66\u5bdf\u7f72", "type": "police_station", "is_24h": true}, {"lat": 36.2347, "lon": 137.1793, "name": "\u98db\u9a28\u8b66\u5bdf\u7f72", "type": "police_station", "is_24h": true}, {"lat": 36.3283, "lon": 137.1435, "name": "\u98db\u9a28\u8b66\u5bdf\u7f72\u5bae\u5ddd\u99d0\u5728\u6240", "type": "police_station", "is_24h": true}, {"lat": 36.3033, "lon": 137.2516, "name": "\u98db\u9a28\u8b66\u5bdf\u7f72\u5c71\u7530\u99d0\u5728\u6240", "type": "police_station", "is_24h": true}, {"lat": 36.3047, "lon": 137.1036, "name": "\u98db\u9a28\u8b66\u5bdf\u7f72\u6cb3\u5408\u99d0\u5728\u6240", "type": "police_station", "is_24h": true}, {"lat": 36.323, "lon": 137.3091, "name": "\u98db\u9a28\u8b66\u5bdf\u7f72\u795e\u5ca1\u8b66\u90e8\u4ea4\u756a", "type": "koban", "is_24h": true}, {"lat": 36.2624, "lon": 137.1383, "name": "\u98db\u9a28\u8b66\u5bdf\u7f72\u9df9\u72e9\u99d0\u5728\u6240", "type": "police_station", "is_24h": true}, {"lat": 36.2824, "lon": 137.3637, "name": "\u9ad8\u5c71\u8b66\u5bdf\u7f72\u4e0a\u5b9d\u99d0\u5728\u6240", "type": "police_station", "is_24h": true}, {"lat": 36.1809, "lon": 137.2467, "name": "\u9ad8\u5c71\u8b66\u5bdf\u7f72\u4e0a\u679d\u99d0\u5728\u6240", "type": "police_station", "is_24h": true}, {"lat": 36.1693, "lon": 137.3222, "name": "\u9ad8\u5c71\u8b66\u5bdf\u7f72\u4e39\u751f\u5ddd\u99d0\u5728\u6240", "type": "police_station", "is_24h": true}, {"lat": 36.05, "lon": 137.2729, "name": "\u9ad8\u5c71\u8b66\u5bdf\u7f72\u4e45\u3005\u91ce\u8b66\u90e8\u88dc\u4ea4\u756a", "type": "koban", "is_24h": true}, {"lat": 36.2129, "lon": 137.2099, "name": "\u9ad8\u5c71\u8b66\u5bdf\u7f72\u56fd\u5e9c\u99d0\u5728\u6240", "type": "police_station", "is_24h": true}, {"lat": 36.1505, "lon": 137.2834, "name": "\u9ad8\u5c71\u8b66\u5bdf\u7f72\u5927\u516b\u8cc0\u99d0\u5728\u6240", "type": "police_station", "is_24h": true}, {"lat": 36.2496, "lon": 137.4974, "name": "\u9ad8\u5c71\u8b66\u5bdf\u7f72\u5965\u98db\u9a28\u4ea4\u756a", "type": "koban", "is_24h": true}, {"lat": 36.1429, "lon": 137.2584, "name": "\u9ad8\u5c71\u8b66\u5bdf\u7f72\u5b89\u5ddd\u4ea4\u756a", "type": "koban", "is_24h": true}, {"lat": 36.0849, "lon": 137.2493, "name": "\u9ad8\u5c71\u8b66\u5bdf\u7f72\u5bae\u99d0\u5728\u6240", "type": "police_station", "is_24h": true}, {"lat": 36.0888, "lon": 137.349, "name": "\u9ad8\u5c71\u8b66\u5bdf\u7f72\u671d\u65e5\u99d0\u5728\u6240", "type": "police_station", "is_24h": true}, {"lat": 36.1304, "lon": 137.1908, "name": "\u9ad8\u5c71\u8b66\u5bdf\u7f72\u6e05\u898b\u99d0\u5728\u6240", "type": "police_station", "is_24h": true}, {"lat": 36.1164, "lon": 137.2638, "name": "\u9ad8\u5c71\u8b66\u5bdf\u7f72\u77f3\u6d66\u4ea4\u756a", "type": "koban", "is_24h": true}, {"lat": 36.1417, "lon": 137.2254, "name": "\u9ad8\u5c71\u8b66\u5bdf\u7f72\u7dd1\u30f6\u4e18\u99d0\u5728\u6240", "type": "police_station", "is_24h": true}, {"lat": 36.1413, "lon": 137.2513, "name": "\u9ad8\u5c71\u8b66\u5bdf\u7f72\u99c5\u524d\u4ea4\u756a", "type": "koban", "is_24h": true}, {"lat": 36.0369, "lon": 137.4838, "name": "\u9ad8\u5c71\u8b66\u5bdf\u7f72\u9ad8\u6839\u99d0\u5728\u6240", "type": "police_station", "is_24h": true}, {"lat": 36.2345, "lon": 137.9697, "name": "\u5927\u624b \u4ea4\u756a", "type": "koban", "is_24h": true}, {"lat": 36.1521, "lon": 137.9508, "name": "\u5e83\u4e18\u4ea4\u756a", "type": "koban", "is_24h": true}, {"lat": 36.1434, "lon": 137.9765, "name": "\u5869\u5c3b\u8b66\u5bdf\u7f72\u7247\u4e18\u8b66\u5bdf\u5b98\u99d0\u5728\u6240", "type": "police_station", "is_24h": true}, {"lat": 36.1649, "lon": 137.9265, "name": "\u677e\u672c\u7a7a\u6e2f\u8b66\u5099\u6d3e\u51fa\u6240", "type": "police_station", "is_24h": true}, {"lat": 36.2063, "lon": 137.8713, "name": "\u677e\u672c\u8b66\u5bdf\u7f72 \u6ce2\u7530\u4ea4\u756a", "type": "koban", "is_24h": true}, {"lat": 36.6705, "lon": 137.1688, "name": "\u5bcc\u5c71\u897f\u8b66\u5bdf\u7f72", "type": "police_station", "is_24h": true}, {"lat": 36.7558, "lon": 137.1974, "name": "\u5bcc\u5c71\u5317\u8b66\u5bdf\u7f72\u548c\u5408\u4ea4\u756a", "type": "koban", "is_24h": true}, {"lat": 36.4253, "lon": 137.8569, "name": "\u5927\u753a\u8b66\u5bdf\u7f72\u677e\u5ddd\u6751\u8b66\u5bdf\u5b98\u99d0\u5728\u6240", "type": "police_station", "is_24h": true}, {"lat": 36.1147, "lon": 137.9487, "name": "\u5869\u5c3b\u99c5\u524d\u4ea4\u756a", "type": "koban", "is_24h": true}, {"lat": 36.2482, "lon": 137.9766, "name": "\u5317\u90e8\u4ea4\u756a", "type": "koban", "is_24h": true}, {"lat": 36.506, "lon": 137.9872, "name": "\u5927\u5ca1\u99d0\u5728\u6240", "type": "police_station", "is_24h": true}, {"lat": 36.7301, "lon": 137.2342, "name": "\u5bcc\u5c71\u5317\u8b66\u5bdf\u7f72\u8c4a\u7530\u4ea4\u756a", "type": "koban", "is_24h": true}, {"lat": 36.6754, "lon": 137.2197, "name": "police_station", "type": "police_station", "is_24h": true}, {"lat": 36.4997, "lon": 137.8607, "name": "\u4fe1\u6fc3\u5927\u753a\u99c5\u524d\u4ea4\u756a", "type": "koban", "is_24h": true}, {"lat": 36.8179, "lon": 137.41, "name": "\u9b5a\u6d25\u8b66\u5bdf\u7f72", "type": "police_station", "is_24h": true}, {"lat": 36.7783, "lon": 137.909, "name": "police_station", "type": "police_station", "is_24h": true}, {"lat": 36.7008, "lon": 137.1891, "name": "\u5bcc\u5c71\u4e2d\u592e\u8b66\u5bdf\u7f72\u4e94\u798f\u4ea4\u756a", "type": "koban", "is_24h": true}, {"lat": 36.6948, "lon": 137.2104, "name": "\u5bcc\u5c71\u770c\u8b66\u5bdf\u672c\u90e8 (Toyama Prefectural Po", "type": "police_station", "is_24h": true}, {"lat": 36.6894, "lon": 137.2179, "name": "\u5bcc\u5c71\u4e2d\u592e\u8b66\u5bdf\u7f72\u4e2d\u592e\u901a\u308a\u4ea4\u756a", "type": "koban", "is_24h": true}, {"lat": 36.6872, "lon": 137.2037, "name": "\u5bcc\u5c71\u4e2d\u592e\u8b66\u5bdf\u7f72\u78ef\u90e8\u4ea4\u756a", "type": "koban", "is_24h": true}, {"lat": 36.6718, "lon": 137.2103, "name": "\u5bcc\u5c71\u4e2d\u592e\u8b66\u5bdf\u7f72\u4eca\u6cc9\u4ea4\u756a", "type": "koban", "is_24h": true}, {"lat": 36.6876, "lon": 137.2362, "name": "\u5bcc\u5c71\u4e2d\u592e\u8b66\u5bdf\u7f72\u77f3\u91d1\u4ea4\u756a", "type": "koban", "is_24h": true}, {"lat": 36.6758, "lon": 137.2493, "name": "\u5bcc\u5c71\u4e2d\u592e\u8b66\u5bdf\u7f72\u5c71\u5ba4\u4ea4\u756a", "type": "koban", "is_24h": true}, {"lat": 36.6564, "lon": 137.2286, "name": "\u5bcc\u5c71\u4e2d\u592e\u8b66\u5bdf\u7f72\u4e0b\u5800\u4ea4\u756a", "type": "koban", "is_24h": true}, {"lat": 36.6001, "lon": 137.2031, "name": "\u5bcc\u5c71\u5357\u8b66\u5bdf\u7f72", "type": "police_station", "is_24h": true}, {"lat": 36.7465, "lon": 137.2286, "name": "\u5bcc\u5c71\u5317\u8b66\u5bdf\u7f72", "type": "police_station", "is_24h": true}, {"lat": 36.7606, "lon": 137.257, "name": "\u5bcc\u5c71\u5317\u8b66\u5bdf\u7f72\u6d77\u5cb8\u901a\u99d0\u5728\u6240", "type": "police_station", "is_24h": true}, {"lat": 36.758, "lon": 137.2779, "name": "\u5bcc\u5c71\u5317\u8b66\u5bdf\u7f72\u6d5c\u9ed2\u57fc\u99d0\u5728\u6240", "type": "police_station", "is_24h": true}, {"lat": 36.7503, "lon": 137.3081, "name": "\u5bcc\u5c71\u5317\u8b66\u5bdf\u7f72\u6c34\u6a4b\u4ea4\u756a", "type": "koban", "is_24h": true}, {"lat": 36.1659, "lon": 137.9263, "name": "\u9577\u91ce\u770c\u8b66\u5bdf\u822a\u7a7a\u968a", "type": "police_station", "is_24h": true}, {"lat": 36.4235, "lon": 137.8727, "name": "\u6c60\u7530\u753a\u8b66\u90e8\u4ea4\u756a", "type": "koban", "is_24h": true}, {"lat": 36.7257, "lon": 137.0119, "name": "\u9ad8\u5ca1\u8b66\u5bdf\u7f72\u65b0\u9ad8\u5ca1\u99c5\u524d\u4ea4\u756a", "type": "koban", "is_24h": true}, {"lat": 36.9562, "lon": 137.5132, "name": "police_station", "type": "police_station", "is_24h": true}, {"lat": 36.6704, "lon": 137.1688, "name": "\u5bcc\u5c71\u897f\u8b66\u5bdf\u7f72", "type": "police_station", "is_24h": true}, {"lat": 36.3014, "lon": 137.9066, "name": "police_station", "type": "police_station", "is_24h": true}, {"lat": 36.8259, "lon": 137.4058, "name": "Police box \u9b5a\u6d25\u8b66\u5bdf\u7f72\u9b5a\u6d25\u99c5\u524d\u4ea4\u756a", "type": "koban", "is_24h": true}, {"lat": 36.9392, "lon": 137.5127, "name": "\u5bcc\u5c71\u770c\u5165\u5584\u8b66\u5bdf\u7f72", "type": "police_station", "is_24h": true}, {"lat": 36.7567, "lon": 137.3311, "name": "police_station", "type": "police_station", "is_24h": true}, {"lat": 36.3232, "lon": 137.309, "name": "police_station", "type": "police_station", "is_24h": true}, {"lat": 36.3229, "lon": 137.3089, "name": "police_station", "type": "police_station", "is_24h": true}, {"lat": 36.506, "lon": 137.9872, "name": "police_station", "type": "police_station", "is_24h": true}, {"lat": 36.1539, "lon": 137.2572, "name": "police_station", "type": "police_station", "is_24h": true}, {"lat": 36.237, "lon": 137.9796, "name": "\u6771\u90e8\u4ea4\u756a", "type": "koban", "is_24h": true}, {"lat": 36.1824, "lon": 137.9685, "name": "\u6751\u4e95\uff65\u5bff\u4ea4\u756a", "type": "koban", "is_24h": true}, {"lat": 36.1183, "lon": 137.9408, "name": "\u4e2d\u5357\u4fe1\u904b\u8ee2\u514d\u8a31\u30bb\u30f3\u30bf\u30fc", "type": "police_station", "is_24h": true}, {"lat": 36.1173, "lon": 137.9401, "name": "\u5869\u5c3b\u8b66\u5bdf\u7f72", "type": "police_station", "is_24h": true}, {"lat": 36.2266, "lon": 137.9582, "name": "\u677e\u672c\u8b66\u5bdf\u7f72", "type": "police_station", "is_24h": true}, {"lat": 36.7391, "lon": 137.0852, "name": "\u5bcc\u5c71\u770c\u8b66\u5bdf\u5c04\u6c34\u8b66\u5bdf\u7f72", "type": "police_station", "is_24h": true}, {"lat": 36.603, "lon": 137.6161, "name": "\u5bcc\u5c71\u770c\u8b66 \u5271\u6ca2\u8b66\u5099\u6d3e\u51fa\u6240", "type": "police_station", "is_24h": true}, {"lat": 36.8922, "lon": 137.6504, "name": "fire_station", "type": "fire_station", "is_24h": true}, {"lat": 36.9119, "lon": 137.5123, "name": "fire_station", "type": "fire_station", "is_24h": true}, {"lat": 36.7487, "lon": 137.6492, "name": "fire_station", "type": "fire_station", "is_24h": true}, {"lat": 36.8492, "lon": 137.4842, "name": "fire_station", "type": "fire_station", "is_24h": true}, {"lat": 36.7598, "lon": 137.4914, "name": "fire_station", "type": "fire_station", "is_24h": true}, {"lat": 36.8023, "lon": 137.0338, "name": "fire_station", "type": "fire_station", "is_24h": true}, {"lat": 36.7602, "lon": 137.1058, "name": "fire_station", "type": "fire_station", "is_24h": true}, {"lat": 36.7428, "lon": 137.2336, "name": "fire_station", "type": "fire_station", "is_24h": true}, {"lat": 36.7075, "lon": 137.0804, "name": "fire_station", "type": "fire_station", "is_24h": true}, {"lat": 36.7518, "lon": 137.3822, "name": "fire_station", "type": "fire_station", "is_24h": true}, {"lat": 36.7296, "lon": 137.3046, "name": "fire_station", "type": "fire_station", "is_24h": true}, {"lat": 36.7004, "lon": 137.1433, "name": "fire_station", "type": "fire_station", "is_24h": true}, {"lat": 36.7223, "lon": 137.3886, "name": "fire_station", "type": "fire_station", "is_24h": true}, {"lat": 36.7009, "lon": 137.3066, "name": "fire_station", "type": "fire_station", "is_24h": true}, {"lat": 36.6128, "lon": 137.1031, "name": "fire_station", "type": "fire_station", "is_24h": true}, {"lat": 36.668, "lon": 137.2303, "name": "fire_station", "type": "fire_station", "is_24h": true}, {"lat": 36.6606, "lon": 137.4766, "name": "fire_station", "type": "fire_station", "is_24h": true}, {"lat": 36.5059, "lon": 137.1229, "name": "fire_station", "type": "fire_station", "is_24h": true}, {"lat": 36.5004, "lon": 137.4525, "name": "fire_station", "type": "fire_station", "is_24h": true}, {"lat": 36.6016, "lon": 137.5119, "name": "fire_station", "type": "fire_station", "is_24h": true}, {"lat": 36.527, "lon": 137.2249, "name": "fire_station", "type": "fire_station", "is_24h": true}, {"lat": 36.9825, "lon": 137.5902, "name": "fire_station", "type": "fire_station", "is_24h": true}, {"lat": 36.9816, "lon": 137.5898, "name": "fire_station", "type": "fire_station", "is_24h": true}, {"lat": 36.9781, "lon": 137.5884, "name": "fire_station", "type": "fire_station", "is_24h": true}, {"lat": 36.978, "lon": 137.5886, "name": "fire_station", "type": "fire_station", "is_24h": true}, {"lat": 36.9778, "lon": 137.5884, "name": "fire_station", "type": "fire_station", "is_24h": true}, {"lat": 36.975, "lon": 137.5867, "name": "fire_station", "type": "fire_station", "is_24h": true}, {"lat": 36.9595, "lon": 137.0537, "name": "fire_station", "type": "fire_station", "is_24h": true}, {"lat": 36.9327, "lon": 137.0418, "name": "fire_station", "type": "fire_station", "is_24h": true}, {"lat": 36.9324, "lon": 137.0424, "name": "fire_station", "type": "fire_station", "is_24h": true}, {"lat": 36.932, "lon": 137.0408, "name": "fire_station", "type": "fire_station", "is_24h": true}, {"lat": 36.932, "lon": 137.0401, "name": "fire_station", "type": "fire_station", "is_24h": true}, {"lat": 36.9176, "lon": 137.0274, "name": "fire_station", "type": "fire_station", "is_24h": true}, {"lat": 36.899, "lon": 137.0109, "name": "fire_station", "type": "fire_station", "is_24h": true}, {"lat": 36.8146, "lon": 137.0453, "name": "fire_station", "type": "fire_station", "is_24h": true}, {"lat": 36.8104, "lon": 137.0532, "name": "fire_station", "type": "fire_station", "is_24h": true}, {"lat": 36.7855, "lon": 137.0913, "name": "fire_station", "type": "fire_station", "is_24h": true}, {"lat": 36.9915, "lon": 137.0533, "name": "fire_station", "type": "fire_station", "is_24h": true}, {"lat": 36.232, "lon": 137.9545, "name": "1.0", "type": "fire_station", "is_24h": true}, {"lat": 36.506, "lon": 137.8552, "name": "1.0", "type": "fire_station", "is_24h": true}, {"lat": 36.6792, "lon": 137.9956, "name": "3.0", "type": "fire_station", "is_24h": true}, {"lat": 36.2412, "lon": 137.886, "name": "2.0", "type": "fire_station", "is_24h": true}, {"lat": 36.1598, "lon": 137.7594, "name": "3.0", "type": "fire_station", "is_24h": true}, {"lat": 36.2381, "lon": 137.9662, "name": "2.0", "type": "fire_station", "is_24h": true}, {"lat": 36.2179, "lon": 137.9794, "name": "3.0", "type": "fire_station", "is_24h": true}, {"lat": 36.232, "lon": 137.9545, "name": "2.0", "type": "fire_station", "is_24h": true}, {"lat": 36.1815, "lon": 137.9642, "name": "2.0", "type": "fire_station", "is_24h": true}, {"lat": 36.1806, "lon": 137.9141, "name": "3.0", "type": "fire_station", "is_24h": true}, {"lat": 36.2632, "lon": 137.9875, "name": "2.0", "type": "fire_station", "is_24h": true}, {"lat": 36.2414, "lon": 137.995, "name": "3.0", "type": "fire_station", "is_24h": true}, {"lat": 36.506, "lon": 137.8552, "name": "2.0", "type": "fire_station", "is_24h": true}, {"lat": 36.1235, "lon": 137.9509, "name": "2.0", "type": "fire_station", "is_24h": true}, {"lat": 36.1512, "lon": 137.95, "name": "2.0", "type": "fire_station", "is_24h": true}, {"lat": 36.3447, "lon": 137.8831, "name": "2.0", "type": "fire_station", "is_24h": true}, {"lat": 36.3015, "lon": 137.9062, "name": "2.0", "type": "fire_station", "is_24h": true}, {"lat": 36.3599, "lon": 137.9296, "name": "2.0", "type": "fire_station", "is_24h": true}, {"lat": 36.1826, "lon": 137.889, "name": "2.0", "type": "fire_station", "is_24h": true}, {"lat": 36.4262, "lon": 137.8713, "name": "2.0", "type": "fire_station", "is_24h": true}, {"lat": 36.706, "lon": 137.8654, "name": "2.0", "type": "fire_station", "is_24h": true}, {"lat": 36.6173, "lon": 137.9746, "name": "3.0", "type": "fire_station", "is_24h": true}, {"lat": 36.1534, "lon": 137.2517, "name": "1.0", "type": "fire_station", "is_24h": true}, {"lat": 36.2347, "lon": 137.1775, "name": "1.0", "type": "fire_station", "is_24h": true}, {"lat": 36.1534, "lon": 137.2517, "name": "2.0", "type": "fire_station", "is_24h": true}, {"lat": 36.2161, "lon": 137.2124, "name": "3.0", "type": "fire_station", "is_24h": true}, {"lat": 36.2494, "lon": 137.4979, "name": "3.0", "type": "fire_station", "is_24h": true}, {"lat": 36.1336, "lon": 137.1725, "name": "3.0", "type": "fire_station", "is_24h": true}, {"lat": 36.0524, "lon": 137.2819, "name": "3.0", "type": "fire_station", "is_24h": true}, {"lat": 36.171, "lon": 137.31, "name": "3.0", "type": "fire_station", "is_24h": true}, {"lat": 36.2347, "lon": 137.1775, "name": "2.0", "type": "fire_station", "is_24h": true}, {"lat": 36.3342, "lon": 137.1493, "name": "3.0", "type": "fire_station", "is_24h": true}, {"lat": 36.3368, "lon": 137.2961, "name": "2.0", "type": "fire_station", "is_24h": true}, {"lat": 36.1347, "lon": 137.2872, "name": "\u9ad8\u5c71\u539a\u751f\u75c5\u9662 \uff08Takayama Welfare Hospi", "type": "hospital", "is_24h": false}, {"lat": 36.1371, "lon": 137.2548, "name": "\u9ad8\u5c71\u8d64\u5341\u5b57\u75c5\u9662(Takayama Red Cross Hos", "type": "hospital", "is_24h": false}, {"lat": 36.9593, "lon": 137.5615, "name": "\u3042\u3055\u3072\u7dcf\u5408\u75c5\u9662", "type": "hospital", "is_24h": false}, {"lat": 36.7527, "lon": 137.0138, "name": "\u3042\u305a\u3055\u4f1a\u5ddd\u7530\u75c5\u9662", "type": "hospital", "is_24h": false}, {"lat": 36.7294, "lon": 137.2938, "name": "\u3068\u304d\u308f\u4f1a\u5e38\u9858\u5bfa\u75c5\u9662", "type": "hospital", "is_24h": false}, {"lat": 36.805, "lon": 137.4425, "name": "\u30db\u30b9\u30d4\u30a3\u30fc\u3046\u3089\u305f\u75c5\u9662", "type": "hospital", "is_24h": false}, {"lat": 36.8145, "lon": 137.4114, "name": "\u4e03\u5fb3\u4f1a\u9b5a\u6d25\u75c5\u9662", "type": "hospital", "is_24h": false}, {"lat": 36.6366, "lon": 137.0079, "name": "\u4e09\u533b\u4f1a\u3068\u306a\u307f\u4e09\u8f2a\u75c5\u9662", "type": "hospital", "is_24h": false}, {"lat": 36.7029, "lon": 137.3612, "name": "\u4e0a\u5e02\u7dcf\u5408\u75c5\u9662", "type": "hospital", "is_24h": false}, {"lat": 36.9493, "lon": 137.5626, "name": "hospital", "type": "hospital", "is_24h": false}, {"lat": 36.9331, "lon": 137.501, "name": "Sakamoto Memorial Hospital \u5742\u672c\u8a18", "type": "hospital", "is_24h": false}, {"lat": 36.7081, "lon": 137.0521, "name": "\u4ec1\u6e05\u4f1a\u30b0\u30ea\u30fc\u30f3\u30d2\u30eb\u30ba\u82e5\u8349\u75c5\u9662", "type": "hospital", "is_24h": false}, {"lat": 36.8311, "lon": 137.4252, "name": "\u4fe1\u548c\u4f1a\u9b5a\u6d25\u795e\u7d4c\u30b5\u30ca\u30c8\u30ea\u30a6\u30e0", "type": "hospital", "is_24h": false}, {"lat": 36.9481, "lon": 137.5626, "name": "hospital", "type": "hospital", "is_24h": false}, {"lat": 36.6634, "lon": 137.1236, "name": "\u53cb\u611b\u75c5\u9662\u4f1a\u53cb\u611b\u6e29\u6cc9\u75c5\u9662", "type": "hospital", "is_24h": false}, {"lat": 36.8514, "lon": 137.4446, "name": "\u53cb\u611b\u75c5\u9662\u4f1a\u9ed2\u90e8\u6e29\u6cc9\u75c5\u9662", "type": "hospital", "is_24h": false}, {"lat": 36.761, "lon": 137.0136, "name": "\u5409\u7530\u5185\u79d1\u5c0f\u5150\u79d1\u75c5\u9662", "type": "hospital", "is_24h": false}, {"lat": 36.7634, "lon": 137.3438, "name": "\u5409\u898b\u75c5\u9662", "type": "hospital", "is_24h": false}, {"lat": 36.7142, "lon": 137.1839, "name": "\u548c\u656c\u4f1a\u8c37\u91ce\u5449\u5c71\u75c5\u9662", "type": "hospital", "is_24h": false}, {"lat": 36.6313, "lon": 137.2463, "name": "\u57fa\u4f38\u4f1a\u6817\u5c71\u75c5\u9662", "type": "hospital", "is_24h": false}, {"lat": 36.7004, "lon": 137.08, "name": "\u592a\u95a4\u5c71\u75c5\u9662", "type": "hospital", "is_24h": false}, {"lat": 36.7157, "lon": 137.2193, "name": "\u5965\u7530\u75c5\u9662", "type": "hospital", "is_24h": false}, {"lat": 36.7813, "lon": 137.088, "name": "\u59eb\u91ce\u75c5\u9662", "type": "hospital", "is_24h": false}, {"lat": 36.8211, "lon": 137.4258, "name": "\u5bcc\u5c71\u52b4\u707d\u75c5\u9662", "type": "hospital", "is_24h": false}, {"lat": 36.68, "lon": 137.1407, "name": "\u5bcc\u5c71\u5927\u5b66\u9644\u5c5e\u75c5\u9662", "type": "hospital", "is_24h": false}, {"lat": 36.5698, "lon": 137.1986, "name": "\u5bcc\u5c71\u611b\u5e78\u798f\u7949\u540c\u53cb\u4f1a\u3042\u3086\u307f\u306e\u90f7", "type": "hospital", "is_24h": false}, {"lat": 36.7703, "lon": 137.3458, "name": "\u5bcc\u5c71\u770c\u539a\u751f\u8fb2\u696d\u5354\u540c\u7d44\u5408\u9023\u5408\u4f1a\u6ed1\u5ddd\u75c5\u9662", "type": "hospital", "is_24h": false}, {"lat": 36.6925, "lon": 137.2377, "name": "\u5bcc\u5c71\u770c\u7acb\u4e2d\u592e\u75c5\u9662", "type": "hospital", "is_24h": false}, {"lat": 36.8735, "lon": 137.4556, "name": "\u5e73\u6210\u4f1a\u685c\u4e95\u75c5\u9662", "type": "hospital", "is_24h": false}, {"lat": 36.8114, "lon": 137.411, "name": "\u5f18\u4ec1\u4f1a\u9b5a\u6d25\u7dd1\u30f6\u4e18\u75c5\u9662", "type": "hospital", "is_24h": false}, {"lat": 36.7677, "lon": 137.0379, "name": "\u5fd7\u8cb4\u91ce\u4f1a\u30b5\u30f3\u30d0\u30ea\u30fc\u9ad8\u5ca1\u75c5\u9662", "type": "hospital", "is_24h": false}, {"lat": 36.6653, "lon": 137.2979, "name": "\u6075\u4ec1\u4f1a\u85e4\u6728\u75c5\u9662", "type": "hospital", "is_24h": false}, {"lat": 36.7594, "lon": 137.0815, "name": "\u5c04\u6c34\u5e02\u6c11\u75c5\u9662", "type": "hospital", "is_24h": false}, {"lat": 36.7544, "lon": 137.018, "name": "\u6851\u5c71\u4f1a\u4e39\u4fdd\u75c5\u9662", "type": "hospital", "is_24h": false}, {"lat": 36.7449, "lon": 137.0523, "name": "\u6a2b\u306e\u6728\u4f1a\u5927\u5cf6\u304f\u308b\u307f\u75c5\u9662", "type": "hospital", "is_24h": false}, {"lat": 36.8238, "lon": 137.011, "name": "\u6b63\u53cb\u4f1a\u4e2d\u6751\u8a18\u5ff5\u75c5\u9662", "type": "hospital", "is_24h": false}, {"lat": 36.7243, "lon": 137.2652, "name": "\u6b63\u5553\u4f1a\u6210\u548c\u75c5\u9662", "type": "hospital", "is_24h": false}, {"lat": 36.745, "lon": 137.0186, "name": "\u6ca2\u7530\u8a18\u5ff5\u9ad8\u5ca1\u6574\u5fd7\u4f1a\u75c5\u9662", "type": "hospital", "is_24h": false}, {"lat": 36.6584, "lon": 137.276, "name": "\u6d41\u6749\u75c5\u9662", "type": "hospital", "is_24h": false}, {"lat": 36.7604, "lon": 137.2608, "name": "\u6d5c\u9ed2\u5d0e\u91ce\u6751\u75c5\u9662", "type": "hospital", "is_24h": false}, {"lat": 36.842, "lon": 137.4381, "name": "\u6df1\u5ddd\u75c5\u9662", "type": "hospital", "is_24h": false}, {"lat": 36.7169, "lon": 137.2195, "name": "\u6e05\u5e78\u4f1a\u5cf6\u7530\u75c5\u9662", "type": "hospital", "is_24h": false}, {"lat": 36.7134, "lon": 137.1532, "name": "\u767d\u96f2\u4f1a\u5449\u7fbd\u795e\u7d4c\u30b5\u30ca\u30c8\u30ea\u30a6\u30e0", "type": "hospital", "is_24h": false}, {"lat": 36.7172, "lon": 137.0772, "name": "\u771f\u751f\u4f1a\u5bcc\u5c71\u75c5\u9662", "type": "hospital", "is_24h": false}, {"lat": 36.7565, "lon": 137.0147, "name": "\u7766\u5fc3\u4f1a\u3042\u3055\u306a\u304e\u75c5\u9662", "type": "hospital", "is_24h": false}, {"lat": 36.7901, "lon": 137.0459, "name": "\u793e\u4f1a\u4fdd\u967a\u9ad8\u5ca1\u75c5\u9662", "type": "hospital", "is_24h": false}, {"lat": 36.8103, "lon": 137.4109, "name": "\u798f\u5bff\u4f1a\u65b0\u5ddd\u75c5\u9662", "type": "hospital", "is_24h": false}, {"lat": 36.6269, "lon": 137.2443, "name": "\u7fe0\u5341\u5b57\u4f1a\u8aa0\u53cb\u75c5\u9662", "type": "hospital", "is_24h": false}, {"lat": 36.6281, "lon": 137.1794, "name": "\u8429\u91ce\u75c5\u9662", "type": "hospital", "is_24h": false}, {"lat": 36.6799, "lon": 137.2637, "name": "\u85e4\u306e\u6728\u75c5\u9662", "type": "hospital", "is_24h": false}, {"lat": 36.5965, "lon": 137.1378, "name": "\u85e4\u8056\u4f1a\u516b\u5c3e\u7dcf\u5408\u75c5\u9662", "type": "hospital", "is_24h": false}, {"lat": 36.576, "lon": 137.0777, "name": "\u65e7 \u89aa\u548c\u4f1a\u5c71\u7530\u6e29\u6cc9\u75c5\u9662(\u79fb\u8ee2)", "type": "hospital", "is_24h": false}, {"lat": 36.7478, "lon": 137.307, "name": "\u91ce\u6751\u75c5\u9662", "type": "hospital", "is_24h": false}, {"lat": 36.7563, "lon": 137.0284, "name": "\u9ad8\u5ca1\u5e02\u6c11\u75c5\u9662", "type": "hospital", "is_24h": false}, {"lat": 36.8713, "lon": 137.4409, "name": "\u9ed2\u90e8\u5e02\u6c11\u75c5\u9662", "type": "hospital", "is_24h": false}, {"lat": 36.2295, "lon": 137.1909, "name": "\u539a\u6d0b\u4f1a\u57a3\u5185\u75c5\u9662", "type": "hospital", "is_24h": false}, {"lat": 36.2357, "lon": 137.1834, "name": "\u53e4\u5ddd\u75c5\u9662", "type": "hospital", "is_24h": false}, {"lat": 36.3405, "lon": 137.2967, "name": "\u56fd\u6c11\u5065\u5eb7\u4fdd\u967a\u30b1\u30a2\u30db\u30b9\u30d4\u30bf\u30eb\u305f\u304b\u306f\u3089", "type": "hospital", "is_24h": false}, {"lat": 36.3348, "lon": 137.3006, "name": "\u56fd\u6c11\u5065\u5eb7\u4fdd\u967a\u795e\u5ca1\u753a\u75c5\u9662", "type": "hospital", "is_24h": false}, {"lat": 36.198, "lon": 137.2508, "name": "\u751f\u4ec1\u4f1a\u9808\u7530\u75c5\u9662", "type": "hospital", "is_24h": false}, {"lat": 36.1371, "lon": 137.2548, "name": "\u7d9c\u5408\u75c5\u9662\u9ad8\u5c71\u8d64\u5341\u5b57\u75c5\u9662", "type": "hospital", "is_24h": false}, {"lat": 36.1347, "lon": 137.2872, "name": "\u9ad8\u5c71\u539a\u751f\u75c5\u9662", "type": "hospital", "is_24h": false}, {"lat": 36.2394, "lon": 137.9626, "name": "hospital", "type": "hospital", "is_24h": false}, {"lat": 36.2333, "lon": 137.9707, "name": "hospital", "type": "hospital", "is_24h": false}, {"lat": 36.1668, "lon": 137.237, "name": "\u4e45\u7f8e\u611b\u539a\u751f\u75c5\u9662", "type": "hospital", "is_24h": false}, {"lat": 36.2494, "lon": 137.9793, "name": "\u4fe1\u5dde\u5927\u5b66\u533b\u5b66\u90e8\u9644\u5c5e\u75c5\u9662", "type": "hospital", "is_24h": false}, {"lat": 36.226, "lon": 137.9661, "name": "hospital", "type": "hospital", "is_24h": false}, {"lat": 36.2383, "lon": 137.967, "name": "\u677e\u672c\u5e02\u533b\u5e2b\u4f1a\u533b\u7642\u30bb\u30f3\u30bf\u30fc (\u5065\u5eb7\u8a3a\u65ad)", "type": "hospital", "is_24h": false}, {"lat": 36.9569, "lon": 137.5584, "name": "Uozu Clinic \u9b5a\u6d25\u533b\u9662", "type": "hospital", "is_24h": false}, {"lat": 36.1146, "lon": 137.9547, "name": "\u5869\u5c3b\u75c5\u9662", "type": "hospital", "is_24h": false}, {"lat": 36.8002, "lon": 137.3994, "name": "\u65b0\u5ddd\u75c5\u9662", "type": "hospital", "is_24h": false}, {"lat": 36.8717, "lon": 137.4408, "name": "\u9ed2\u90e8\u5e02\u6c11\u75c5\u9662\u5065\u5eb7\u7ba1\u7406\u30bb\u30f3\u30bf\u30fc", "type": "hospital", "is_24h": false}, {"lat": 36.2296, "lon": 137.9631, "name": "\u677e\u672c\u5171\u7acb\u75c5\u9662", "type": "hospital", "is_24h": false}, {"lat": 36.7083, "lon": 137.2089, "name": "\u5bcc\u5c71\u8d64\u5341\u5b57\u75c5\u9662", "type": "hospital", "is_24h": false}, {"lat": 36.7096, "lon": 137.2164, "name": "\u653f\u5ca1\u5185\u79d1\u75c5\u9662", "type": "hospital", "is_24h": false}, {"lat": 36.69, "lon": 137.2041, "name": "\u5bcc\u5c71\u9013\u4fe1\u75c5\u9662", "type": "hospital", "is_24h": false}, {"lat": 36.6927, "lon": 137.2295, "name": "\u6e05\u6804\u4f1a\u8133\u795e\u7d4c\u5916\u79d1\u585a\u672c\u75c5\u9662", "type": "hospital", "is_24h": false}, {"lat": 36.6836, "lon": 137.2151, "name": "\u535a\u4ec1\u4f1a\u6a2a\u7530\u75c5\u9662", "type": "hospital", "is_24h": false}, {"lat": 36.6871, "lon": 137.2175, "name": "\u4e18\u751f\u4f1a\u5ca1\u7530\u7523\u79d1\u5a66\u4eba\u79d1\u75c5\u9662", "type": "hospital", "is_24h": false}, {"lat": 36.6779, "lon": 137.2099, "name": "\u57ce\u5357\u4f1a\u5bcc\u5c71\u57ce\u5357\u6e29\u6cc9\u75c5\u9662", "type": "hospital", "is_24h": false}, {"lat": 36.6772, "lon": 137.2101, "name": "\u57ce\u5357\u4f1a\u5bcc\u5c71\u57ce\u5357\u6e29\u6cc9\u7b2c\u4e8c\u75c5\u9662", "type": "hospital", "is_24h": false}, {"lat": 36.6842, "lon": 137.2122, "name": "\u9577\u8c37\u5ddd\u75c5\u9662", "type": "hospital", "is_24h": false}, {"lat": 36.6834, "lon": 137.2103, "name": "\u6749\u91ce\u8133\u795e\u7d4c\u5916\u79d1\u75c5\u9662", "type": "hospital", "is_24h": false}, {"lat": 36.6761, "lon": 137.2446, "name": "\u4f50\u4f2f\u5916\u79d1\u75c5\u9662", "type": "hospital", "is_24h": false}, {"lat": 36.6844, "lon": 137.2371, "name": "\u4e0d\u4e8c\u8d8a\u75c5\u9662", "type": "hospital", "is_24h": false}, {"lat": 36.6633, "lon": 137.2283, "name": "\u529f\u9023\u4f1a\u5357\u5bcc\u5c71\u795e\u7d4c\u30b5\u30ca\u30c8\u30ea\u30a6\u30e0\u4e2d\u5ddd\u75c5\u9662", "type": "hospital", "is_24h": false}, {"lat": 36.664, "lon": 137.2246, "name": "\u4f50\u3005\u6728\u75c5\u9662", "type": "hospital", "is_24h": false}, {"lat": 36.7551, "lon": 137.2291, "name": "\u5ba4\u8c37\u75c5\u9662", "type": "hospital", "is_24h": false}, {"lat": 36.6745, "lon": 137.1847, "name": "\u56db\u65b9\u4f1a\u6709\u6ca2\u6a4b\u75c5\u9662", "type": "hospital", "is_24h": false}, {"lat": 36.7378, "lon": 137.2552, "name": "\u6e08\u751f\u4f1a\u5bcc\u5c71\u75c5\u9662", "type": "hospital", "is_24h": false}, {"lat": 36.7442, "lon": 137.2662, "name": "\u5bcc\u5c71\u770c\u9ad8\u5fd7\u30ea\u30cf\u30d3\u30ea\u30c6\u30fc\u30b7\u30e7\u30f3\u75c5\u9662\u30fb\u3053\u3069\u3082\u652f\u63f4\u30bb\u30f3\u30bf\u30fc", "type": "hospital", "is_24h": false}, {"lat": 36.655, "lon": 137.1183, "name": "\u56fd\u7acb\u75c5\u9662\u6a5f\u69cb\u5bcc\u5c71\u75c5\u9662", "type": "hospital", "is_24h": false}, {"lat": 36.2849, "lon": 137.9207, "name": "\u9577\u91ce\u770c\u7acb\u3053\u3069\u3082\u75c5\u9662", "type": "hospital", "is_24h": false}, {"lat": 36.9481, "lon": 137.5627, "name": "\u5742\u6771\u75c5\u9662", "type": "hospital", "is_24h": false}, {"lat": 36.9493, "lon": 137.5626, "name": "\u4e38\u5ddd\u75c5\u9662", "type": "hospital", "is_24h": false}, {"lat": 36.1752, "lon": 137.964, "name": "\u307e\u3064\u3082\u3068\u533b\u7642\u30bb\u30f3\u30bf\u30fc \u677e\u672c\u75c5\u9662", "type": "hospital", "is_24h": false}, {"lat": 36.4212, "lon": 137.8731, "name": "\u3042\u305a\u307f\u75c5\u9662", "type": "hospital", "is_24h": true}, {"lat": 36.3383, "lon": 137.8731, "name": "\u7a42\u9ad8\u5065\u5eb7\u652f\u63f4\u30bb\u30f3\u30bf\u30fc", "type": "hospital", "is_24h": false}, {"lat": 36.682, "lon": 137.1892, "name": "\u308f\u305f\u306a\u3079\u533b\u9662", "type": "hospital", "is_24h": false}, {"lat": 36.9597, "lon": 137.5618, "name": "hospital", "type": "hospital", "is_24h": false}, {"lat": 36.303, "lon": 137.9084, "name": "hospital", "type": "hospital", "is_24h": false}, {"lat": 36.3034, "lon": 137.9039, "name": "hospital", "type": "hospital", "is_24h": false}, {"lat": 36.9332, "lon": 137.5008, "name": "hospital", "type": "hospital", "is_24h": false}, {"lat": 36.9268, "lon": 137.5102, "name": "hospital", "type": "hospital", "is_24h": false}, {"lat": 36.6849, "lon": 137.1852, "name": "\u4e94\u7701\u4f1a\u897f\u80fd\u75c5\u9662", "type": "hospital", "is_24h": false}, {"lat": 36.5009, "lon": 137.8577, "name": "\u5927\u753a\u7dcf\u5408\u75c5\u9662", "type": "hospital", "is_24h": false}, {"lat": 36.2266, "lon": 137.9737, "name": "\u76f8\u6fa4\u75c5\u9662", "type": "hospital", "is_24h": false}, {"lat": 36.1727, "lon": 137.9966, "name": "\u4e2d\u4fe1\u677e\u672c\u75c5\u9662\uff08\u9589\u9662\uff09", "type": "hospital", "is_24h": false}, {"lat": 36.717, "lon": 137.0767, "name": "\u771f\u751f\u4f1a\u5bcc\u5c71\u75c5\u9662", "type": "hospital", "is_24h": false}, {"lat": 36.7338, "lon": 137.1908, "name": "ALSOK", "type": "aed", "is_24h": false}, {"lat": 36.7038, "lon": 137.2141, "name": "aed", "type": "aed", "is_24h": false}, {"lat": 36.6536, "lon": 137.8473, "name": "aed", "type": "aed", "is_24h": false}, {"lat": 36.7013, "lon": 137.2133, "name": "aed", "type": "aed", "is_24h": false}, {"lat": 36.7812, "lon": 137.1092, "name": "aed", "type": "aed", "is_24h": false}, {"lat": 36.6939, "lon": 137.1867, "name": "aed", "type": "aed", "is_24h": false}, {"lat": 36.2385, "lon": 137.9701, "name": "aed", "type": "aed", "is_24h": false}, {"lat": 36.7262, "lon": 137.0113, "name": "Toyota Rental Car", "type": "aed", "is_24h": false}, {"lat": 36.6273, "lon": 137.1966, "name": "aed", "type": "aed", "is_24h": false}, {"lat": 36.1397, "lon": 137.2629, "name": "aed", "type": "aed", "is_24h": false}, {"lat": 36.8172, "lon": 137.5843, "name": "aed", "type": "aed", "is_24h": false}, {"lat": 36.7133, "lon": 137.0941, "name": "aed", "type": "aed", "is_24h": false}, {"lat": 36.7008, "lon": 137.846, "name": "aed", "type": "aed", "is_24h": false}, {"lat": 36.0141, "lon": 137.8608, "name": "\u8d04\u5ddd", "type": "station", "is_24h": false}, {"lat": 36.3594, "lon": 137.8784, "name": "\u6709\u660e", "type": "station", "is_24h": false}, {"lat": 36.0525, "lon": 137.2767, "name": "\u4e45\u3005\u91ce", "type": "station", "is_24h": false}, {"lat": 36.0016, "lon": 137.288, "name": "\u6e1a", "type": "station", "is_24h": false}, {"lat": 36.2501, "lon": 137.1687, "name": "\u6749\u5d0e", "type": "station", "is_24h": false}, {"lat": 36.3837, "lon": 137.182, "name": "\u6253\u4fdd", "type": "station", "is_24h": false}, {"lat": 36.261, "lon": 137.1461, "name": "\u98db\u9a52\u7d30\u6c5f", "type": "station", "is_24h": false}, {"lat": 36.3277, "lon": 137.141, "name": "\u5742\u4e0a", "type": "station", "is_24h": false}, {"lat": 36.3002, "lon": 137.1133, "name": "\u89d2\u5ddd", "type": "station", "is_24h": false}, {"lat": 36.1803, "lon": 137.2456, "name": "\u4e0a\u679d", "type": "station", "is_24h": false}, {"lat": 36.4158, "lon": 137.1923, "name": "\u6749\u539f", "type": "station", "is_24h": false}, {"lat": 36.4714, "lon": 137.2384, "name": "\u732a\u8c37", "type": "station", "is_24h": false}, {"lat": 36.1411, "lon": 137.2513, "name": "\u9ad8\u5c71", "type": "station", "is_24h": false}, {"lat": 36.2113, "lon": 137.2158, "name": "\u98db\u9a52\u56fd\u5e9c", "type": "station", "is_24h": false}, {"lat": 36.7412, "lon": 137.0148, "name": "\u9ad8\u5ca1", "type": "station", "is_24h": false}, {"lat": 36.6997, "lon": 137.1776, "name": "\u897f\u5bcc\u5c71", "type": "station", "is_24h": false}, {"lat": 36.6642, "lon": 137.1606, "name": "\u901f\u661f", "type": "station", "is_24h": false}, {"lat": 36.5291, "lon": 137.2287, "name": "\u6961\u539f", "type": "station", "is_24h": false}, {"lat": 36.5896, "lon": 137.175, "name": "\u6771\u516b\u5c3e", "type": "station", "is_24h": false}, {"lat": 36.562, "lon": 137.2114, "name": "\u7b39\u6d25", "type": "station", "is_24h": false}, {"lat": 36.5914, "lon": 137.1384, "name": "\u8d8a\u4e2d\u516b\u5c3e", "type": "station", "is_24h": false}, {"lat": 36.6346, "lon": 137.1323, "name": "\u5343\u91cc", "type": "station", "is_24h": false}, {"lat": 36.9668, "lon": 137.867, "name": "\u6839\u77e5", "type": "station", "is_24h": false}, {"lat": 36.8054, "lon": 137.9081, "name": "\u4e2d\u571f", "type": "station", "is_24h": false}, {"lat": 36.8871, "lon": 137.8654, "name": "\u5e73\u5ca9", "type": "station", "is_24h": false}, {"lat": 36.8421, "lon": 137.9063, "name": "\u5317\u5c0f\u8c37", "type": "station", "is_24h": false}, {"lat": 36.9379, "lon": 137.86, "name": "\u5c0f\u6edd", "type": "station", "is_24h": false}, {"lat": 36.7919, "lon": 137.0582, "name": "\u4f0f\u6728", "type": "station", "is_24h": false}, {"lat": 36.8165, "lon": 137.0374, "name": "\u96e8\u6674", "type": "station", "is_24h": false}, {"lat": 36.7688, "lon": 137.04, "name": "\u80fd\u753a", "type": "station", "is_24h": false}, {"lat": 36.749, "lon": 137.6415, "name": "\u732b\u53c8", "type": "station", "is_24h": false}, {"lat": 36.7108, "lon": 137.6469, "name": "\u5c0f\u5c4b\u5e73", "type": "station", "is_24h": false}, {"lat": 36.7864, "lon": 137.6251, "name": "\u9ed2\u8599", "type": "station", "is_24h": false}, {"lat": 36.783, "lon": 137.6241, "name": "\u7b39\u5e73", "type": "station", "is_24h": false}, {"lat": 36.767, "lon": 137.634, "name": "\u51fa\u5e73", "type": "station", "is_24h": false}, {"lat": 36.8032, "lon": 137.5917, "name": "\u67f3\u6a4b", "type": "station", "is_24h": false}, {"lat": 36.8154, "lon": 137.5852, "name": "\u5b87\u5948\u6708", "type": "station", "is_24h": false}, {"lat": 36.7919, "lon": 137.613, "name": "\u68ee\u77f3", "type": "station", "is_24h": false}, {"lat": 36.7343, "lon": 137.6516, "name": "\u9418\u91e3", "type": "station", "is_24h": false}, {"lat": 36.7351, "lon": 137.3509, "name": "\u4e2d\u52a0\u7a4d", "type": "station", "is_24h": false}, {"lat": 36.8404, "lon": 137.5599, "name": "\u97f3\u6ca2", "type": "station", "is_24h": false}, {"lat": 36.702, "lon": 137.3359, "name": "\u76f8\u30ce\u6728", "type": "station", "is_24h": false}, {"lat": 36.7031, "lon": 137.3424, "name": "\u65b0\u76f8\u30ce\u6728", "type": "station", "is_24h": false}, {"lat": 36.8636, "lon": 137.5192, "name": "\u6d66\u5c71", "type": "station", "is_24h": false}, {"lat": 36.8152, "lon": 137.4005, "name": "\u96fb\u9244\u9b5a\u6d25", "type": "station", "is_24h": false}, {"lat": 36.8465, "lon": 137.5569, "name": "\u5185\u5c71", "type": "station", "is_24h": false}, {"lat": 36.6998, "lon": 137.3269, "name": "\u8d8a\u4e2d\u6cc9", "type": "station", "is_24h": false}, {"lat": 36.7552, "lon": 137.3348, "name": "\u897f\u6ed1\u5ddd", "type": "station", "is_24h": false}, {"lat": 36.8747, "lon": 137.4506, "name": "\u6771\u4e09\u65e5\u5e02", "type": "station", "is_24h": false}, {"lat": 36.7776, "lon": 137.3615, "name": "\u6d5c\u52a0\u7a4d", "type": "station", "is_24h": false}, {"lat": 36.7467, "lon": 137.3401, "name": "\u897f\u52a0\u7a4d", "type": "station", "is_24h": false}, {"lat": 36.8594, "lon": 137.5334, "name": "\u4e0b\u7acb\u53e3", "type": "station", "is_24h": false}, {"lat": 36.7177, "lon": 137.351, "name": "\u65b0\u5bae\u5ddd", "type": "station", "is_24h": false}, {"lat": 36.8699, "lon": 137.5057, "name": "\u6803\u5c4b", "type": "station", "is_24h": false}, {"lat": 36.8554, "lon": 137.5539, "name": "\u611b\u672c", "type": "station", "is_24h": false}, {"lat": 36.8578, "lon": 137.5413, "name": "\u4e0b\u7acb", "type": "station", "is_24h": false}, {"lat": 36.7692, "lon": 137.3489, "name": "\u6ed1\u5ddd", "type": "station", "is_24h": false}, {"lat": 36.8041, "lon": 137.3948, "name": "\u897f\u9b5a\u6d25", "type": "station", "is_24h": false}, {"lat": 36.8711, "lon": 137.4928, "name": "\u82e5\u6817", "type": "station", "is_24h": false}, {"lat": 36.8741, "lon": 137.4439, "name": "\u96fb\u9244\u9ed2\u90e8", "type": "station", "is_24h": false}, {"lat": 36.8662, "lon": 137.4233, "name": "\u96fb\u9244\u77f3\u7530", "type": "station", "is_24h": false}, {"lat": 36.8491, "lon": 137.4164, "name": "\u7d4c\u7530", "type": "station", "is_24h": false}, {"lat": 36.7619, "lon": 137.3399, "name": "\u4e2d\u6ed1\u5ddd", "type": "station", "is_24h": false}, {"lat": 36.8751, "lon": 137.4594, "name": "\u837b\u751f", "type": "station", "is_24h": false}, {"lat": 36.8269, "lon": 137.4054, "name": "\u65b0\u9b5a\u6d25", "type": "station", "is_24h": false}, {"lat": 36.8722, "lon": 137.4856, "name": "\u820c\u5c71", "type": "station", "is_24h": false}, {"lat": 36.8737, "lon": 137.4704, "name": "\u9577\u5c4b", "type": "station", "is_24h": false}, {"lat": 36.7839, "lon": 137.3717, "name": "\u65e9\u6708\u52a0\u7a4d", "type": "station", "is_24h": false}, {"lat": 36.7906, "lon": 137.3824, "name": "\u8d8a\u4e2d\u4e2d\u6751", "type": "station", "is_24h": false}, {"lat": 36.6195, "lon": 137.2756, "name": "\u5927\u5e84", "type": "station", "is_24h": false}, {"lat": 36.6095, "lon": 137.2962, "name": "\u4e0a\u6edd", "type": "station", "is_24h": false}, {"lat": 36.6703, "lon": 137.2205, "name": "\u5357\u5bcc\u5c71", "type": "station", "is_24h": false}, {"lat": 36.6083, "lon": 137.3089, "name": "\u5927\u5ddd\u5bfa", "type": "station", "is_24h": false}, {"lat": 36.65, "lon": 137.2327, "name": "\u5c0f\u6749", "type": "station", "is_24h": false}, {"lat": 36.6537, "lon": 137.2299, "name": "\u4e0a\u5800", "type": "station", "is_24h": false}, {"lat": 36.6605, "lon": 137.2248, "name": "\u671d\u83dc\u753a", "type": "station", "is_24h": false}, {"lat": 36.6265, "lon": 137.2635, "name": "\u6708\u5ca1", "type": "station", "is_24h": false}, {"lat": 36.6362, "lon": 137.2429, "name": "\u958b\u767a", "type": "station", "is_24h": false}, {"lat": 36.6451, "lon": 137.2355, "name": "\u5e03\u5e02", "type": "station", "is_24h": false}, {"lat": 36.6875, "lon": 137.2324, "name": "\u4e0d\u4e8c\u8d8a", "type": "station", "is_24h": false}, {"lat": 36.6776, "lon": 137.2288, "name": "\u5927\u6cc9", "type": "station", "is_24h": false}, {"lat": 36.6477, "lon": 137.3179, "name": "\u4e0b\u6bb5", "type": "station", "is_24h": false}, {"lat": 36.575, "lon": 137.3962, "name": "\u672c\u5bae", "type": "station", "is_24h": false}, {"lat": 36.6576, "lon": 137.3168, "name": "\u698e\u753a", "type": "station", "is_24h": false}, {"lat": 36.6794, "lon": 137.3178, "name": "\u7530\u6dfb", "type": "station", "is_24h": false}, {"lat": 36.6863, "lon": 137.3176, "name": "\u7a1a\u5b50\u585a", "type": "station", "is_24h": false}, {"lat": 36.5822, "lon": 137.3357, "name": "\u6a2a\u6c5f", "type": "station", "is_24h": false}, {"lat": 36.6224, "lon": 137.3211, "name": "\u6ca2\u4e2d\u5c71", "type": "station", "is_24h": false}, {"lat": 36.633, "lon": 137.3195, "name": "\u91dc\u30f6\u6df5", "type": "station", "is_24h": false}, {"lat": 36.5737, "lon": 137.3735, "name": "\u5343\u57a3", "type": "station", "is_24h": false}, {"lat": 36.5731, "lon": 137.3802, "name": "\u6709\u5cf0\u53e3", "type": "station", "is_24h": false}, {"lat": 36.6654, "lon": 137.3143, "name": "\u4e94\u767e\u77f3", "type": "station", "is_24h": false}, {"lat": 36.7481, "lon": 137.2283, "name": "\u8429\u6d66\u5c0f\u5b66\u6821\u524d", "type": "station", "is_24h": false}, {"lat": 36.7312, "lon": 137.2261, "name": "\u57ce\u5ddd\u539f", "type": "station", "is_24h": false}, {"lat": 36.7225, "lon": 137.2249, "name": "\u8d8a\u4e2d\u4e2d\u5cf6", "type": "station", "is_24h": false}, {"lat": 36.7193, "lon": 137.2248, "name": "\u7c9f\u5cf6 (\u5927\u962a\u5c4b\u30b7\u30e7\u30c3\u30d7\u524d)", "type": "station", "is_24h": false}, {"lat": 36.7123, "lon": 137.2246, "name": "\u4e0b\u5965\u4e95", "type": "station", "is_24h": false}, {"lat": 36.7035, "lon": 137.2236, "name": "\u5965\u7530\u4e2d\u5b66\u6821\u524d", "type": "station", "is_24h": false}, {"lat": 36.7615, "lon": 137.234, "name": "\u5ca9\u702c\u6d5c", "type": "station", "is_24h": false}, {"lat": 36.7575, "lon": 137.2338, "name": "\u7af6\u8f2a\u5834\u524d", "type": "station", "is_24h": false}, {"lat": 36.2368, "lon": 137.1896, "name": "\u98db\u9a52\u53e4\u5ddd", "type": "station", "is_24h": false}, {"lat": 36.7749, "lon": 137.1117, "name": "\u8d8a\u30ce\u6f5f", "type": "station", "is_24h": false}, {"lat": 36.7789, "lon": 137.0843, "name": "\u65b0\u753a\u53e3", "type": "station", "is_24h": false}, {"lat": 36.7813, "lon": 137.0785, "name": "\u7b2c\u4e00\u30a4\u30f3\u65b0\u6e4a\u30af\u30ed\u30b9\u30d9\u30a4\u524d", "type": "station", "is_24h": false}, {"lat": 36.778, "lon": 137.0987, "name": "\u6771\u65b0\u6e4a", "type": "station", "is_24h": false}, {"lat": 36.7845, "lon": 137.0707, "name": "\u5e84\u5ddd\u53e3", "type": "station", "is_24h": false}, {"lat": 36.7752, "lon": 137.0886, "name": "\u4e2d\u65b0\u6e4a", "type": "station", "is_24h": false}, {"lat": 36.5834, "lon": 137.4459, "name": "\u7acb\u5c71", "type": "station", "is_24h": false}, {"lat": 36.5833, "lon": 137.4586, "name": "\u7f8e\u5973\u5e73", "type": "station", "is_24h": false}, {"lat": 36.5671, "lon": 137.6501, "name": "\u9ed2\u90e8\u5e73", "type": "station", "is_24h": false}, {"lat": 36.6969, "lon": 137.6581, "name": "\u6b05\u5e73", "type": "station", "is_24h": false}, {"lat": 36.5665, "lon": 137.6583, "name": "\u9ed2\u90e8\u6e56", "type": "station", "is_24h": false}, {"lat": 36.6782, "lon": 137.169, "name": "\u5a66\u4e2d\u9d5c\u5742", "type": "station", "is_24h": false}, {"lat": 36.7021, "lon": 137.2127, "name": "\u5bcc\u5c71", "type": "station", "is_24h": false}, {"lat": 36.7016, "lon": 137.2128, "name": "\u5bcc\u5c71", "type": "station", "is_24h": false}, {"lat": 36.1144, "lon": 137.9478, "name": "\u5869\u5c3b", "type": "station", "is_24h": false}, {"lat": 36.1482, "lon": 137.9495, "name": "\u5e83\u4e18", "type": "station", "is_24h": false}, {"lat": 36.2372, "lon": 137.9608, "name": "\u5317\u677e\u672c", "type": "station", "is_24h": false}, {"lat": 36.2097, "lon": 137.9692, "name": "\u5357\u677e\u672c", "type": "station", "is_24h": false}, {"lat": 36.557, "lon": 137.5051, "name": "\u9b3c\u30f6\u57ce\u9023\u7d61\u6240", "type": "station", "is_24h": false}, {"lat": 36.5672, "lon": 137.485, "name": "\u6851\u8c37\u9023\u7d61\u6240", "type": "station", "is_24h": false}, {"lat": 36.5691, "lon": 137.4716, "name": "\u4e2d\u5c0f\u5c4b\u9023\u7d61\u6240", "type": "station", "is_24h": false}, {"lat": 36.7311, "lon": 137.2261, "name": "\u57ce\u5ddd\u539f", "type": "station", "is_24h": false}, {"lat": 36.7426, "lon": 137.2276, "name": "\u84ee\u753a\uff08\u99ac\u5834\u8a18\u5ff5\u516c\u5712\u524d\uff09", "type": "station", "is_24h": false}, {"lat": 36.7527, "lon": 137.2309, "name": "\u6771\u5ca9\u702c", "type": "station", "is_24h": false}, {"lat": 36.7352, "lon": 137.2266, "name": "\u72ac\u5cf6\u65b0\u753a", "type": "station", "is_24h": false}, {"lat": 36.5485, "lon": 137.5143, "name": "\u6a3a\u5e73\u9023\u7d61\u6240", "type": "station", "is_24h": false}, {"lat": 36.5508, "lon": 137.5312, "name": "\u6c34\u8c37\u9023\u7d61\u6240", "type": "station", "is_24h": false}, {"lat": 36.0882, "lon": 137.2474, "name": "\u98db\u9a52\u4e00\u30ce\u5bae", "type": "station", "is_24h": false}, {"lat": 36.0492, "lon": 137.8948, "name": "\u65e5\u51fa\u5869", "type": "station", "is_24h": false}, {"lat": 36.087, "lon": 137.9165, "name": "\u6d17\u99ac", "type": "station", "is_24h": false}, {"lat": 36.094, "lon": 137.9821, "name": "\u307f\u3069\u308a\u6e56", "type": "station", "is_24h": false}, {"lat": 36.2307, "lon": 137.9644, "name": "\u677e\u672c", "type": "station", "is_24h": false}, {"lat": 36.2271, "lon": 137.9563, "name": "\u6e1a", "type": "station", "is_24h": false}, {"lat": 36.2271, "lon": 137.9633, "name": "\u897f\u677e\u672c", "type": "station", "is_24h": false}, {"lat": 36.1898, "lon": 137.8216, "name": "\u65b0\u5cf6\u3005", "type": "station", "is_24h": false}, {"lat": 36.2004, "lon": 137.8564, "name": "\u6ce2\u7530", "type": "station", "is_24h": false}, {"lat": 36.2063, "lon": 137.8719, "name": "\u4e0b\u5cf6", "type": "station", "is_24h": false}, {"lat": 36.2081, "lon": 137.8814, "name": "\u68ee\u53e3", "type": "station", "is_24h": false}, {"lat": 36.2128, "lon": 137.8914, "name": "\u4e09\u6e9d", "type": "station", "is_24h": false}, {"lat": 36.2165, "lon": 137.9053, "name": "\u65b0\u6751", "type": "station", "is_24h": false}, {"lat": 36.2197, "lon": 137.9139, "name": "\u5317\u65b0\u30fb\u677e\u672c\u5927\u5b66\u524d", "type": "station", "is_24h": false}, {"lat": 36.2251, "lon": 137.9223, "name": "\u4e0b\u65b0", "type": "station", "is_24h": false}, {"lat": 36.227, "lon": 137.9417, "name": "\u5927\u5ead", "type": "station", "is_24h": false}, {"lat": 36.2291, "lon": 137.9492, "name": "\u4fe1\u6fc3\u8352\u4e95", "type": "station", "is_24h": false}, {"lat": 36.1953, "lon": 137.8403, "name": "\u6e15\u6771", "type": "station", "is_24h": false}, {"lat": 36.8265, "lon": 137.4057, "name": "\u9b5a\u6d25", "type": "station", "is_24h": false}, {"lat": 36.0469, "lon": 137.9706, "name": "\u5c0f\u91ce", "type": "station", "is_24h": false}, {"lat": 36.0127, "lon": 137.9727, "name": "\u4fe1\u6fc3\u5ddd\u5cf6", "type": "station", "is_24h": false}, {"lat": 36.2469, "lon": 137.9449, "name": "\u5cf6\u5185", "type": "station", "is_24h": false}, {"lat": 36.2464, "lon": 137.9316, "name": "\u5cf6\u9ad8\u677e", "type": "station", "is_24h": false}, {"lat": 36.2503, "lon": 137.9181, "name": "\u6893\u6a4b", "type": "station", "is_24h": false}, {"lat": 36.2598, "lon": 137.9042, "name": "\u4e00\u65e5\u5e02\u5834", "type": "station", "is_24h": false}, {"lat": 36.7748, "lon": 137.9084, "name": "\u5357\u5c0f\u8c37", "type": "station", "is_24h": false}, {"lat": 36.7635, "lon": 137.9009, "name": "\u5343\u56fd", "type": "station", "is_24h": false}, {"lat": 36.3002, "lon": 137.9008, "name": "\u8c4a\u79d1", "type": "station", "is_24h": false}, {"lat": 36.2916, "lon": 137.9034, "name": "\u5357\u8c4a\u79d1", "type": "station", "is_24h": false}, {"lat": 36.2734, "lon": 137.9033, "name": "\u4e2d\u8431", "type": "station", "is_24h": false}, {"lat": 36.6916, "lon": 137.2334, "name": "\u6804\u753a", "type": "station", "is_24h": false}, {"lat": 36.727, "lon": 137.012, "name": "\u65b0\u9ad8\u5ca1", "type": "station", "is_24h": false}, {"lat": 36.3396, "lon": 137.8818, "name": "\u7a42\u9ad8", "type": "station", "is_24h": false}, {"lat": 36.1751, "lon": 137.9564, "name": "\u6751\u4e95", "type": "station", "is_24h": false}, {"lat": 36.7036, "lon": 137.2235, "name": "\u5965\u7530\u4e2d\u5b66\u6821\u524d", "type": "station", "is_24h": false}, {"lat": 36.3007, "lon": 137.9412, "name": "\u7530\u6ca2", "type": "station", "is_24h": false}, {"lat": 36.3543, "lon": 137.9305, "name": "\u660e\u79d1", "type": "station", "is_24h": false}, {"lat": 36.8156, "lon": 137.5841, "name": "\u5b87\u5948\u6708\u6e29\u6cc9", "type": "station", "is_24h": false}, {"lat": 36.7045, "lon": 137.357, "name": "\u4e0a\u5e02", "type": "station", "is_24h": false}, {"lat": 36.7005, "lon": 137.2149, "name": "\u96fb\u9244\u5bcc\u5c71", "type": "station", "is_24h": false}, {"lat": 36.6987, "lon": 137.2533, "name": "\u6771\u65b0\u5e84", "type": "station", "is_24h": false}, {"lat": 36.6969, "lon": 137.2315, "name": "\u7a32\u8377\u753a", "type": "station", "is_24h": false}, {"lat": 36.8732, "lon": 137.4811, "name": "\u65b0\u9ed2\u90e8", "type": "station", "is_24h": false}, {"lat": 36.6988, "lon": 137.3186, "name": "\u5bfa\u7530", "type": "station", "is_24h": false}, {"lat": 36.6083, "lon": 137.3197, "name": "\u5ca9\u5cc5\u5bfa", "type": "station", "is_24h": false}, {"lat": 36.7056, "lon": 137.3065, "name": "\u8d8a\u4e2d\u821f\u6a4b", "type": "station", "is_24h": false}, {"lat": 36.698, "lon": 137.2422, "name": "\u65b0\u5e84\u7530\u4e2d", "type": "station", "is_24h": false}, {"lat": 36.6992, "lon": 137.2665, "name": "\u8d8a\u4e2d\u834f\u539f", "type": "station", "is_24h": false}, {"lat": 36.7034, "lon": 137.2908, "name": "\u8d8a\u4e2d\u4e09\u90f7", "type": "station", "is_24h": false}, {"lat": 36.7692, "lon": 137.3488, "name": "\u6ed1\u5ddd", "type": "station", "is_24h": false}, {"lat": 36.8702, "lon": 137.4341, "name": "\u9ed2\u90e8", "type": "station", "is_24h": false}, {"lat": 36.9415, "lon": 137.4997, "name": "\u5165\u5584", "type": "station", "is_24h": false}, {"lat": 36.9518, "lon": 137.5558, "name": "\u6cca", "type": "station", "is_24h": false}, {"lat": 36.9804, "lon": 137.6502, "name": "\u5e02\u632f", "type": "station", "is_24h": false}, {"lat": 36.7191, "lon": 137.1658, "name": "\u5449\u7fbd", "type": "station", "is_24h": false}, {"lat": 36.7207, "lon": 137.0927, "name": "\u5c0f\u6749", "type": "station", "is_24h": false}, {"lat": 36.7345, "lon": 137.0548, "name": "\u8d8a\u4e2d\u5927\u9580", "type": "station", "is_24h": false}, {"lat": 36.7413, "lon": 137.249, "name": "\u6771\u5bcc\u5c71", "type": "station", "is_24h": false}, {"lat": 36.6501, "lon": 137.6827, "name": "\u4ed9\u4eba\u8c37", "type": "station", "is_24h": false}, {"lat": 36.1916, "lon": 137.9625, "name": "\u5e73\u7530", "type": "station", "is_24h": false}, {"lat": 36.3714, "lon": 137.8731, "name": "\u5b89\u66c7\u8ffd\u5206", "type": "station", "is_24h": false}, {"lat": 36.5475, "lon": 137.5326, "name": "station", "type": "station", "is_24h": false}, {"lat": 36.5476, "lon": 137.5348, "name": "station", "type": "station", "is_24h": false}, {"lat": 36.7751, "lon": 137.0886, "name": "\u4e2d\u65b0\u6e4a", "type": "station", "is_24h": false}, {"lat": 36.5834, "lon": 137.4455, "name": "\u7acb\u5c71", "type": "station", "is_24h": false}, {"lat": 36.3231, "lon": 137.8883, "name": "\u67cf\u77e2\u753a", "type": "station", "is_24h": false}, {"lat": 36.397, "lon": 137.8656, "name": "\u7d30\u91ce", "type": "station", "is_24h": false}, {"lat": 36.4062, "lon": 137.8628, "name": "\u5317\u7d30\u91ce", "type": "station", "is_24h": false}, {"lat": 36.4253, "lon": 137.8585, "name": "\u4fe1\u6fc3\u677e\u5ddd", "type": "station", "is_24h": false}, {"lat": 36.4479, "lon": 137.8547, "name": "\u5b89\u66c7\u6c93\u639b", "type": "station", "is_24h": false}, {"lat": 36.4672, "lon": 137.8472, "name": "\u4fe1\u6fc3\u5e38\u76e4", "type": "station", "is_24h": false}, {"lat": 36.4915, "lon": 137.8563, "name": "\u5357\u5927\u753a", "type": "station", "is_24h": false}, {"lat": 36.5, "lon": 137.8616, "name": "\u4fe1\u6fc3\u5927\u753a", "type": "station", "is_24h": false}, {"lat": 36.5176, "lon": 137.858, "name": "\u5317\u5927\u753a", "type": "station", "is_24h": false}, {"lat": 36.5357, "lon": 137.846, "name": "\u4fe1\u6fc3\u6728\u5d0e", "type": "station", "is_24h": false}, {"lat": 36.5543, "lon": 137.8426, "name": "\u7a32\u5c3e", "type": "station", "is_24h": false}, {"lat": 36.5656, "lon": 137.8419, "name": "\u6d77\u30ce\u53e3", "type": "station", "is_24h": false}, {"lat": 36.5947, "lon": 137.8446, "name": "\u7c17\u5834", "type": "station", "is_24h": false}, {"lat": 36.6369, "lon": 137.8414, "name": "\u5357\u795e\u57ce", "type": "station", "is_24h": false}, {"lat": 36.6579, "lon": 137.8465, "name": "\u795e\u57ce", "type": "station", "is_24h": false}, {"lat": 36.6707, "lon": 137.85, "name": "\u98ef\u68ee", "type": "station", "is_24h": false}, {"lat": 36.6958, "lon": 137.8637, "name": "\u767d\u99ac", "type": "station", "is_24h": false}, {"lat": 36.711, "lon": 137.8716, "name": "\u4fe1\u6fc3\u68ee\u4e0a", "type": "station", "is_24h": false}, {"lat": 36.7406, "lon": 137.8854, "name": "\u767d\u99ac\u5927\u6c60", "type": "station", "is_24h": false}, {"lat": 36.7144, "lon": 137.0062, "name": "\u4e8c\u585a", "type": "station", "is_24h": false}, {"lat": 36.8743, "lon": 137.4814, "name": "\u9ed2\u90e8\u5b87\u5948\u6708\u6e29\u6cc9", "type": "station", "is_24h": false}, {"lat": 36.7192, "lon": 137.2249, "name": "\u7c9f\u5cf6 (\u5927\u962a\u5c4b\u30b7\u30e7\u30c3\u30d7\u524d)", "type": "station", "is_24h": false}, {"lat": 36.783, "lon": 137.6241, "name": "\u7b39\u5e73", "type": "station", "is_24h": false}, {"lat": 36.7496, "lon": 137.2009, "name": "\u30bb\u30d6\u30f3-\u30a4\u30ec\u30d6\u30f3", "type": "convenience_store", "is_24h": true}, {"lat": 36.7385, "lon": 137.0275, "name": "convenience_store", "type": "convenience_store", "is_24h": true}, {"lat": 36.2103, "lon": 137.9642, "name": "\u30bb\u30d6\u30f3-\u30a4\u30ec\u30d6\u30f3", "type": "convenience_store", "is_24h": true}, {"lat": 36.2375, "lon": 137.9593, "name": "\u30d5\u30a1\u30df\u30ea\u30fc\u30de\u30fc\u30c8", "type": "convenience_store", "is_24h": true}, {"lat": 36.6998, "lon": 137.2117, "name": "\u30ed\u30fc\u30bd\u30f3", "type": "convenience_store", "is_24h": true}, {"lat": 36.661, "lon": 137.2193, "name": "\u30bb\u30d6\u30f3-\u30a4\u30ec\u30d6\u30f3", "type": "convenience_store", "is_24h": true}, {"lat": 36.9578, "lon": 137.5627, "name": "\u677e\u7530\u5546\u5e97", "type": "convenience_store", "is_24h": true}, {"lat": 36.6822, "lon": 137.2636, "name": "\u30ed\u30fc\u30bd\u30f3", "type": "convenience_store", "is_24h": true}, {"lat": 36.9474, "lon": 137.5584, "name": "\u30ed\u30fc\u30bd\u30f3", "type": "convenience_store", "is_24h": true}, {"lat": 36.691, "lon": 137.8431, "name": "Taro Club", "type": "convenience_store", "is_24h": true}, {"lat": 36.2301, "lon": 137.9657, "name": "\u30bb\u30d6\u30f3-\u30a4\u30ec\u30d6\u30f3", "type": "convenience_store", "is_24h": true}, {"lat": 36.7572, "lon": 137.1971, "name": "\u30d5\u30a1\u30df\u30ea\u30fc\u30de\u30fc\u30c8", "type": "convenience_store", "is_24h": true}, {"lat": 36.7701, "lon": 137.0717, "name": "\u30d5\u30a1\u30df\u30ea\u30fc\u30de\u30fc\u30c8", "type": "convenience_store", "is_24h": true}, {"lat": 36.1137, "lon": 137.9603, "name": "\u30bb\u30d6\u30f3-\u30a4\u30ec\u30d6\u30f3", "type": "convenience_store", "is_24h": true}, {"lat": 36.2453, "lon": 137.9817, "name": "\u30bb\u30d6\u30f3-\u30a4\u30ec\u30d6\u30f3", "type": "convenience_store", "is_24h": true}, {"lat": 36.7927, "lon": 137.9129, "name": "\u30ed\u30fc\u30bd\u30f3", "type": "convenience_store", "is_24h": true}, {"lat": 36.2961, "lon": 137.3685, "name": "\u30e4\u30de\u30b6\u30ad\u30b7\u30e7\u30c3\u30d7", "type": "convenience_store", "is_24h": true}, {"lat": 36.1328, "lon": 137.2592, "name": "convenience_store", "type": "convenience_store", "is_24h": true}, {"lat": 36.7386, "lon": 137.0066, "name": "\u30d5\u30a1\u30df\u30ea\u30fc\u30de\u30fc\u30c8", "type": "convenience_store", "is_24h": true}, {"lat": 36.3021, "lon": 137.9066, "name": "\u30ed\u30fc\u30bd\u30f3", "type": "convenience_store", "is_24h": true}, {"lat": 36.736, "lon": 137.0644, "name": "\u30d5\u30a1\u30df\u30ea\u30fc\u30de\u30fc\u30c8", "type": "convenience_store", "is_24h": true}, {"lat": 36.6756, "lon": 137.852, "name": "\u30ed\u30fc\u30bd\u30f3", "type": "convenience_store", "is_24h": true}, {"lat": 36.7736, "lon": 137.3473, "name": "\u30d5\u30a1\u30df\u30ea\u30fc\u30de\u30fc\u30c8", "type": "convenience_store", "is_24h": true}, {"lat": 36.14, "lon": 137.2549, "name": "\u30bb\u30d6\u30f3-\u30a4\u30ec\u30d6\u30f3", "type": "convenience_store", "is_24h": true}, {"lat": 36.6958, "lon": 137.8636, "name": "convenience_store", "type": "convenience_store", "is_24h": true}, {"lat": 36.7149, "lon": 137.0867, "name": "\u30d5\u30a1\u30df\u30ea\u30fc\u30de\u30fc\u30c8", "type": "convenience_store", "is_24h": true}, {"lat": 36.7553, "lon": 137.0869, "name": "\u30d5\u30a1\u30df\u30ea\u30fc\u30de\u30fc\u30c8", "type": "convenience_store", "is_24h": true}, {"lat": 36.8154, "lon": 137.5803, "name": "\u30ed\u30fc\u30bd\u30f3", "type": "convenience_store", "is_24h": true}, {"lat": 36.6969, "lon": 137.0777, "name": "\u30bb\u30d6\u30f3-\u30a4\u30ec\u30d6\u30f3", "type": "convenience_store", "is_24h": true}, {"lat": 36.1435, "lon": 137.2587, "name": "\u30bb\u30d6\u30f3-\u30a4\u30ec\u30d6\u30f3", "type": "convenience_store", "is_24h": true}, {"lat": 36.6899, "lon": 137.2121, "name": "\u30d5\u30a1\u30df\u30ea\u30fc\u30de\u30fc\u30c8", "type": "convenience_store", "is_24h": true}, {"lat": 36.701, "lon": 137.0617, "name": "\u30ed\u30fc\u30bd\u30f3", "type": "convenience_store", "is_24h": true}, {"lat": 36.8166, "lon": 137.5827, "name": "\u3084\u307e\u3068\u3084", "type": "convenience_store", "is_24h": true}, {"lat": 36.8914, "lon": 137.4153, "name": "\u751f\u5730\u84b2\u927e\uff08\u6709\uff09", "type": "convenience_store", "is_24h": true}, {"lat": 36.7409, "lon": 137.0045, "name": "\u30ed\u30fc\u30bd\u30f3", "type": "convenience_store", "is_24h": true}, {"lat": 36.2115, "lon": 137.8879, "name": "\u30d5\u30a1\u30df\u30ea\u30fc\u30de\u30fc\u30c8", "type": "convenience_store", "is_24h": true}, {"lat": 36.1418, "lon": 137.2521, "name": "\u30d5\u30a1\u30df\u30ea\u30fc\u30de\u30fc\u30c8", "type": "convenience_store", "is_24h": true}, {"lat": 36.6856, "lon": 137.2219, "name": "\u30d5\u30a1\u30df\u30ea\u30fc\u30de\u30fc\u30c8", "type": "convenience_store", "is_24h": true}, {"lat": 36.2221, "lon": 137.9796, "name": "\u30bb\u30d6\u30f3-\u30a4\u30ec\u30d6\u30f3", "type": "convenience_store", "is_24h": true}, {"lat": 36.5786, "lon": 137.0799, "name": "\u5409\u7530\u5546\u5e97", "type": "convenience_store", "is_24h": true}, {"lat": 36.7703, "lon": 137.0092, "name": "\u30ed\u30fc\u30bd\u30f3", "type": "convenience_store", "is_24h": true}, {"lat": 36.8242, "lon": 137.4213, "name": "\u30d5\u30a1\u30df\u30ea\u30fc\u30de\u30fc\u30c8", "type": "convenience_store", "is_24h": true}, {"lat": 36.7367, "lon": 137.3139, "name": "convenience_store", "type": "convenience_store", "is_24h": true}, {"lat": 36.5021, "lon": 137.8552, "name": "\u30bb\u30d6\u30f3-\u30a4\u30ec\u30d6\u30f3", "type": "convenience_store", "is_24h": true}, {"lat": 36.7047, "lon": 137.0987, "name": "\u30bb\u30d6\u30f3-\u30a4\u30ec\u30d6\u30f3", "type": "convenience_store", "is_24h": true}, {"lat": 36.2317, "lon": 137.965, "name": "\u30bb\u30d6\u30f3-\u30a4\u30ec\u30d6\u30f3", "type": "convenience_store", "is_24h": true}, {"lat": 36.1569, "lon": 137.2442, "name": "\u30bb\u30d6\u30f3-\u30a4\u30ec\u30d6\u30f3", "type": "convenience_store", "is_24h": true}, {"lat": 36.3527, "lon": 137.9281, "name": "FamilyMart", "type": "convenience_store", "is_24h": true}, {"lat": 36.3974, "lon": 137.8846, "name": "\u30ed\u30fc\u30bd\u30f3", "type": "convenience_store", "is_24h": true}, {"lat": 36.495, "lon": 137.8361, "name": "\u30b5\u30fc\u30af\u30ebK", "type": "convenience_store", "is_24h": true}, {"lat": 36.5942, "lon": 137.149, "name": "7-Eleven", "type": "convenience_store", "is_24h": true}, {"lat": 36.2414, "lon": 137.9648, "name": "\u30ed\u30fc\u30bd\u30f3", "type": "convenience_store", "is_24h": true}, {"lat": 36.6871, "lon": 137.0205, "name": "\u30bb\u30d6\u30f3-\u30a4\u30ec\u30d6\u30f3", "type": "convenience_store", "is_24h": true}, {"lat": 36.7618, "lon": 137.0431, "name": "\u30ed\u30fc\u30bd\u30f3", "type": "convenience_store", "is_24h": true}, {"lat": 36.384, "lon": 137.8888, "name": "\u30bb\u30d6\u30f3-\u30a4\u30ec\u30d6\u30f3", "type": "convenience_store", "is_24h": true}, {"lat": 36.2328, "lon": 137.9678, "name": "\u30d5\u30a1\u30df\u30ea\u30fc\u30de\u30fc\u30c8", "type": "convenience_store", "is_24h": true}, {"lat": 36.144, "lon": 137.9516, "name": "\u30d5\u30a1\u30df\u30ea\u30fc\u30de\u30fc\u30c8", "type": "convenience_store", "is_24h": true}, {"lat": 36.7065, "lon": 137.0798, "name": "\u30d5\u30a1\u30df\u30ea\u30fc\u30de\u30fc\u30c8", "type": "convenience_store", "is_24h": true}, {"lat": 36.6435, "lon": 137.1941, "name": "\u30ed\u30fc\u30bd\u30f3", "type": "convenience_store", "is_24h": true}, {"lat": 36.3509, "lon": 137.9254, "name": "7 Eleven", "type": "convenience_store", "is_24h": true}, {"lat": 36.4683, "lon": 137.8489, "name": "\u30d5\u30a1\u30df\u30ea\u30fc\u30de\u30fc\u30c8", "type": "convenience_store", "is_24h": true}, {"lat": 36.2279, "lon": 137.1861, "name": "\u30c7\u30a4\u30ea\u30fc\u30e4\u30de\u30b6\u30ad", "type": "convenience_store", "is_24h": true}, {"lat": 36.5731, "lon": 137.209, "name": "\u30bb\u30d6\u30f3-\u30a4\u30ec\u30d6\u30f3", "type": "convenience_store", "is_24h": true}, {"lat": 36.7421, "lon": 137.0852, "name": "\u30ed\u30fc\u30bd\u30f3", "type": "convenience_store", "is_24h": true}, {"lat": 36.8705, "lon": 137.4364, "name": "Family Mart \u30d5\u30a1\u30df\u30ea\u30fc\u30de\u30fc\u30c8\u9ed2\u90e8\u99c5\u524d\u5e97", "type": "convenience_store", "is_24h": true}, {"lat": 36.1796, "lon": 137.932, "name": "\u30bb\u30d6\u30f3-\u30a4\u30ec\u30d6\u30f3", "type": "convenience_store", "is_24h": true}, {"lat": 36.1401, "lon": 137.2597, "name": "convenience_store", "type": "convenience_store", "is_24h": true}, {"lat": 36.6831, "lon": 137.2292, "name": "\u30ed\u30fc\u30bd\u30f3", "type": "convenience_store", "is_24h": true}, {"lat": 36.6953, "lon": 137.0777, "name": "\u30dd\u30d7\u30e9", "type": "convenience_store", "is_24h": true}, {"lat": 36.7552, "lon": 137.3076, "name": "\u30ed\u30fc\u30bd\u30f3\u6c34\u6a4b\u4e2d\u6751\u753a", "type": "convenience_store", "is_24h": true}, {"lat": 36.2807, "lon": 137.8788, "name": "\u30bb\u30d6\u30f3-\u30a4\u30ec\u30d6\u30f3", "type": "convenience_store", "is_24h": true}, {"lat": 36.7198, "lon": 137.2337, "name": "\u30bb\u30d6\u30f3-\u30a4\u30ec\u30d6\u30f3", "type": "convenience_store", "is_24h": true}, {"lat": 36.812, "lon": 137.3987, "name": "\u30d5\u30a1\u30df\u30ea\u30fc\u30de\u30fc\u30c8", "type": "convenience_store", "is_24h": true}, {"lat": 36.3021, "lon": 137.9005, "name": "\u30bb\u30d6\u30f3-\u30a4\u30ec\u30d6\u30f3", "type": "convenience_store", "is_24h": true}, {"lat": 36.8836, "lon": 137.4965, "name": "\u30ed\u30fc\u30bd\u30f3 \u9ed2\u90e8\u30a4\u30f3\u30bf\u30fc\u6771\u5e97", "type": "convenience_store", "is_24h": true}, {"lat": 36.774, "lon": 137.0873, "name": "\u30ed\u30fc\u30bd\u30f3", "type": "convenience_store", "is_24h": true}, {"lat": 36.6621, "lon": 137.1742, "name": "\u30d5\u30a1\u30df\u30ea\u30fc\u30de\u30fc\u30c8", "type": "convenience_store", "is_24h": true}, {"lat": 36.7109, "lon": 137.1053, "name": "\u30bb\u30d6\u30f3-\u30a4\u30ec\u30d6\u30f3", "type": "convenience_store", "is_24h": true}, {"lat": 36.6574, "lon": 137.142, "name": "\u30ed\u30fc\u30bd\u30f3", "type": "convenience_store", "is_24h": true}, {"lat": 36.687, "lon": 137.2162, "name": "\u30bb\u30d6\u30f3-\u30a4\u30ec\u30d6\u30f3", "type": "convenience_store", "is_24h": true}, {"lat": 36.54, "lon": 137.842, "name": "\u30ed\u30fc\u30bd\u30f3", "type": "convenience_store", "is_24h": true}, {"lat": 36.1712, "lon": 137.9482, "name": "\u30d5\u30a1\u30df\u30ea\u30fc\u30de\u30fc\u30c8", "type": "convenience_store", "is_24h": true}, {"lat": 36.7744, "lon": 137.0388, "name": "\u30bb\u30d6\u30f3-\u30a4\u30ec\u30d6\u30f3", "type": "convenience_store", "is_24h": true}, {"lat": 36.8657, "lon": 137.4495, "name": "\u30d5\u30a1\u30df\u30ea\u30fc\u30de\u30fc\u30c8", "type": "convenience_store", "is_24h": true}, {"lat": 36.1188, "lon": 137.9604, "name": "\u30ed\u30fc\u30bd\u30f3", "type": "convenience_store", "is_24h": true}, {"lat": 36.415, "lon": 137.8582, "name": "\u30d5\u30a1\u30df\u30ea\u30fc\u30de\u30fc\u30c8JA\u5927\u5317\u677e\u5ddd\u5e97", "type": "convenience_store", "is_24h": true}, {"lat": 36.1429, "lon": 137.2497, "name": "convenience_store", "type": "convenience_store", "is_24h": true}, {"lat": 36.6813, "lon": 137.2462, "name": "\u30d5\u30a1\u30df\u30ea\u30fc\u30de\u30fc\u30c8\u5bcc\u5c71\u79cb\u5409\u5e97", "type": "convenience_store", "is_24h": true}, {"lat": 36.8931, "lon": 137.5533, "name": "Lawson Nyuzencho Funami Shop \u30ed", "type": "convenience_store", "is_24h": true}, {"lat": 36.4729, "lon": 137.2416, "name": "\u821f\u6e21\u30b9\u30c8\u30a2\u30fc", "type": "convenience_store", "is_24h": true}, {"lat": 36.1701, "lon": 137.3137, "name": "\u30ed\u30fc\u30bd\u30f3", "type": "convenience_store", "is_24h": true}, {"lat": 36.6664, "lon": 137.1802, "name": "\u30d5\u30a1\u30df\u30ea\u30fc\u30de\u30fc\u30c8", "type": "convenience_store", "is_24h": true}, {"lat": 36.7585, "lon": 137.0606, "name": "\u30dd\u30d7\u30e9\u5c04\u6c34\u5742\u6771\u5e97", "type": "convenience_store", "is_24h": true}, {"lat": 36.7209, "lon": 137.1199, "name": "\u30bb\u30d6\u30f3-\u30a4\u30ec\u30d6\u30f3", "type": "convenience_store", "is_24h": true}, {"lat": 36.609, "lon": 137.2995, "name": "\u30d5\u30a1\u30df\u30ea\u30fc\u30de\u30fc\u30c8", "type": "convenience_store", "is_24h": true}, {"lat": 36.692, "lon": 137.2155, "name": "\u30d5\u30a1\u30df\u30ea\u30fc\u30de\u30fc\u30c8", "type": "convenience_store", "is_24h": true}, {"lat": 36.6281, "lon": 137.1345, "name": "\u30bb\u30d6\u30f3-\u30a4\u30ec\u30d6\u30f3", "type": "convenience_store", "is_24h": true}, {"lat": 36.1935, "lon": 137.9371, "name": "\u30bb\u30d6\u30f3-\u30a4\u30ec\u30d6\u30f3", "type": "convenience_store", "is_24h": true}, {"lat": 36.7141, "lon": 137.1618, "name": "\u30bb\u30d6\u30f3-\u30a4\u30ec\u30d6\u30f3", "type": "convenience_store", "is_24h": true}, {"lat": 36.5933, "lon": 137.1343, "name": "\u30d5\u30a1\u30df\u30ea\u30fc\u30de\u30fc\u30c8", "type": "convenience_store", "is_24h": true}]