[{"lat": 38.0307, "lon": 126.9173, "name": "\uc5f0\ucc9c\uacbd\ucc30\uc11c \ubc31\ud559\ud30c\ucd9c\uc18c", "type": "police_station", "is_24h": true}, {"lat": 38.8461, "lon": 126.0971, "name": "\uc0c1\uc6d0\uad70\uc778\ubbfc\ubcd1\uc6d0", "type": "hospital", "is_24h": false}, {"lat": 38.7474, "lon": 126.9909, "name": "Pangyo Up Clinic", "type": "hospital", "is_24h": false}, {"lat": 38.7515, "lon": 126.9966, "name": "Pangyo County Hospital", "type": "hospital", "is_24h": false}, {"lat": 38.7673, "lon": 126.9999, "name": "Kyong Do Ri Clinic", "type": "hospital", "is_24h": false}]