{
  "type": "pharmacy_24h",
  "source": "OpenStreetMap Overpass API",
  "query_bbox": [
    24,
    122,
    46,
    154
  ],
  "fetched_at": "2026-04-05",
  "count": 48,
  "features": [
    {
      "id": 458782050,
      "lat": 43.3538352,
      "lon": 132.1735094,
      "name": "",
      "name_en": "",
      "operator": "",
      "phone": "",
      "opening_hours": "24/7",
      "brand": "",
      "addr": ""
    },
    {
      "id": 538378029,
      "lat": 35.0286092,
      "lon": 135.7789634,
      "name": "ドラッグユタカ",
      "name_en": "",
      "operator": "",
      "phone": "",
      "opening_hours": "24/7",
      "brand": "",
      "addr": ""
    },
    {
      "id": 760178087,
      "lat": 43.8012258,
      "lon": 131.9513737,
      "name": "",
      "name_en": "",
      "operator": "",
      "phone": "",
      "opening_hours": "24/7",
      "brand": "",
      "addr": ""
    },
    {
      "id": 765943386,
      "lat": 43.8026109,
      "lon": 131.9505233,
      "name": "",
      "name_en": "",
      "operator": "",
      "phone": "",
      "opening_hours": "24/7",
      "brand": "",
      "addr": ""
    },
    {
      "id": 796933180,
      "lat": 35.0105673,
      "lon": 135.7564128,
      "name": "ダックス",
      "name_en": "",
      "operator": "",
      "phone": "",
      "opening_hours": "24/7",
      "brand": "",
      "addr": ""
    },
    {
      "id": 1096115239,
      "lat": 43.1115351,
      "lon": 131.9381577,
      "name": "",
      "name_en": "",
      "operator": "",
      "phone": "",
      "opening_hours": "24/7",
      "brand": "",
      "addr": ""
    },
    {
      "id": 1177095058,
      "lat": 43.0914918,
      "lon": 131.9701965,
      "name": "",
      "name_en": "",
      "operator": "",
      "phone": "",
      "opening_hours": "24/7",
      "brand": "",
      "addr": ""
    },
    {
      "id": 1554931177,
      "lat": 43.0996583,
      "lon": 131.8940115,
      "name": "",
      "name_en": "",
      "operator": "ООО \"Интера\"",
      "phone": "",
      "opening_hours": "24/7",
      "brand": "",
      "addr": ""
    },
    {
      "id": 1637708317,
      "lat": 35.6909262,
      "lon": 139.6681708,
      "name": "ウエルシア薬局",
      "name_en": "Welcia Yakkyoku",
      "operator": "",
      "phone": "",
      "opening_hours": "24/7",
      "brand": "ウエルシア薬局",
      "addr": ""
    },
    {
      "id": 1671886959,
      "lat": 35.7838454,
      "lon": 139.3021607,
      "name": "ウエルシア薬局",
      "name_en": "Welcia",
      "operator": "",
      "phone": "+81-428-30-7288",
      "opening_hours": "24/7",
      "brand": "welcia",
      "addr": ""
    },
    {
      "id": 1808379796,
      "lat": 35.6621493,
      "lon": 138.6559242,
      "name": "ツルハドラッグ",
      "name_en": "Tsuruha",
      "operator": "日向",
      "phone": "",
      "opening_hours": "24/7",
      "brand": "ツルハドラッグ",
      "addr": ""
    },
    {
      "id": 1855186013,
      "lat": 43.3542506,
      "lon": 132.1807889,
      "name": "Недорогая аптека",
      "name_en": "",
      "operator": "",
      "phone": "",
      "opening_hours": "24/7",
      "brand": "",
      "addr": ""
    },
    {
      "id": 1942911035,
      "lat": 36.1105711,
      "lon": 139.9777181,
      "name": "ウエルシア",
      "name_en": "",
      "operator": "寺島薬局",
      "phone": "+81-297-420578",
      "opening_hours": "24/7",
      "brand": "",
      "addr": ""
    },
    {
      "id": 1948064100,
      "lat": 36.0919663,
      "lon": 140.203041,
      "name": "ウエルシア薬局",
      "name_en": "Welcia Yakkyoku",
      "operator": "寺島薬局",
      "phone": "+81-29-8260248",
      "opening_hours": "24/7",
      "brand": "ウエルシア薬局",
      "addr": ""
    },
    {
      "id": 1948088845,
      "lat": 36.087386,
      "lon": 140.1880153,
      "name": "ウエルシア薬局",
      "name_en": "Welcia",
      "operator": "寺島薬局",
      "phone": "+81-29-8235868",
      "opening_hours": "24/7",
      "brand": "welcia",
      "addr": ""
    },
    {
      "id": 2005941894,
      "lat": 43.0966591,
      "lon": 131.9664659,
      "name": "",
      "name_en": "",
      "operator": "",
      "phone": "",
      "opening_hours": "24/7",
      "brand": "",
      "addr": ""
    },
    {
      "id": 2425368881,
      "lat": 35.013548,
      "lon": 139.8712616,
      "name": "ヤックスドラッグ 館山バイパス店 (Yac's)",
      "name_en": "Yac's",
      "operator": "",
      "phone": "+81-470-275208",
      "opening_hours": "24/7",
      "brand": "",
      "addr": ""
    },
    {
      "id": 3579710243,
      "lat": 35.6953964,
      "lon": 139.7668476,
      "name": "ウエルシア薬局",
      "name_en": "Welcia",
      "operator": "",
      "phone": "",
      "opening_hours": "24/7",
      "brand": "welcia",
      "addr": ""
    },
    {
      "id": 3950956475,
      "lat": 35.6819968,
      "lon": 139.6267499,
      "name": "サカエ薬局",
      "name_en": "",
      "operator": "",
      "phone": "",
      "opening_hours": "24/7",
      "brand": "",
      "addr": ""
    },
    {
      "id": 4577450773,
      "lat": 35.6670534,
      "lon": 139.5184173,
      "name": "ウェルシア",
      "name_en": "Welcia",
      "operator": "",
      "phone": "",
      "opening_hours": "24/7",
      "brand": "",
      "addr": ""
    },
    {
      "id": 4736365148,
      "lat": 36.0437886,
      "lon": 139.4123068,
      "name": "ウエルシア薬局",
      "name_en": "Welcia",
      "operator": "ウエルシア薬局",
      "phone": "",
      "opening_hours": "24/7",
      "brand": "welcia",
      "addr": ""
    },
    {
      "id": 4963110524,
      "lat": 35.7020588,
      "lon": 139.6939824,
      "name": "スギ薬局",
      "name_en": "Sugi Pharmacy",
      "operator": "",
      "phone": "",
      "opening_hours": "24/7",
      "brand": "スギ薬局",
      "addr": ""
    },
    {
      "id": 5420210442,
      "lat": 35.6894538,
      "lon": 139.6619986,
      "name": "ツルハドラッグ",
      "name_en": "Tsuruha",
      "operator": "",
      "phone": "",
      "opening_hours": "24/7",
      "brand": "ツルハドラッグ",
      "addr": ""
    },
    {
      "id": 5563480358,
      "lat": 34.5372072,
      "lon": 135.4553953,
      "name": "ウエルシア薬局",
      "name_en": "Welcia",
      "operator": "",
      "phone": "+81-72-268-6060",
      "opening_hours": "24/7",
      "brand": "welcia",
      "addr": ""
    },
    {
      "id": 5682659052,
      "lat": 35.7936838,
      "lon": 139.8173284,
      "name": "ウエルシア",
      "name_en": "Welcia",
      "operator": "",
      "phone": "",
      "opening_hours": "24/7",
      "brand": "ウエルシア",
      "addr": ""
    },
    {
      "id": 5837634648,
      "lat": 35.9536185,
      "lon": 139.3935496,
      "name": "ウエルシア坂戸南町店",
      "name_en": "",
      "operator": "",
      "phone": "",
      "opening_hours": "24/7",
      "brand": "",
      "addr": ""
    },
    {
      "id": 6222179645,
      "lat": 35.0448839,
      "lon": 138.5012403,
      "name": "ウエルシア",
      "name_en": "Welcia",
      "operator": "",
      "phone": "",
      "opening_hours": "24/7",
      "brand": "ウエルシア",
      "addr": ""
    },
    {
      "id": 6259093251,
      "lat": 36.6586461,
      "lon": 138.196562,
      "name": "ウエルシア薬局",
      "name_en": "Welcia",
      "operator": "",
      "phone": "",
      "opening_hours": "24/7",
      "brand": "welcia",
      "addr": ""
    },
    {
      "id": 6342537602,
      "lat": 34.5836155,
      "lon": 135.5543094,
      "name": "ウエルシア",
      "name_en": "Welcia",
      "operator": "",
      "phone": "",
      "opening_hours": "24/7",
      "brand": "ウエルシア",
      "addr": ""
    },
    {
      "id": 6822255985,
      "lat": 34.6034831,
      "lon": 135.5456756,
      "name": "ウエルシア 平野瓜破西店",
      "name_en": "Welshia hiranouriwari",
      "operator": "",
      "phone": "",
      "opening_hours": "24/7",
      "brand": "",
      "addr": ""
    },
    {
      "id": 8344868248,
      "lat": 35.7311575,
      "lon": 140.46929,
      "name": "ヤックスドラッグ",
      "name_en": "Yac's Drug",
      "operator": "",
      "phone": "",
      "opening_hours": "24/7",
      "brand": "",
      "addr": ""
    },
    {
      "id": 8528345721,
      "lat": 35.2887557,
      "lon": 140.2513989,
      "name": "ヤックスドラッグ大多喜店",
      "name_en": "",
      "operator": "",
      "phone": "0470-82-5535",
      "opening_hours": "24/7",
      "brand": "",
      "addr": ""
    },
    {
      "id": 8710980717,
      "lat": 35.7589774,
      "lon": 139.5325095,
      "name": "ウエルシア薬局",
      "name_en": "Welcia",
      "operator": "",
      "phone": "+81-42-479-0125",
      "opening_hours": "24/7",
      "brand": "welcia",
      "addr": ""
    },
    {
      "id": 8830689317,
      "lat": 36.2749645,
      "lon": 139.3580999,
      "name": "ウエルシア太田岩瀬川店",
      "name_en": "",
      "operator": "",
      "phone": "",
      "opening_hours": "24/7",
      "brand": "",
      "addr": ""
    },
    {
      "id": 8830689417,
      "lat": 36.4222309,
      "lon": 139.0680686,
      "name": "ウエルシア前橋青柳店",
      "name_en": "",
      "operator": "",
      "phone": "",
      "opening_hours": "24/7",
      "brand": "",
      "addr": ""
    },
    {
      "id": 8830689719,
      "lat": 36.1557306,
      "lon": 139.3899944,
      "name": "ウエルシア薬局",
      "name_en": "Welcia",
      "operator": "",
      "phone": "",
      "opening_hours": "24/7",
      "brand": "welcia",
      "addr": ""
    },
    {
      "id": 9753611339,
      "lat": 35.6400503,
      "lon": 139.747816,
      "name": "ドラッグセイムス",
      "name_en": "",
      "operator": "",
      "phone": "+81 3 6459 4117",
      "opening_hours": "24/7",
      "brand": "セイムス",
      "addr": ""
    },
    {
      "id": 9936905163,
      "lat": 35.6102533,
      "lon": 140.1415667,
      "name": "ヤックスドラッグ",
      "name_en": "Yac's Drug",
      "operator": "",
      "phone": "",
      "opening_hours": "24/7",
      "brand": "",
      "addr": ""
    },
    {
      "id": 9965204483,
      "lat": 35.6574161,
      "lon": 140.3087018,
      "name": "ヤックスドラッグ",
      "name_en": "Yac's Drug",
      "operator": "",
      "phone": "043-442-4460",
      "opening_hours": "24/7",
      "brand": "",
      "addr": ""
    },
    {
      "id": 10300493656,
      "lat": 35.7089102,
      "lon": 139.3711378,
      "name": "ウエルシア薬局",
      "name_en": "Welcia",
      "operator": "",
      "phone": "",
      "opening_hours": "24/7",
      "brand": "welcia",
      "addr": ""
    },
    {
      "id": 10576430091,
      "lat": 43.1508239,
      "lon": 131.9088721,
      "name": "ТвояАптека.рф",
      "name_en": "",
      "operator": "",
      "phone": "",
      "opening_hours": "24/7",
      "brand": "",
      "addr": ""
    },
    {
      "id": 10853975223,
      "lat": 35.1737084,
      "lon": 137.0061408,
      "name": "ウエルシア",
      "name_en": "",
      "operator": "",
      "phone": "",
      "opening_hours": "24/7",
      "brand": "",
      "addr": ""
    },
    {
      "id": 12111707297,
      "lat": 43.1183752,
      "lon": 131.8867081,
      "name": "Планета здоровья",
      "name_en": "",
      "operator": "",
      "phone": "+7 800 7550500",
      "opening_hours": "24/7",
      "brand": "",
      "addr": ""
    },
    {
      "id": 12488457810,
      "lat": 35.5806616,
      "lon": 139.658476,
      "name": "アイン薬局",
      "name_en": "Ain Pharmacy",
      "operator": "",
      "phone": "",
      "opening_hours": "24/7",
      "brand": "アイン薬局",
      "addr": ""
    },
    {
      "id": 12589800201,
      "lat": 36.5683333,
      "lon": 136.6641117,
      "name": "スギ薬局",
      "name_en": "",
      "operator": "",
      "phone": "",
      "opening_hours": "24/7",
      "brand": "",
      "addr": ""
    },
    {
      "id": 12758832601,
      "lat": 34.9149161,
      "lon": 137.1767672,
      "name": "ウエルシア岡崎上地店",
      "name_en": "",
      "operator": "",
      "phone": "",
      "opening_hours": "24/7",
      "brand": "",
      "addr": ""
    },
    {
      "id": 13014848871,
      "lat": 37.5650742,
      "lon": 127.0804895,
      "name": "신성온누리약국",
      "name_en": "",
      "operator": "",
      "phone": "",
      "opening_hours": "24/7",
      "brand": "",
      "addr": "면목로"
    },
    {
      "id": 13575232302,
      "lat": 41.6844163,
      "lon": 122.1146836,
      "name": "康益堂大药房",
      "name_en": "",
      "operator": "",
      "phone": "",
      "opening_hours": "24/7",
      "brand": "",
      "addr": ""
    }
  ]
}