[
  {
    "lat": 34.75441,
    "lon": 135.39514,
    "type": "fushinsha",
    "subtype": "suspicious_person_approach",
    "severity": 2,
    "title": "（兵庫）尼崎市武庫之荘東１丁目で声かけ　３月２７日［解決］",
    "date": "2026-03-27",
    "source": "JASPIC",
    "geocode_method": "gsi"
  },
  {
    "lat": 42.88258,
    "lon": 141.57777,
    "type": "fushinsha",
    "subtype": "sexual_crime_groping",
    "severity": 4,
    "title": "（北海道）恵庭市で痴漢　３月２３日",
    "date": "2026-03-23",
    "source": "JASPIC",
    "geocode_method": "gsi"
  },
  {
    "lat": 35.46011,
    "lon": 139.60185,
    "type": "fushinsha",
    "subtype": "suspicious_person_approach",
    "severity": 2,
    "title": "（神奈川）横浜市保土ケ谷区宮田町１丁目で声かけ　４月１日",
    "date": "2026-04-01",
    "source": "JASPIC",
    "geocode_method": "gsi"
  },
  {
    "lat": 35.4478,
    "lon": 139.6425,
    "type": "fushinsha",
    "subtype": "weapons",
    "severity": 4,
    "title": "（神奈川）横浜市金沢区瀬戸で刃物所持の疑い　４月２日",
    "date": "2026-04-02",
    "source": "JASPIC",
    "geocode_method": "pref_centroid"
  },
  {
    "lat": 35.77266,
    "lon": 139.59549,
    "type": "fushinsha",
    "subtype": "robbery",
    "severity": 5,
    "title": "（東京）練馬区大泉学園町８丁目付近で強盗　４月２日",
    "date": "2026-04-02",
    "source": "JASPIC",
    "geocode_method": "gsi"
  },
  {
    "lat": 34.57434,
    "lon": 133.36301,
    "type": "fushinsha",
    "subtype": "weapons",
    "severity": 4,
    "title": "（広島）福山市神辺町西中条で刃物所持　４月１日［解決］",
    "date": "2026-04-01",
    "source": "JASPIC",
    "geocode_method": "gsi"
  },
  {
    "lat": 34.71174,
    "lon": 135.4167,
    "type": "fushinsha",
    "subtype": "suspicious_person_stalking",
    "severity": 3,
    "title": "（兵庫）尼崎市築地５丁目付近でつきまとい　４月２日",
    "date": "2026-04-02",
    "source": "JASPIC",
    "geocode_method": "gsi"
  },
  {
    "lat": 33.49692,
    "lon": 130.53107,
    "type": "fushinsha",
    "subtype": "unknown",
    "severity": 2,
    "title": "（福岡）筑紫野市二日市北８丁目付近で不審な接触　４月２日",
    "date": "2026-04-02",
    "source": "JASPIC",
    "geocode_method": "gsi"
  },
  {
    "lat": 35.27276,
    "lon": 139.18149,
    "type": "fushinsha",
    "subtype": "suspicious_person_stalking",
    "severity": 3,
    "title": "（神奈川）小田原市南鴨宮３丁目でつきまとい　４月１日",
    "date": "2026-04-01",
    "source": "JASPIC",
    "geocode_method": "gsi"
  },
  {
    "lat": 35.1802,
    "lon": 136.9066,
    "type": "fushinsha",
    "subtype": "purse_snatching",
    "severity": 4,
    "title": "（愛知）江南市山王町でひったくり　４月２日",
    "date": "2026-04-02",
    "source": "JASPIC",
    "geocode_method": "pref_centroid"
  },
  {
    "lat": 36.56964,
    "lon": 138.00841,
    "type": "fushinsha",
    "subtype": "wildlife_boar",
    "severity": 3,
    "title": "（長野）長野市信州新町新町でイノシシ出没　４月２日",
    "date": "2026-04-02",
    "source": "JASPIC",
    "geocode_method": "gsi"
  },
  {
    "lat": 39.96912,
    "lon": 139.85319,
    "type": "fushinsha",
    "subtype": "wildlife_bear",
    "severity": 4,
    "title": "（秋田）男鹿市五里合琴川でクマ出没痕跡　４月１日",
    "date": "2026-04-01",
    "source": "JASPIC",
    "geocode_method": "gsi"
  },
  {
    "lat": 35.88652,
    "lon": 136.05928,
    "type": "fushinsha",
    "subtype": "wildlife_bear",
    "severity": 4,
    "title": "（福井）越前市上杉本町でクマ出没　４月１日",
    "date": "2026-04-01",
    "source": "JASPIC",
    "geocode_method": "gsi"
  },
  {
    "lat": 35.93989,
    "lon": 136.01248,
    "type": "fushinsha",
    "subtype": "wildlife_bear",
    "severity": 4,
    "title": "（福井）越前町道口でクマ出没　４月１日",
    "date": "2026-04-01",
    "source": "JASPIC",
    "geocode_method": "gsi"
  },
  {
    "lat": 38.35539,
    "lon": 140.91106,
    "type": "fushinsha",
    "subtype": "wildlife_bear",
    "severity": 4,
    "title": "（宮城）富谷市明石原川戸でクマ出没　４月１日",
    "date": "2026-04-01",
    "source": "JASPIC",
    "geocode_method": "gsi"
  },
  {
    "lat": 38.2688,
    "lon": 140.8721,
    "type": "fushinsha",
    "subtype": "wildlife_bear",
    "severity": 4,
    "title": "（宮城）栗原市高清水宿の沢でクマ出没　４月１日",
    "date": "2026-04-01",
    "source": "JASPIC",
    "geocode_method": "pref_centroid"
  },
  {
    "lat": 43.0642,
    "lon": 141.3469,
    "type": "fushinsha",
    "subtype": "wildlife_bear",
    "severity": 4,
    "title": "（北海道）千歳市西森でクマ出没　４月１日",
    "date": "2026-04-01",
    "source": "JASPIC",
    "geocode_method": "pref_centroid"
  },
  {
    "lat": 39.7186,
    "lon": 140.1024,
    "type": "fushinsha",
    "subtype": "wildlife_bear",
    "severity": 4,
    "title": "（秋田）鹿角市花輪福士川でクマ出没　３月３１日",
    "date": "2026-03-31",
    "source": "JASPIC",
    "geocode_method": "pref_centroid"
  },
  {
    "lat": 39.69953,
    "lon": 140.13568,
    "type": "fushinsha",
    "subtype": "wildlife_bear",
    "severity": 4,
    "title": "（秋田）秋田市楢山石塚町でクマ出没　４月２日",
    "date": "2026-04-02",
    "source": "JASPIC",
    "geocode_method": "gsi"
  },
  {
    "lat": 39.51243,
    "lon": 140.20085,
    "type": "fushinsha",
    "subtype": "wildlife_bear",
    "severity": 4,
    "title": "（秋田）秋田市雄和神ケ村西又でクマ出没　４月２日",
    "date": "2026-04-02",
    "source": "JASPIC",
    "geocode_method": "gsi"
  },
  {
    "lat": 35.857,
    "lon": 139.6489,
    "type": "fushinsha",
    "subtype": "theft",
    "severity": 3,
    "title": "（埼玉）白岡市彦兵衛で侵入窃盗　３月３１日から４月１日",
    "date": "2026-03-31",
    "source": "JASPIC",
    "geocode_method": "pref_centroid"
  },
  {
    "lat": 35.3426,
    "lon": 139.61905,
    "type": "fushinsha",
    "subtype": "unknown",
    "severity": 2,
    "title": "（神奈川）横浜市金沢区釜利谷東２丁目でバイク盗　４月１日",
    "date": "2026-04-01",
    "source": "JASPIC",
    "geocode_method": "gsi"
  },
  {
    "lat": 35.93288,
    "lon": 139.635,
    "type": "fushinsha",
    "subtype": "unknown",
    "severity": 2,
    "title": "（埼玉）さいたま市北区土呂町２丁目で自動車盗　３月３１日から４月１日",
    "date": "2026-03-31",
    "source": "JASPIC",
    "geocode_method": "gsi"
  },
  {
    "lat": 35.54163,
    "lon": 139.60806,
    "type": "fushinsha",
    "subtype": "unknown",
    "severity": 2,
    "title": "（神奈川）横浜市港北区新吉田町で自動車盗　３月２８日",
    "date": "2026-03-28",
    "source": "JASPIC",
    "geocode_method": "gsi"
  },
  {
    "lat": 35.96511,
    "lon": 139.60809,
    "type": "fushinsha",
    "subtype": "unknown",
    "severity": 2,
    "title": "（埼玉）上尾市日の出３丁目で自動車盗　４月１日",
    "date": "2026-04-01",
    "source": "JASPIC",
    "geocode_method": "gsi"
  },
  {
    "lat": 35.6047,
    "lon": 140.1233,
    "type": "fushinsha",
    "subtype": "theft",
    "severity": 3,
    "title": "（千葉）松戸市二十世紀が丘美野里町で侵入窃盗　４月１日",
    "date": "2026-04-01",
    "source": "JASPIC",
    "geocode_method": "pref_centroid"
  },
  {
    "lat": 36.05391,
    "lon": 139.3123,
    "type": "fushinsha",
    "subtype": "theft",
    "severity": 3,
    "title": "（埼玉）嵐山町志賀で侵入窃盗　４月１日",
    "date": "2026-04-01",
    "source": "JASPIC",
    "geocode_method": "gsi"
  },
  {
    "lat": 35.9399,
    "lon": 139.69191,
    "type": "fushinsha",
    "subtype": "theft",
    "severity": 3,
    "title": "（埼玉）さいたま市岩槻区加倉５丁目で侵入窃盗　３月３１日から４月１日",
    "date": "2026-03-31",
    "source": "JASPIC",
    "geocode_method": "gsi"
  },
  {
    "lat": 35.1802,
    "lon": 136.9066,
    "type": "fushinsha",
    "subtype": "unknown",
    "severity": 2,
    "title": "（愛知）名古屋市中川区八田本町で自動車盗　４月１日から２日",
    "date": "2026-04-01",
    "source": "JASPIC",
    "geocode_method": "pref_centroid"
  },
  {
    "lat": 35.37191,
    "lon": 139.63922,
    "type": "fushinsha",
    "subtype": "unknown",
    "severity": 2,
    "title": "（神奈川）横浜市金沢区並木１丁目でバイク盗　３月２９日",
    "date": "2026-03-29",
    "source": "JASPIC",
    "geocode_method": "gsi"
  },
  {
    "lat": 35.47694,
    "lon": 139.62944,
    "type": "fushinsha",
    "subtype": "suspicious_person",
    "severity": 2,
    "title": "神奈川県 横浜市神奈川区（つきまとい）49",
    "date": null,
    "source": "日本不審者情報センター",
    "geocode_method": "gsi"
  },
  {
    "lat": 35.90185,
    "lon": 139.6306,
    "type": "fushinsha",
    "subtype": "suspicious_person",
    "severity": 2,
    "title": "埼玉県 さいたま市大宮区（つきまとい）51",
    "date": null,
    "source": "日本不審者情報センター",
    "geocode_method": "gsi"
  },
  {
    "lat": 35.6895,
    "lon": 139.6917,
    "type": "news",
    "subtype": "crime",
    "severity": 3,
    "title": "“取り調べで反社発言”検事不起訴に不服 被告側が付審判請求",
    "date": "2026-04-03",
    "source": "NHK地域",
    "geocode_method": "pref_centroid"
  },
  {
    "lat": 35.6895,
    "lon": 139.6917,
    "type": "news",
    "subtype": "crime",
    "severity": 4,
    "title": "自民会合 自衛官の中国大使館侵入 全容解明求める意見相次ぐ",
    "date": "2026-03-31",
    "source": "NHK科学",
    "geocode_method": "pref_centroid"
  },
  {
    "lat": 35.73564,
    "lon": 139.65184,
    "type": "crime_report",
    "subtype": "robbery",
    "severity": 3,
    "title": "練馬区のマンションに男２人押し入り、現金８０００円奪い逃走…強盗事件として捜査",
    "date": null,
    "source": "読売新聞",
    "geocode_method": "gsi"
  },
  {
    "lat": 36.38946,
    "lon": 139.06346,
    "type": "crime_report",
    "subtype": "sexual_crime",
    "severity": 3,
    "title": "チェーンソーなど盗んだ疑いで男２人逮捕…チャットＧＰＴに「いくらで売れる？」と聞いて値段判断",
    "date": null,
    "source": "読売新聞",
    "geocode_method": "gsi"
  },
  {
    "lat": 33.6064,
    "lon": 130.4183,
    "type": "crime_report",
    "subtype": "sexual_crime",
    "severity": 3,
    "title": "下着姿など盗撮されＬＩＮＥグループで拡散、高校生が不登校に…いじめ重大事態の報告書を福岡県教委初公表",
    "date": null,
    "source": "読売新聞",
    "geocode_method": "pref_centroid"
  },
  {
    "lat": 35.0214,
    "lon": 135.7556,
    "type": "crime_report",
    "subtype": "homicide_arson",
    "severity": 3,
    "title": "京都アニメーション放火殺人事件2023/6/22 15:49",
    "date": "2026年4月3日",
    "source": "毎日新聞",
    "geocode_method": "pref_centroid"
  },
  {
    "lat": 34.6864,
    "lon": 135.52,
    "type": "crime_report",
    "subtype": "robbery",
    "severity": 3,
    "title": "ひったくりは、今 大阪12000件のデータから",
    "date": "2022年10月27日",
    "source": "朝日新聞",
    "geocode_method": "pref_centroid"
  }
]